city,city_ascii,city_alt,lat,lng,country,iso2,iso3,admin_name,admin_name_ascii,admin_code,admin_type,capital,density,population,population_proper,ranking,timezone,same_name,id
Tirana,Tirana,Tyranna|Tiranë,41.3289,19.8178,Albania,AL,ALB,Tiranë,Tirane,AL-11,county,primary,10011.8,418495,418495,1,Europe/Tirane,FALSE,1008162156
Durrës,Durres,Durrësi|Dyrrachium|Durrsi|Drach|Durësi|Dyrrakhion|Epidamnos|Durz|Durts|Dures|Durazzo|Drac,41.3133,19.4458,Albania,AL,ALB,Durrës,Durres,AL-02,county,admin,334.8,175110,175110,2,Europe/Tirane,FALSE,1008173690
Vlorë,Vlore,Vlonë|Vljora|Avlonya|Avlona|Avlon|Au’lon|Valona|Vlona|Vallona|Vlora,40.4667,19.4833,Albania,AL,ALB,Vlorë,Vlore,AL-12,county,admin,10902.2,130827,130827,2,Europe/Tirane,FALSE,1008276050
Kamëz,Kamez,Kamzë|Kamza|Kambëza|Camza,41.3833,19.7667,Albania,AL,ALB,Tiranë,Tirane,AL-11,county,,5834.2,126777,126777,2,Europe/Tirane,FALSE,1008148968
Fier,Fier,Fieri|Fjeri,40.7250,19.5572,Albania,AL,ALB,Fier,Fier,AL-04,county,admin,1546.9,120655,120655,2,Europe/Tirane,FALSE,1008293317
Shkodër,Shkoder,Shkodra,42.0681,19.5119,Albania,AL,ALB,Shkodër,Shkoder,AL-10,county,admin,128.7,112276,112276,2,Europe/Tirane,FALSE,1008977725
Elbasan,Elbasan,Elbassan|Elbasani,41.1111,20.0806,Albania,AL,ALB,Elbasan,Elbasan,AL-03,county,admin,3628.1,78703,78703,2,Europe/Tirane,FALSE,1008409270
Korçë,Korce,"Körice|Korcha|Korça|Korrçë|Koritsa|Corriza|Corizza|Coritsa|Corcë|Ghiortsa Corcia|Goritsa|Korica|Korrça|Coritza|Koritza|Coriza|Gorica|Korytsa|Korche",40.6167,20.7667,Albania,AL,ALB,Korçë,Korce,AL-06,county,admin,2813.6,51152,51152,2,Europe/Tirane,FALSE,1008361921
Sarandë,Sarande,"Saranta|Santi Quaranta|Zogaj|Porto Edda|Hagios Saranta|Santa Quaranta|Saranda|Agioi",39.8750,20.0100,Albania,AL,ALB,Vlorë,Vlore,AL-12,county,,695.4,41000,41000,3,Europe/Tirane,FALSE,1008879697
Berat,Berat,Veration|Lezskigrad|Berati|Beligrad|Beration|Berta|Verati,40.7022,19.9583,Albania,AL,ALB,Berat,Berat,AL-01,county,admin,5793.0,36496,36496,2,Europe/Tirane,FALSE,1008955153
Lushnjë,Lushnje,"Lushne|Lousnia|Lušnje|Ljušnje|Ljushna Cod a Gomares|Lushnja",40.9333,19.7000,Albania,AL,ALB,Fier,Fier,AL-04,county,,83.5,31105,31105,3,Europe/Tirane,FALSE,1008790888
Kavajë,Kavaje,Kavaja|Kavaj|Cavaia|Cavaja|Kavaïa,41.1842,19.5619,Albania,AL,ALB,Tiranë,Tirane,AL-11,county,,70.9,29354,29354,3,Europe/Tirane,FALSE,1008475617
Gjirokastër,Gjirokaster,Ergiri|Argyrokastron|Argyrokastro|Arghyrocastro|Gjinokastrer|Gjinokastre|Gjinokastër|Agirocastro|Ghinokastre|Argirocastro|Gjirokastra|Ergheni|Aryirokastron|Gjinokastra|Gjirokastrë,40.0667,20.1333,Albania,AL,ALB,Gjirokastër,Gjirokaster,AL-05,county,admin,850.8,23437,23437,2,Europe/Tirane,FALSE,1008368062
Pogradec,Pogradec,Pogradeci|Pogradets,40.9000,20.6500,Albania,AL,ALB,Korçë,Korce,AL-06,county,,1692.6,20848,20848,3,Europe/Tirane,FALSE,1008366566
Fushë-Krujë,Fushe-Kruje,"Fush-Kruja|Teke Fuscia Crujs|Fuš e Krujs|Fush’ e Krujës|Fushë e Krujës|Fushë Kruja",41.4833,19.7167,Albania,AL,ALB,Durrës,Durres,AL-02,county,,397.5,18477,18477,3,Europe/Tirane,FALSE,1008652935
Laç,Lac,Latsch|Laçi,41.6353,19.7131,Albania,AL,ALB,Lezhë,Lezhe,AL-08,county,,674.5,17086,17086,3,Europe/Tirane,FALSE,1008762785
Kukës,Kukes,Kukuch|Kukësi|Kuks|Kukus|Kuksi|Cucus,42.0833,20.4167,Albania,AL,ALB,Kukës,Kukes,AL-07,county,admin,992.3,16719,16719,2,Europe/Tirane,FALSE,1008649172
Sukth,Sukth,"Sucsi|Sukf|Sukth i Vjetër|Sukthi",41.3833,19.5333,Albania,AL,ALB,Durrës,Durres,AL-02,county,,181.2,15966,15966,3,Europe/Tirane,FALSE,1008647190
Buçimas,Bucimas,Starovë|Buçimasi|Starova,40.8917,20.6806,Albania,AL,ALB,Korçë,Korce,AL-06,county,,339.1,15687,15687,3,Europe/Tirane,FALSE,1008557449
Lezhë,Lezhe,Lješ|Lezh|Leshi|Alessio|Leshe|Lisi|Lezha|Lyesh|Lesh,41.7819,19.6444,Albania,AL,ALB,Lezhë,Lezhe,AL-08,county,admin,4206.8,15510,15510,2,Europe/Tirane,FALSE,1008889153
Patos,Patos,Patosi|Pahtosi|Pahtosa,40.6833,19.6167,Albania,AL,ALB,Fier,Fier,AL-04,county,,429.0,15397,15397,3,Europe/Tirane,FALSE,1008184635
Peshkopi,Peshkopi,Peshkopla|Peshkopije|Peshkëpijë|Peshkepija|Piscopeia|Peshkopië|Dibrë|Pishkopeja|Dibra|Pishcopeja|Peshkopia|Peshkopija,41.6833,20.4281,Albania,AL,ALB,Dibër,Diber,AL-09,county,admin,2418.1,13251,13251,2,Europe/Tirane,FALSE,1008412550
Librazhd-Qendër,Librazhd-Qender,"Librazhd Qëndre|Hala",41.1969,20.3356,Albania,AL,ALB,Elbasan,Elbasan,AL-03,county,,37.1,12691,12691,3,Europe/Tirane,FALSE,1008639331
Kuçovë,Kucove,"Stalin|Petrolia|Kuçova|Qyteti Stalin",40.8039,19.9144,Albania,AL,ALB,Berat,Berat,AL-01,county,,79.0,12654,12654,3,Europe/Tirane,FALSE,1008520632
Krujë,Kruje,Kroja|Cruja|Akçehisar|Krueja|Krue|Kroïa|Kroya|Krna|Kruja|Croia,41.5108,19.7925,Albania,AL,ALB,Durrës,Durres,AL-02,county,,31.5,11721,11721,3,Europe/Tirane,FALSE,1008696208
Burrel,Burrel,Burreli|Burrelë|Burela|Burelë|Bureli,41.6083,20.0111,Albania,AL,ALB,Dibër,Diber,AL-09,county,,503.6,10862,10862,3,Europe/Tirane,FALSE,1008883153
Perondi,Perondi,Perondija|Perhondija|Perhondia|Perhond|Perhondi|Perondia,40.7833,19.9333,Albania,AL,ALB,Berat,Berat,AL-01,county,,208.9,9005,9005,3,Europe/Tirane,FALSE,1008411335
Libonik,Libonik,Liboniku|Libovnik,40.7500,20.7167,Albania,AL,ALB,Korçë,Korce,AL-06,county,,103.3,8922,8922,3,Europe/Tirane,FALSE,1008483668
Rrëshen,Rreshen,Rsheni|Rshen|Rrsheni|Rëshëni|Rrshen|Rëshen|Rresheni,41.7667,19.8833,Albania,AL,ALB,Lezhë,Lezhe,AL-08,county,,45.2,8803,8803,3,Europe/Tirane,FALSE,1008845269
Belsh,Belsh,Belëshit|Belësh|Belshi|Belëshi,40.9833,19.8833,Albania,AL,ALB,Elbasan,Elbasan,AL-03,county,,44.7,8781,8781,3,Europe/Tirane,FALSE,1008080226
Milot,Milot,Miljoti|Miloti,41.6833,19.7167,Albania,AL,ALB,Lezhë,Lezhe,AL-08,county,,61.3,8461,8461,4,Europe/Tirane,FALSE,1008402327
Divjakë,Divjake,Pisha|Duvijaka|Divjaka|Diviaka|Divjaca|Divjak,40.9944,19.5306,Albania,AL,ALB,Fier,Fier,AL-04,county,,79.0,8445,8445,3,Europe/Tirane,FALSE,1008489904
Gramsh,Gramsh,Gramshi|Gramsci|Gramish,40.8667,20.1833,Albania,AL,ALB,Elbasan,Elbasan,AL-03,county,,897.6,8440,8440,3,Europe/Tirane,FALSE,1008632813
Mamurras,Mamurras,Mamuraz|Mamurasi|Mamuras|Murrizaj|Mamurrasi,41.5833,19.7000,Albania,AL,ALB,Lezhë,Lezhe,AL-08,county,,201.9,8282,8282,3,Europe/Tirane,FALSE,1008549519
Bulqizë,Bulqize,Bulqiza|Bulkiza|Bulquize,41.4833,20.2167,Albania,AL,ALB,Dibër,Diber,AL-09,county,,12.1,8177,8177,3,Europe/Tirane,FALSE,1008809272
"Vau i Dejës","Vau i Dejes","Dejas|Vai Dejës|Vau Dejës",42.0000,19.6333,Albania,AL,ALB,Shkodër,Shkoder,AL-10,county,,82.0,8117,8117,3,Europe/Tirane,FALSE,1008394491
Shëngjin,Shengjin,"Šen Ðovani di Medua|San Njin|Shëngjini|Shen Ghen|San Giovanni di Medua|Sveti Jovan Medovski|Sh’njini|Saint Giovanni di Medua",41.8136,19.5939,Albania,AL,ALB,Lezhë,Lezhe,AL-08,county,,177.6,8091,8091,3,Europe/Tirane,FALSE,1008373202
Klos,Klos,Klosi|Dullinjasi,41.5064,20.0864,Albania,AL,ALB,Dibër,Diber,AL-09,county,,45.3,7873,7873,4,Europe/Tirane,FALSE,1008972828
Ballsh,Ballsh,Balš|Ballshi|Ballëshi|Ballësh|Baleri,40.6008,19.7364,Albania,AL,ALB,Fier,Fier,AL-04,county,,934.5,7657,7657,3,Europe/Tirane,FALSE,1008709957
Shijak,Shijak,"Šjak|Shjak|Shijaku|Shëjaku|Shejak|San Giacomo|Shyaku|Bazar Sciak",41.3456,19.5672,Albania,AL,ALB,Durrës,Durres,AL-02,county,,1680.4,7568,7568,3,Europe/Tirane,FALSE,1008348826
Bilisht,Bilisht,Bilisthi|Bilishtë|Biklishta|Bilishti|Biclishta|Biglista,40.6275,20.9900,Albania,AL,ALB,Korçë,Korce,AL-06,county,,313.0,7114,7114,3,Europe/Tirane,FALSE,1008832248
Rrogozhinë,Rrogozhine,Rrogozësa|Rogožin|Rogozhinë|Rogozhina|Rrogzhine|Rrogozhina|Rogozina,41.0761,19.6667,Albania,AL,ALB,Tiranë,Tirane,AL-11,county,,769.6,7049,7049,3,Europe/Tirane,FALSE,1008422115
Çërravë,Cerrave,Çëravë|Cerava|Cerav|Çërrava,40.8500,20.7333,Albania,AL,ALB,Korçë,Korce,AL-06,county,,78.7,7009,7009,4,Europe/Tirane,FALSE,1008460198
Librazhd,Librazhd,Labrazhd|Librazhet|Libraždi|Libohovo|Libohov|Librash|Libokhovon|Librazhdi,41.1833,20.3167,Albania,AL,ALB,Elbasan,Elbasan,AL-03,county,,530.7,6937,6937,3,Europe/Tirane,FALSE,1008800835
Cërrik,Cerrik,Cerriku|Valasi,41.0333,19.9833,Albania,AL,ALB,Elbasan,Elbasan,AL-03,county,,35.3,6695,6695,3,Europe/Tirane,FALSE,1008302673
Roskovec,Roskovec,"Treg i Frasherit|Roscovec|Roskoveci|Rroskoveci|Tregu-Frasherit",40.7333,19.7000,Albania,AL,ALB,Fier,Fier,AL-04,county,,255.2,6657,6657,3,Europe/Tirane,FALSE,1008765146
Manzë,Manze,Manëz|Manësi|Mansmyns|Manza|Manës|Mansmins|Manëza|Manëzë|Manxit,41.4333,19.5833,Albania,AL,ALB,Durrës,Durres,AL-02,county,,113.4,6652,6652,4,Europe/Tirane,FALSE,1008189422
Peqin,Peqin,Peqinj|Pekinj|Pekin|Pecin|Peqini|Pekini,41.0458,19.7500,Albania,AL,ALB,Elbasan,Elbasan,AL-03,county,,1064.3,6353,6353,3,Europe/Tirane,FALSE,1008394656
Kastriot,Kastriot,Kastrioti|Kastriota,41.7293,20.3769,Albania,AL,ALB,Dibër,Diber,AL-09,county,,73.2,6200,6200,4,Europe/Tirane,FALSE,1008096036
Krumë,Krume,Kruma,42.2000,20.4167,Albania,AL,ALB,Kukës,Kukes,AL-07,county,,78.2,6006,6006,3,Europe/Tirane,FALSE,1008823158
Përmet,Permet,Premeti|Permeti|Prëmet|Premetē,40.2333,20.3500,Albania,AL,ALB,Gjirokastër,Gjirokaster,AL-05,county,,383.0,5945,5945,3,Europe/Tirane,FALSE,1008604833
Përrenjas-Fshat,Perrenjas-Fshat,Prrenjas-Fshat|Prrenjasi,41.0667,20.5500,Albania,AL,ALB,Elbasan,Elbasan,AL-03,county,,244.7,5847,5847,3,Europe/Tirane,FALSE,1008362765
Prrenjas,Prrenjas,"Përrenjës|Përrenjasi|Prenjësi|Prenjasi|Prrenjasi|Fshat Përrenjasi|Prenjs|Prrenjas|Prenjas",41.0667,20.5500,Albania,AL,ALB,Elbasan,Elbasan,AL-03,county,,244.7,5847,5847,3,Europe/Tirane,FALSE,1008654405
Delvinë,Delvine,Delvina|Delvinon|Zelvinou|Delvino,39.9500,20.1000,Albania,AL,ALB,Vlorë,Vlore,AL-12,county,,103.9,5754,5754,3,Europe/Tirane,FALSE,1008273800
Orikum,Orikum,Orikumi|Oriku|Orik,40.3333,19.4667,Albania,AL,ALB,Vlorë,Vlore,AL-12,county,,14.4,5503,5503,3,Europe/Tirane,FALSE,1008184319
"Bajram Curri","Bajram Curri","Bajram|Bayram Tsurri|Kolgecai|Kolgecaj|Bajram Curr",42.3583,20.0761,Albania,AL,ALB,Kukës,Kukes,AL-07,county,,8.7,5340,5340,3,Europe/Tirane,FALSE,1008251523
Bërzhitë,Berzhite,Berzhita|Bregjshte|Bregishte,41.2500,19.9000,Albania,AL,ALB,Tiranë,Tirane,AL-11,county,,62.0,4973,4973,4,Europe/Tirane,FALSE,1008338511
Vorë,Vore,Vora|Vorrë|Vorra,41.3939,19.6544,Albania,AL,ALB,Tiranë,Tirane,AL-11,county,,248.5,4973,4973,3,Europe/Tirane,FALSE,1008893438
Këlcyrë,Kelcyre,Klisura|Kelcyrës|Kleisoura|Këlcyra,40.3130,20.1920,Albania,AL,ALB,Gjirokastër,Gjirokaster,AL-05,county,,42.1,4900,4900,3,Europe/Tirane,FALSE,1008663510
"Ura Vajgurore","Ura Vajgurore","Ura-Vaygurore|Ura-Khasan-Beut|Ura e Hasan Beut|Ura Asan Beut|Yefira Hassan Beut|Ur’e Hasan Beut|Urë-Vajgurore",40.7667,19.8833,Albania,AL,ALB,Berat,Berat,AL-01,county,,31.3,4893,4893,3,Europe/Tirane,FALSE,1008970091
Himarë,Himare,Imara|Kheimara|Cimarre|Himara|Chimara,40.1167,19.7333,Albania,AL,ALB,Vlorë,Vlore,AL-12,county,,13.6,4596,4596,3,Europe/Tirane,FALSE,1008694992
Baldushk,Baldushk,Bulldushku|Balldushk|Balije|Baldushku|Baldushkë|Balldushku|Balja|Baldushuku,41.2167,19.8000,Albania,AL,ALB,Tiranë,Tirane,AL-11,county,,31.7,4576,4576,4,Europe/Tirane,FALSE,1008935566
Rubik,Rubik,Rubig|Rrubig|Rubiku|Rrubigu|Rrumbiku,41.7667,19.7833,Albania,AL,ALB,Lezhë,Lezhe,AL-08,county,,31.7,4454,4454,3,Europe/Tirane,FALSE,1008923701
Tepelenë,Tepelene,Tepelen|Tepelena|Tepeleni,40.2967,20.0189,Albania,AL,ALB,Gjirokastër,Gjirokaster,AL-05,county,,147.4,4342,4342,3,Europe/Tirane,FALSE,1008683571
Poliçan,Polican,Poliçani,40.6122,20.0981,Albania,AL,ALB,Berat,Berat,AL-01,county,,15.9,4318,4318,3,Europe/Tirane,FALSE,1008655372
Çorovodë,Corovode,Cerevodë|Zhaban|Cerevoda|Gjavan|Çorovoda,40.5000,20.2167,Albania,AL,ALB,Berat,Berat,AL-01,county,,5.2,4051,4051,3,Europe/Tirane,FALSE,1008566247
Ersekë,Erseke,"Kolonijë|Kolonija|Erseka|Ersek|Kolonjë|Colonia|Erseg Giatseg|Kolonja",40.3333,20.6833,Albania,AL,ALB,Korçë,Korce,AL-06,county,,438.9,3746,3746,3,Europe/Tirane,FALSE,1008049831
Maliq,Maliq,Maliqi,40.7083,20.7000,Albania,AL,ALB,Korçë,Korce,AL-06,county,,83.2,3735,3735,3,Europe/Tirane,FALSE,1008037904
Koplik,Koplik,"Kopliku-e Poshtëm|Koplik i Poshtëm|Kopliku|Koplik Pošter|Kopliku i Poshtëm",42.2136,19.4364,Albania,AL,ALB,Shkodër,Shkoder,AL-10,county,,535.6,3734,3734,3,Europe/Tirane,FALSE,1008940720
Kocul,Kocul,Kocilji|Cozuli|Koculi,40.4778,19.6572,Albania,AL,ALB,Vlorë,Vlore,AL-12,county,,15.7,3702,3702,4,Europe/Tirane,FALSE,1008707519
Pukë,Puke,"Puka Katund|Puca|Puka",42.0500,19.9000,Albania,AL,ALB,Shkodër,Shkoder,AL-10,county,,128.1,3607,3607,3,Europe/Tirane,FALSE,1008739218
Lazarat,Lazarat,Lazarati|Linzarates|Liazarati,40.0500,20.1500,Albania,AL,ALB,Gjirokastër,Gjirokaster,AL-05,county,,62.6,3160,3160,3,Europe/Tirane,FALSE,1008388702
Memaliaj,Memaliaj,Mamaliaga|Mamaliaj|Memalianji,40.3500,19.9833,Albania,AL,ALB,Gjirokastër,Gjirokaster,AL-05,county,,163.8,2646,2646,3,Europe/Tirane,FALSE,1008216303
Velçan,Velcan,"Velcan Mokra|Velçani i Mokrës|Velcan Mokrra|Velçan i Mokrës|Velçani|Velçan i Mokrrës",40.9500,20.4667,Albania,AL,ALB,Korçë,Korce,AL-06,county,,14.0,2548,2548,3,Europe/Tirane,FALSE,1008336486
Banaj,Banaj,Bananj|Banani|Beran,40.8247,19.8392,Albania,AL,ALB,Berat,Berat,AL-01,county,,144.5,2500,2500,3,Europe/Tirane,FALSE,1008376953
Borsh,Borsh,"Borshi|Fort Borsi|Borsc|Borshi",40.0625,19.8567,Albania,AL,ALB,Vlorë,Vlore,AL-12,county,,21.0,2500,2500,4,Europe/Tirane,FALSE,1008038529
Fushë-Arrëz,Fushe-Arrez,"Arsi|Fushe-Ares|Fushë e Arrëzit|Fushë-Arrësi|Fushë-Arëzit|Fushë-Arëzi|Fusha e Arsit|Fusha e Arrëzit|Fusha e Arëzit|Arst|Arrës|Fushe Arrezi|Fusha-e-Arresit|Fushe-Aresi",42.0622,20.0167,Albania,AL,ALB,Shkodër,Shkoder,AL-10,county,,29.0,2438,2438,3,Europe/Tirane,FALSE,1008765437
Bajzë,Bajze,,42.2764,19.4322,Albania,AL,ALB,Shkodër,Shkoder,AL-10,county,,43.9,2346,2346,4,Europe/Tirane,FALSE,1008350710
Krrabë,Krrabe,"Krraba e Vogël|Kraba e Vogël|Kërraba|Krraba Vogel|Krraba|Krrabe e Vog|Kërrabë",41.2167,19.9667,Albania,AL,ALB,Tiranë,Tirane,AL-11,county,,123.9,2343,2343,3,Europe/Tirane,FALSE,1008719638
Selenicë,Selenice,Seleniza|Selenica|Selenic|Selenizza|Selenitsa,40.5333,19.6333,Albania,AL,ALB,Vlorë,Vlore,AL-12,county,,100.2,2235,2235,3,Europe/Tirane,FALSE,1008969762
Voskopojë,Voskopoje,Moskopole|Moskhopolis|Voskopoj|Voskopoja|Voskopoi|Moscopole,40.6333,20.5903,Albania,AL,ALB,Korçë,Korce,AL-06,county,,4.0,2218,2218,3,Europe/Tirane,FALSE,1008589375
Drenovë,Drenove,Drenovo|Drenova,40.5833,20.7833,Albania,AL,ALB,Korçë,Korce,AL-06,county,,59.3,2000,2000,3,Europe/Tirane,FALSE,1008544728
Bitinckë,Bitincke,Bitinsckë|Bitincka,40.6478,20.9836,Albania,AL,ALB,Korçë,Korce,AL-06,county,,63.2,2000,2000,3,Europe/Tirane,FALSE,1008678189
Libohovë,Libohove,"Libohova Qendër|Libohova|Libohov|Libhova|Libohovo|Libokhovon",40.0333,20.2667,Albania,AL,ALB,Gjirokastër,Gjirokaster,AL-05,county,,61.1,1992,1992,3,Europe/Tirane,FALSE,1008005424
Reps,Reps,Repse|Repsi,41.8661,20.0258,Albania,AL,ALB,Lezhë,Lezhe,AL-08,county,,7.0,1899,1899,3,Europe/Tirane,FALSE,1008182935
Dhërmi,Dhermi,Drimades|Dhrimazes|Dhërm|Dhërmiu|Dherna|Irmi,40.1500,19.6389,Albania,AL,ALB,Vlorë,Vlore,AL-12,county,,13.6,1800,1800,4,Europe/Tirane,FALSE,1008043747
Gjinkar,Gjinkar,Petrani|Gjinkar-Petran|Petrani-Gjinkari|Gjinakar|Gjinkan-Petrani|Petranit|Petran,40.2000,20.4000,Albania,AL,ALB,Gjirokastër,Gjirokaster,AL-05,county,,6.8,1622,1622,3,Europe/Tirane,FALSE,1008034684
Fierzë,Fierze,Fierza,42.2833,20.0333,Albania,AL,ALB,Kukës,Kukes,AL-07,county,,15.6,1607,1607,4,Europe/Tirane,FALSE,1008008391
Qeparo,Qeparo,"Qiparo|Kiaparo|Qeparoi|Qeparoj|Ceparo|Chieparo|Qeparo Fushe|Qeparoji",40.0525,19.8292,Albania,AL,ALB,Vlorë,Vlore,AL-12,county,,13.6,1563,1563,4,Europe/Tirane,FALSE,1008922203
Krastë,Kraste,Krasta,41.4233,20.2036,Albania,AL,ALB,Dibër,Diber,AL-09,county,,6.5,1540,1540,3,Europe/Tirane,FALSE,1008734297
Leskovik,Leskovik,Liascovik|Leskoviqi|Ljakovici|Liaskoviki|Leskoviku|Liascovitsi,40.1500,20.6000,Albania,AL,ALB,Korçë,Korce,AL-06,county,,157.4,1525,1525,4,Europe/Tirane,FALSE,1008554836
Hot,Hot,Hoti,42.4389,19.5553,Albania,AL,ALB,Shkodër,Shkoder,AL-10,county,,43.9,1473,1473,4,Europe/Tirane,FALSE,1008242300
Kurbnesh,Kurbnesh,Kurbneshi|Kurbnesha,41.7800,20.0800,Albania,AL,ALB,Lezhë,Lezhe,AL-08,county,,2.0,1429,1429,3,Europe/Tirane,FALSE,1008565626
Konispol,Konispol,Konispoli|Conispolis|Konispolis|Konispoje,39.6667,20.1833,Albania,AL,ALB,Vlorë,Vlore,AL-12,county,,98.6,1349,1349,3,Europe/Tirane,FALSE,1008030164
Finiq,Finiq,Fenichi|Eniki|Finiqi|Firiq|Finik,39.9000,20.0500,Albania,AL,ALB,Vlorë,Vlore,AL-12,county,,88.5,1333,1333,3,Europe/Tirane,FALSE,1008063286
"Kopliku i Siperm","Kopliku i Siperm","Kopliku i Sipërmë|Koplik i Sipërm|Koplik|Koplik Sirme|Koplik i Sipërin|Kopliki i Sipërm",42.2283,19.4667,Albania,AL,ALB,Shkodër,Shkoder,AL-10,county,,86.5,1259,1259,4,Europe/Tirane,FALSE,1008354330
Ulëz,Ulez,Ulëza|Ulzë|Ulza,41.6833,19.8944,Albania,AL,ALB,Dibër,Diber,AL-09,county,,8.3,1229,1229,3,Europe/Tirane,FALSE,1008094556
Pjetroshan,Pjetroshan,Pjetroshani|Pietrošan|Pjetershan|Pietroshan,42.2461,19.4306,Albania,AL,ALB,Shkodër,Shkoder,AL-10,county,,43.9,1216,1216,4,Europe/Tirane,FALSE,1008303078
Boboshticë,Boboshtice,Boboščíca|Boboshtica,40.5542,20.7644,Albania,AL,ALB,Korçë,Korce,AL-06,county,,59.3,1200,1200,3,Europe/Tirane,FALSE,1008794830
Sinaballaj,Sinaballaj,Sinabella|Sinaballej|Sinanaj|Sineballa|Sinebala,41.0689,19.6983,Albania,AL,ALB,Tiranë,Tirane,AL-11,county,,18.5,1191,1191,3,Europe/Tirane,FALSE,1008575547
Liqenas,Liqenas,Pushteci|Postec|Liqenasi|Pustec|Pusteci,40.7869,20.9022,Albania,AL,ALB,Korçë,Korce,AL-06,county,,14.4,1120,1120,3,Europe/Tirane,FALSE,1008522737
Aliaj,Aliaj,,42.2567,19.4275,Albania,AL,ALB,Shkodër,Shkoder,AL-10,county,,43.9,1033,1033,3,Europe/Tirane,FALSE,1008789935
Reç,Rec,"Reç i Poshtëm|Reçi",42.2350,19.5344,Albania,AL,ALB,Shkodër,Shkoder,AL-10,county,,8.6,1000,1000,4,Europe/Tirane,TRUE,1008036444
Burgajet,Burgajet,Burgajeti,41.6361,20.0653,Albania,AL,ALB,Dibër,Diber,AL-09,county,,40.4,1000,1000,3,Europe/Tirane,FALSE,1008825471
Plasë,Plase,"Plasë e Poshtëme|Plasa",40.6833,20.8500,Albania,AL,ALB,Korçë,Korce,AL-06,county,,107.5,1000,1000,4,Europe/Tirane,FALSE,1008995667
Rraboshtë,Rraboshte,Raboshtë|Raboshta|Rrobosht|Robošt|Rraboshta|Rroboshta,41.8356,19.6636,Albania,AL,ALB,Lezhë,Lezhe,AL-08,county,,94.2,1000,1000,4,Europe/Tirane,FALSE,1008905557
Kamicë-Flakë,Kamice-Flake,Kamicë-Flaka|Kamici-Flakë|Kamice,42.2303,19.3800,Albania,AL,ALB,Shkodër,Shkoder,AL-10,county,,86.5,957,957,4,Europe/Tirane,FALSE,1008438597
Çarshovë,Carshove,Çarçova|Çarçovë|Çarshova,40.1167,20.5333,Albania,AL,ALB,Gjirokastër,Gjirokaster,AL-05,county,,3.5,918,918,4,Europe/Tirane,FALSE,1008365987
Rapshë,Rapshe,Rrapsh|Rapsha|Rapsh|Rrapësha|Rapša,42.3856,19.4928,Albania,AL,ALB,Shkodër,Shkoder,AL-10,county,,43.9,813,813,3,Europe/Tirane,FALSE,1008547518
Ivanaj,Ivanaj,Bajzë|Jvanaj|Bajza,42.2853,19.4378,Albania,AL,ALB,Shkodër,Shkoder,AL-10,county,,43.9,789,789,4,Europe/Tirane,FALSE,1008904031
Vukpalaj-Bajzë,Vukpalaj-Bajze,Vukpalaj-Bajza|Vukpalaj,42.3164,19.4522,Albania,AL,ALB,Shkodër,Shkoder,AL-10,county,,43.9,768,768,3,Europe/Tirane,FALSE,1008539214
Gradec,Gradec,Gradeci|Grodec,42.2500,19.4772,Albania,AL,ALB,Shkodër,Shkoder,AL-10,county,,22.3,738,738,4,Europe/Tirane,FALSE,1008527724
"Guri i Bardhë","Guri i Bardhe","Gurabardhe|Guribarz|Gur i Bardhë|Gurabardh",41.4500,20.0700,Albania,AL,ALB,Dibër,Diber,AL-09,county,,20.6,700,700,3,Europe/Tirane,FALSE,1008745049
Dobër,Dober,Dobra|Dobre,42.1872,19.4483,Albania,AL,ALB,Shkodër,Shkoder,AL-10,county,,86.5,693,693,3,Europe/Tirane,FALSE,1008481461
Grizhë,Grizhe,Grizha|Grizaj|Grishaj,42.3117,19.4819,Albania,AL,ALB,Shkodër,Shkoder,AL-10,county,,8.6,693,693,4,Europe/Tirane,FALSE,1008565322
Kastrat,Kastrat,Vukpalaj-Kastrat|Vukpalaj|Kastrati,42.3525,19.4892,Albania,AL,ALB,Shkodër,Shkoder,AL-10,county,,43.9,682,682,3,Europe/Tirane,FALSE,1008577149
Bogiç-Palvar,Bogic-Palvar,Bogiq-Polvar|Bogiç-Palvari|Palvari|Polvar|Bogiq-Polvari|Bogiq|Bogiq-Palvar,42.2033,19.4531,Albania,AL,ALB,Shkodër,Shkoder,AL-10,county,,89.6,670,670,3,Europe/Tirane,FALSE,1008722046
Jaran,Jaran,Jeran|Jarani,42.2681,19.4489,Albania,AL,ALB,Shkodër,Shkoder,AL-10,county,,43.9,661,661,4,Europe/Tirane,FALSE,1008216442
Stërbeq,Sterbeq,Stërbeqi|Stërheqi|Stërheq,42.2078,19.3972,Albania,AL,ALB,Shkodër,Shkoder,AL-10,county,,86.5,636,636,3,Europe/Tirane,FALSE,1008746586
Arrëz,Arrez,Arrëza|Arëzë|Arza|Arëza|Arëz|Arda|Arrëzë,40.5011,20.8397,Albania,AL,ALB,Korçë,Korce,AL-06,county,,26.9,600,600,4,Europe/Tirane,FALSE,1008442158
Shtanë,Shtane,Shtanaj|Shtana|Shtame,42.0975,20.2681,Albania,AL,ALB,Kukës,Kukes,AL-07,county,,11.9,585,585,3,Europe/Tirane,FALSE,1008528777
"Lohja e Poshtëme","Lohja e Poshteme","Lohje e Poshtëme|Lohja|Lohe e Poshtëme|Lohje",42.2308,19.4889,Albania,AL,ALB,Shkodër,Shkoder,AL-10,county,,86.5,573,573,4,Europe/Tirane,FALSE,1008420287
Jubicë,Jubice,Jubica,42.2186,19.3894,Albania,AL,ALB,Shkodër,Shkoder,AL-10,county,,86.5,572,572,4,Europe/Tirane,FALSE,1008261660
Kalldrun,Kalldrun,Kaldruni|Kalldruni|Kaldrun,42.2050,19.4111,Albania,AL,ALB,Shkodër,Shkoder,AL-10,county,,86.5,554,554,4,Europe/Tirane,FALSE,1008287191
Vernicë,Vernice,Vërenicë|Vbrnicë|Vërnica,41.4233,20.5272,Albania,AL,ALB,Dibër,Diber,AL-09,county,,10.8,548,548,3,Europe/Tirane,FALSE,1008551531
Bratosh,Bratosh,Bratoshi|Bratoša|Bratesh|Batrosh,42.3372,19.4933,Albania,AL,ALB,Shkodër,Shkoder,AL-10,county,,8.8,530,530,4,Europe/Tirane,FALSE,1008007749
"Goricë e Madhe","Gorice e Madhe","Gorica e Madhe",40.8942,20.9028,Albania,AL,ALB,Korçë,Korce,AL-06,county,,14.4,515,515,3,Europe/Tirane,FALSE,1008648496
Diellas,Diellas,Sciulin|Shulini|Sulin|Suli|Djellas|Shulin|Shullini|Djellasi,40.8022,20.9106,Albania,AL,ALB,Korçë,Korce,AL-06,county,,14.4,502,502,4,Europe/Tirane,FALSE,1008159062
Bickë,Bicke,Bicka,40.6933,20.6414,Albania,AL,ALB,Korçë,Korce,AL-06,county,,83.2,502,502,4,Europe/Tirane,FALSE,1008067121
Dardhë,Dardhe,Darda|Darze|Dardha|Darza|Dhardha,40.5186,20.8269,Albania,AL,ALB,Korçë,Korce,AL-06,county,,59.3,502,502,3,Europe/Tirane,FALSE,1008540445
Baban,Baban,Babani,40.6344,20.9197,Albania,AL,ALB,Korçë,Korce,AL-06,county,,40.5,502,502,4,Europe/Tirane,FALSE,1008518143
Vuno,Vuno,Vunoj|Vunoi|Potamia,40.1397,19.6936,Albania,AL,ALB,Vlorë,Vlore,AL-12,county,,13.6,486,486,3,Europe/Tirane,FALSE,1008604327
Barmash,Barmash,Barmashi,40.2833,20.6167,Albania,AL,ALB,Korçë,Korce,AL-06,county,,2.7,480,480,4,Europe/Tirane,FALSE,1008025232
Palasë,Palase,Palasi|Palasa|Paljasa|Mailica,40.1650,19.6247,Albania,AL,ALB,Vlorë,Vlore,AL-12,county,,13.6,413,413,4,Europe/Tirane,FALSE,1008047098
Cangonj,Cangonj,Cangonji|Cangoni|Çangoj|Cangojë,40.6935,20.9085,Albania,AL,ALB,Korçë,Korce,AL-06,county,,35.5,372,372,4,Europe/Tirane,FALSE,1008465826
Çlirim,Clirim,Çlirimi|Shënmërtir,40.4167,20.5500,Albania,AL,ALB,Korçë,Korce,AL-06,county,,1.9,355,355,4,Europe/Tirane,FALSE,1008158364
Lajthizë,Lajthize,Lajthiza|Lezica,40.7778,20.8889,Albania,AL,ALB,Korçë,Korce,AL-06,county,,14.4,350,350,3,Europe/Tirane,FALSE,1008372680
Gjinovec,Gjinovec,Gjinoveci|Djinovec|Ðjinajt,41.3869,20.5094,Albania,AL,ALB,Dibër,Diber,AL-09,county,,10.5,314,314,3,Europe/Tirane,FALSE,1008585016
Starjë,Starje,Starja,40.3581,20.7181,Albania,AL,ALB,Korçë,Korce,AL-06,county,,12.3,300,300,4,Europe/Tirane,FALSE,1008185693
Gollomboç,Gollomboc,Glomboç|Gllomboci|Glloboci|Gollomboçi|Klombos,40.8561,20.9453,Albania,AL,ALB,Korçë,Korce,AL-06,county,,14.4,294,294,4,Europe/Tirane,FALSE,1008665987
Vërnik,Vernik,Verniku,40.6444,21.0239,Albania,AL,ALB,Korçë,Korce,AL-06,county,,63.2,280,280,3,Europe/Tirane,FALSE,1008781221
Cerjë,Cerje,Cerja|Cerija|Qerjë|Cere,40.7494,20.9756,Albania,AL,ALB,Korçë,Korce,AL-06,county,,1.2,252,252,4,Europe/Tirane,FALSE,1008378540
Klenjë,Klenje,Klenja|Clegne|Klenj|Teknoreja,41.3678,20.4697,Albania,AL,ALB,Dibër,Diber,AL-09,county,,10.5,207,207,3,Europe/Tirane,FALSE,1008129909
Fterë,Ftere,"Ftera|Fterrë|Fterra|Milt Itan i Nestont",40.1142,19.8933,Albania,AL,ALB,Vlorë,Vlore,AL-12,county,,4.5,168,168,4,Europe/Tirane,FALSE,1008888824
Sheper,Sheper,Shepëri|Shepr,40.1714,20.3058,Albania,AL,ALB,Gjirokastër,Gjirokaster,AL-05,county,,1.9,100,100,5,Europe/Tirane,FALSE,1008517042
Rripë,Rripe,"Rrypa|Ripë|Rrypë Qendër|Rripa|Rrypë",41.5490,20.0233,Albania,AL,ALB,Dibër,Diber,AL-09,county,,51.1,100,100,3,Europe/Tirane,FALSE,1008341779
Kolonjë,Kolonje,Kolonjo|Colonia|Kolonja,40.1667,20.0167,Albania,AL,ALB,Gjirokastër,Gjirokaster,AL-05,county,,4.9,50,50,4,Europe/Tirane,FALSE,1008195906
Dhorës,Dhores,Zorës|Zoris|Dhorësi,40.4667,20.2667,Albania,AL,ALB,Berat,Berat,AL-01,county,,11.5,42,42,4,Europe/Tirane,FALSE,1008828673
Veleshnjë,Veleshnje,Velsha|Veleshnja|Voloshnje|Verescia|Vereshë,40.4833,20.1833,Albania,AL,ALB,Berat,Berat,AL-01,county,,11.5,28,28,4,Europe/Tirane,TRUE,1008541342
Vishanj,Vishanj,Vishanji|Vishanij|Vishani|Vashani,40.6167,20.3167,Albania,AL,ALB,Berat,Berat,AL-01,county,,3.5,20,20,4,Europe/Tirane,FALSE,1008971544
Çorrotat,Corrotat,Gorotati|Gorotat|Çorrotati|Çerrotat|Çorotat|Çorotati|Çorati,40.6833,20.2833,Albania,AL,ALB,Berat,Berat,AL-01,county,,2.7,20,20,4,Europe/Tirane,FALSE,1008290928
Karicë,Karice,Karica|Karrica,41.6156,19.9447,Albania,AL,ALB,Dibër,Diber,AL-09,county,,27.7,,,4,Europe/Tirane,FALSE,1008334182
Funarës,Funares,Fenarsi|Fenars|Fenarës|Funarasi|Fenarësi,41.2819,20.3000,Albania,AL,ALB,Elbasan,Elbasan,AL-03,county,,24.3,,,3,Europe/Tirane,FALSE,1008316167
Mërtiraj,Mertiraj,Mertinje|Fracai|Frakaj|Martirai|Mertiranji,40.4697,19.6911,Albania,AL,ALB,Vlorë,Vlore,AL-12,county,,15.7,,,4,Europe/Tirane,FALSE,1008520221
Sumaj,Sumaj,,41.8694,20.2342,Albania,AL,ALB,Dibër,Diber,AL-09,county,,4.0,,,4,Europe/Tirane,FALSE,1008239443
Sumaj,Sumaj,,41.9667,20.3167,Albania,AL,ALB,Kukës,Kukes,AL-07,county,,8.0,,,5,Europe/Tirane,FALSE,1008296462
Krosnishtë,Krosnishte,Krosnishta|Krosnisht|Kroshnisht|Krosnishti|Kroshnishti,40.7397,20.5558,Albania,AL,ALB,Korçë,Korce,AL-06,county,,5.0,,,4,Europe/Tirane,FALSE,1008619769
Mes,Mes,Mesi|Mas|Mos,42.1053,19.5708,Albania,AL,ALB,Shkodër,Shkoder,AL-10,county,,53.1,,,4,Europe/Tirane,FALSE,1008542549
"Selita e Malit","Selita e Malit","Selit’e Madhë|Selitë e Madhe|Selitë Mali|Selitë e Malit",41.4000,20.0000,Albania,AL,ALB,Tiranë,Tirane,AL-11,county,,14.2,,,4,Europe/Tirane,FALSE,1008470560
Katesh,Katesh,Kateshi|Kateš|Koteshi,41.0814,19.7975,Albania,AL,ALB,Elbasan,Elbasan,AL-03,county,,57.9,,,4,Europe/Tirane,FALSE,1008969207
Cinlit,Cinlit,,42.2072,19.6753,Albania,AL,ALB,Shkodër,Shkoder,AL-10,county,,8.4,,,5,Europe/Tirane,FALSE,1008488749
Babinë,Babine,Babina,42.3956,20.1218,Albania,AL,ALB,Kukës,Kukes,AL-07,county,,13.9,,,4,Europe/Tirane,FALSE,1008645448
"Gomsiqja e Re","Gomsiqja e Re","Gomsiqja|Gomsiqia|Gomsiqeja|Gomsiqa e Re|Gemšiće|Gomsiqe|Gemshic|Gomsiqë e Re",42.0272,19.6808,Albania,AL,ALB,Shkodër,Shkoder,AL-10,county,,76.9,,,4,Europe/Tirane,FALSE,1008673867
"Gomsiqja e Re","Gomsiqja e Re",Gomsiqe|Gomsiqja,41.9103,19.4094,Albania,AL,ALB,Shkodër,Shkoder,AL-10,county,,55.7,,,4,Europe/Tirane,TRUE,1008347175
Lapoj,Lapoj,,41.8931,20.4139,Albania,AL,ALB,Kukës,Kukes,AL-07,county,,20.6,,,4,Europe/Tirane,FALSE,1008401140
"Iba e Poshtme","Iba e Poshtme","Ibë e Postmë",41.2389,19.9389,Albania,AL,ALB,Tiranë,Tirane,AL-11,county,,59.9,,,4,Europe/Tirane,FALSE,1008244437
"Katundi i Vjetër","Katundi i Vjeter","Katund i Vjetër",41.6725,19.8072,Albania,AL,ALB,Lezhë,Lezhe,AL-08,county,,52.9,,,4,Europe/Tirane,FALSE,1008565579
Çopanaj,Copanaj,Čopone|Çopan|Çapanaj|Çapan,41.0478,19.7864,Albania,AL,ALB,Elbasan,Elbasan,AL-03,county,,57.9,,,4,Europe/Tirane,FALSE,1008134810
Mustafaj,Mustafaj,,41.9903,20.4204,Albania,AL,ALB,Kukës,Kukes,AL-07,county,,60.0,,,4,Europe/Tirane,FALSE,1008832464
Sllovë,Sllove,Slleva|Sllova,41.8167,20.4167,Albania,AL,ALB,Dibër,Diber,AL-09,county,,17.7,,,4,Europe/Tirane,FALSE,1008230368
Davidaj,Davidaj,Davidai|Davida,40.4000,19.7500,Albania,AL,ALB,Vlorë,Vlore,AL-12,county,,10.6,,,4,Europe/Tirane,FALSE,1008963490
Rafija,Rafija,Rafi|Rafia,41.0564,20.2872,Albania,AL,ALB,Elbasan,Elbasan,AL-03,county,,62.1,,,4,Europe/Tirane,FALSE,1008755705
Hysgjokaj,Hysgjokaj,Xhokaj|Džokaj|Hysaj,40.9667,19.7833,Albania,AL,ALB,Fier,Fier,AL-04,county,,93.8,,,4,Europe/Tirane,FALSE,1008890324
Harunas,Harunas,Harunasi|Arunasi|Arunas,40.7964,20.2206,Albania,AL,ALB,Elbasan,Elbasan,AL-03,county,,9.2,,,4,Europe/Tirane,FALSE,1008313955
Sukth-Vendas,Sukth-Vendas,"Sukth|Sukth Vëndasi|Sukthi-Vëndas",41.5264,19.6231,Albania,AL,ALB,Durrës,Durres,AL-02,county,,128.5,,,4,Europe/Tirane,FALSE,1008502456
Cërnalevë,Cernaleve,Çernoleva|Cernaleva|Cernalev|Cërnavela,42.0270,20.5490,Albania,AL,ALB,Kukës,Kukes,AL-07,county,,40.6,,,4,Europe/Tirane,FALSE,1008255949
Velabisht,Velabisht,Velabishti,40.6667,19.9333,Albania,AL,ALB,Berat,Berat,AL-01,county,,1945.9,,,3,Europe/Tirane,FALSE,1008000744
Balldren,Balldren,"Sh’ Prende|Balldreni|Baldren|Baldre|Baldrin|Baldreen",41.8167,19.6333,Albania,AL,ALB,Lezhë,Lezhe,AL-08,county,,72.0,,,4,Europe/Tirane,FALSE,1008688374
Palç,Palc,Palca|Palçi|Palcë,42.2637,19.9018,Albania,AL,ALB,Kukës,Kukes,AL-07,county,,3.2,,,4,Europe/Tirane,FALSE,1008660515
Borie-Lurë,Borie-Lure,"Borjia|Borje-Lurë|Borje-Lura|Borijë|Borija|Borjë|Borie Lura",41.7878,20.2250,Albania,AL,ALB,Dibër,Diber,AL-09,county,,4.8,,,4,Europe/Tirane,FALSE,1008075843
Dergjinaj,Dergjinaj,,42.0942,19.5156,Albania,AL,ALB,Shkodër,Shkoder,AL-10,county,,598.6,,,3,Europe/Tirane,FALSE,1008922631
Mshalle,Mshalle,,40.7489,20.0147,Albania,AL,ALB,Berat,Berat,AL-01,county,,75.1,,,4,Europe/Tirane,FALSE,1008450642
Dritas,Dritas,Fanar|Karalibej|Kara-Ali-Bej|Fanari|Karalibei|Dritasi,39.8214,20.0656,Albania,AL,ALB,Vlorë,Vlore,AL-12,county,,90.0,,,4,Europe/Tirane,FALSE,1008890912
Dritas,Dritas,Dritasi,41.4153,19.7556,Albania,AL,ALB,Tiranë,Tirane,AL-11,county,,222.3,,,3,Europe/Tirane,FALSE,1008787893
Mujalli,Mujalli,Mojallija|Mujall|Mujali|Mujallia|Mojalli,40.7854,19.5537,Albania,AL,ALB,Fier,Fier,AL-04,county,,97.1,,,4,Europe/Tirane,FALSE,1008033577
Bradashesh,Bradashesh,Bradosheshi|Bradasheshi,41.1000,20.0167,Albania,AL,ALB,Elbasan,Elbasan,AL-03,county,,194.5,,,4,Europe/Tirane,FALSE,1008324068
"Gërmenji i Vogël","Germenji i Vogel","Germenji i Sipërm|Gërmej i Vogël|Gërmaj i Vogël|Germanj-Pasha|Germaj Pasha|Gërmenj i Vogël|Cerma-gërmojë|Gërmeni Pasha",41.0139,19.5773,Albania,AL,ALB,Fier,Fier,AL-04,county,,81.4,,,4,Europe/Tirane,FALSE,1008373025
"Biçakaj i Ri","Bicakaj i Ri","Thikas e Re",40.8829,19.7489,Albania,AL,ALB,Fier,Fier,AL-04,county,,136.6,,,4,Europe/Tirane,FALSE,1008977576
Shtëpëz,Shtepez,"Shtepiza|Stepez|Shtëpëz Ruinen|Shtëpëzi",40.2111,20.0678,Albania,AL,ALB,Gjirokastër,Gjirokaster,AL-05,county,,7.7,,,4,Europe/Tirane,FALSE,1008422982
Karakullak,Karakullak,,41.1175,20.0439,Albania,AL,ALB,Elbasan,Elbasan,AL-03,county,,1280.6,,,3,Europe/Tirane,FALSE,1008012776
Mëhole,Mehole,Muhole,41.9846,20.4124,Albania,AL,ALB,Kukës,Kukes,AL-07,county,,60.0,,,4,Europe/Tirane,FALSE,1008318227
Borovë,Borove,Borova,40.3108,20.6525,Albania,AL,ALB,Korçë,Korce,AL-06,county,,12.3,,,4,Europe/Tirane,FALSE,1008046287
Drizaj,Drizaj,Idrizaj,40.9358,19.9047,Albania,AL,ALB,Elbasan,Elbasan,AL-03,county,,52.9,,,4,Europe/Tirane,FALSE,1008387220
"Kallmi i Madh","Kallmi i Madh","Kallm i Math|Kallm i Madh|Kallmi|Kallmi i Math",40.7546,19.6280,Albania,AL,ALB,Fier,Fier,AL-04,county,,112.0,,,4,Europe/Tirane,FALSE,1008993409
Kokrevë,Kokreve,Koktaj|Kokreva,41.1425,20.4014,Albania,AL,ALB,Elbasan,Elbasan,AL-03,county,,29.4,,,4,Europe/Tirane,FALSE,1008492634
Borovë,Borove,Brinjasi|Borova,41.3458,20.4297,Albania,AL,ALB,Elbasan,Elbasan,AL-03,county,,3.4,,,4,Europe/Tirane,FALSE,1008640394
Rustemaj,Rustemaj,,40.6903,19.7647,Albania,AL,ALB,Fier,Fier,AL-04,county,,70.5,,,4,Europe/Tirane,FALSE,1008247474
Demaj,Demaj,,42.1839,19.4925,Albania,AL,ALB,Shkodër,Shkoder,AL-10,county,,70.6,,,4,Europe/Tirane,FALSE,1008000008
Gocaj,Gocaj,"Gocë-Kakariq|Goca-Kakariq|Gjocaj Kakariq",41.8450,19.6372,Albania,AL,ALB,Lezhë,Lezhe,AL-08,county,,73.9,,,4,Europe/Tirane,FALSE,1008826697
Nishovë,Nishove,Nishova,40.6000,20.1333,Albania,AL,ALB,Berat,Berat,AL-01,county,,7.8,,,3,Europe/Tirane,FALSE,1008457997
Zagrad,Zagrad,Zagradi,41.7022,20.5003,Albania,AL,ALB,Dibër,Diber,AL-09,county,,30.9,,,4,Europe/Tirane,FALSE,1008119315
Armath,Armath,Armaf|Irmath|Armathi|Ermathi|Armathë|Irmathi|Irmotha,41.4667,19.5656,Albania,AL,ALB,Durrës,Durres,AL-02,county,,113.4,,,4,Europe/Tirane,FALSE,1008384212
Zall-Xhuxhë,Zall-Xhuxhe,Zall-Xhuxha,41.9475,20.1636,Albania,AL,ALB,Lezhë,Lezhe,AL-08,county,,8.5,,,5,Europe/Tirane,FALSE,1008127007
"Murat Bejas","Murat Bejas","Murat-Benjas|Murad Bej|Murat Bej|Murat-Bejasi|Murataj",40.9356,20.0047,Albania,AL,ALB,Elbasan,Elbasan,AL-03,county,,76.3,,,4,Europe/Tirane,FALSE,1008426353
Vlashaj,Vlashaj,Vleshaj,41.5316,20.4056,Albania,AL,ALB,Dibër,Diber,AL-09,county,,60.8,,,4,Europe/Tirane,FALSE,1008749989
Vlashaj,Vlashaj,,41.8614,20.2047,Albania,AL,ALB,Dibër,Diber,AL-09,county,,6.0,,,5,Europe/Tirane,TRUE,1008810654
"Rrëza e Malit","Rreza e Malit",,41.8239,19.6100,Albania,AL,ALB,Lezhë,Lezhe,AL-08,county,,175.2,,,4,Europe/Tirane,FALSE,1008038204
Halilaj,Halilaj,Kalilaj|Halilani,40.8029,19.6349,Albania,AL,ALB,Fier,Fier,AL-04,county,,123.8,,,4,Europe/Tirane,FALSE,1008235525
Halilaj,Halilaj,,40.9858,20.2625,Albania,AL,ALB,Elbasan,Elbasan,AL-03,county,,12.5,,,4,Europe/Tirane,FALSE,1008416178
Qafë-Dardhë,Qafe-Dardhe,Qafëdardha|Shkëmb|Shkëmbi|Qafdardha|Qafdardhë,40.7575,20.1542,Albania,AL,ALB,Berat,Berat,AL-01,county,,14.1,,,4,Europe/Tirane,FALSE,1008423969
Gurras,Gurras,Zagoriçan|Gurrasi|Zagoriçani|Zagorçani,40.8872,20.7136,Albania,AL,ALB,Korçë,Korce,AL-06,county,,339.1,,,3,Europe/Tirane,FALSE,1008884325
Mbrakull,Mbrakull,Mbrakullë|Mbrakulla|Vrakule|Mbrakulli|Brakull,40.6292,20.0667,Albania,AL,ALB,Berat,Berat,AL-01,county,,47.5,,,4,Europe/Tirane,FALSE,1008478594
Vlashaj,Vlashaj,Vlashay|Vllashaj|Vilashaj,41.3689,19.6167,Albania,AL,ALB,Durrës,Durres,AL-02,county,,162.1,,,4,Europe/Tirane,FALSE,1008856305
Gurras,Gurras,Guraz|Gurrasi|Gurasi|Gurrsi|Guras|Gurazi|Guri-zi,40.9197,19.9517,Albania,AL,ALB,Elbasan,Elbasan,AL-03,county,,62.3,,,4,Europe/Tirane,FALSE,1008641207
Planetë,Planete,Planet,41.8378,20.0578,Albania,AL,ALB,Lezhë,Lezhe,AL-08,county,,7.0,,,5,Europe/Tirane,FALSE,1008112473
Halilaj,Halilaj,,41.8689,20.3297,Albania,AL,ALB,Dibër,Diber,AL-09,county,,4.9,,,5,Europe/Tirane,FALSE,1008572263
Grepckë,Grepcke,Graliskë|Grepsa|Grepckë-Dorezi|Grepcë-Dorëzi|Krepskë|Grepckë-Dorëz|Grepcka,40.4667,20.2500,Albania,AL,ALB,Berat,Berat,AL-01,county,,11.5,,,3,Europe/Tirane,FALSE,1008661232
Zgjanë,Zgjane,Zgjan|Zđane|Zgjana,40.9336,19.7824,Albania,AL,ALB,Fier,Fier,AL-04,county,,95.9,,,4,Europe/Tirane,FALSE,1008264826
Hebë,Hebe,Hepë|Hebja|Heba|Hebje,41.9897,20.1806,Albania,AL,ALB,Lezhë,Lezhe,AL-08,county,,8.5,,,4,Europe/Tirane,FALSE,1008392724
Derraj,Derraj,,42.1625,19.6092,Albania,AL,ALB,Shkodër,Shkoder,AL-10,county,,53.1,,,4,Europe/Tirane,FALSE,1008266906
Qereshnik,Qereshnik,Qerreshniku|Qereshniku,40.7667,20.0167,Albania,AL,ALB,Berat,Berat,AL-01,county,,105.4,,,3,Europe/Tirane,FALSE,1008832993
Tejdrine,Tejdrine,Tejdrini|Tejdrina|Tejdrin|Tedrin|Tej-Drinit,41.9490,20.3591,Albania,AL,ALB,Kukës,Kukes,AL-07,county,,20.7,,,4,Europe/Tirane,FALSE,1008877823
Cërujë,Ceruje,Cerunjë|Cëruja|Cërrujë|Cërruja,41.5328,20.1319,Albania,AL,ALB,Dibër,Diber,AL-09,county,,45.3,,,4,Europe/Tirane,FALSE,1008174782
"Rrasa e Poshtme","Rrasa e Poshtme","Rrasë e Poshtme|Rrasa e Poshtëme|Rrasë e Poshtëm",40.9636,19.8122,Albania,AL,ALB,Elbasan,Elbasan,AL-03,county,,83.7,,,4,Europe/Tirane,FALSE,1008385437
Munegë,Munege,Munega|Munaza,41.8333,19.8833,Albania,AL,ALB,Lezhë,Lezhe,AL-08,county,,6.7,,,5,Europe/Tirane,FALSE,1008497542
Cerjan,Cerjan,Selanaj|Cerjani|Čerijan|Gerjani,41.7133,20.4828,Albania,AL,ALB,Dibër,Diber,AL-09,county,,30.9,,,4,Europe/Tirane,FALSE,1008907770
Çatistë,Catiste,Catishtë|Çatistër|Çatistra|Çatist|Çatista,40.0167,20.3333,Albania,AL,ALB,Gjirokastër,Gjirokaster,AL-05,county,,1.5,,,3,Europe/Tirane,FALSE,1008197376
Goriçaj,Goricaj,Goriçani|Goriçan|Dardhasi,40.8833,19.6418,Albania,AL,ALB,Fier,Fier,AL-04,county,,156.0,,,4,Europe/Tirane,FALSE,1008757693
Cërujë,Ceruje,Cërunja|Cëruja|Cërrunja|Cërrujë|Cruja|Currunja|Krujë,40.9150,20.1506,Albania,AL,ALB,Elbasan,Elbasan,AL-03,county,,38.0,,,4,Europe/Tirane,FALSE,1008411591
Cërujë,Ceruje,Ceraja|Cërrujë|Ceruja|Cërunja|Cërnje,41.2283,20.0783,Albania,AL,ALB,Elbasan,Elbasan,AL-03,county,,21.8,,,4,Europe/Tirane,TRUE,1008589503
Sanjollas,Sanjollas,Sanjdas|Sarnjollas|Sanjollasi|Sonjollasi,40.2603,20.5969,Albania,AL,ALB,Korçë,Korce,AL-06,county,,2.7,,,4,Europe/Tirane,FALSE,1008834714
Kllogjen,Kllogjen,Kllogjena|Kllogjenë|Kllogjani|Kishe-Kllogjen,42.1733,19.8492,Albania,AL,ALB,Shkodër,Shkoder,AL-10,county,,14.6,,,4,Europe/Tirane,FALSE,1008777505
Ishefaj,Ishefaj,Ishefai,42.2064,20.2717,Albania,AL,ALB,Kukës,Kukes,AL-07,county,,29.6,,,4,Europe/Tirane,FALSE,1008365055
Luars,Luars,,41.6500,20.0833,Albania,AL,ALB,Dibër,Diber,AL-09,county,,9.1,,,5,Europe/Tirane,FALSE,1008986535
Avdillarët,Avdillaret,,40.7700,19.8917,Albania,AL,ALB,Berat,Berat,AL-01,county,,105.5,,,4,Europe/Tirane,FALSE,1008427871
Bram,Bram,Brami,40.7567,19.9814,Albania,AL,ALB,Berat,Berat,AL-01,county,,105.4,,,4,Europe/Tirane,FALSE,1008918601
Tërbaç,Terbac,Tërbaci|Krushnaja,41.1589,19.9444,Albania,AL,ALB,Elbasan,Elbasan,AL-03,county,,26.9,,,4,Europe/Tirane,FALSE,1008263425
Gjyrës,Gjyres,Ngjyras|Gjurasi|Gjyrezi|Gjyrazi|Gjyrez|Xheras|Gjyras,40.5608,20.8839,Albania,AL,ALB,Korçë,Korce,AL-06,county,,26.9,,,4,Europe/Tirane,FALSE,1008311097
Senisht,Senisht,Senishti,40.9881,20.4267,Albania,AL,ALB,Korçë,Korce,AL-06,county,,14.0,,,4,Europe/Tirane,FALSE,1008744979
Tërbaç,Terbac,Šekasi|Tërbaçi,41.4867,20.4775,Albania,AL,ALB,Dibër,Diber,AL-09,county,,17.0,,,4,Europe/Tirane,FALSE,1008087876
Erind,Erind,Erindi,40.1569,20.1636,Albania,AL,ALB,Gjirokastër,Gjirokaster,AL-05,county,,20.3,,,4,Europe/Tirane,FALSE,1008818965
Muçias,Mucias,Muçijazi|Muçijasi|Muçiasi|Muçjasi|Muçijas,40.8983,19.5136,Albania,AL,ALB,Fier,Fier,AL-04,county,,77.3,,,4,Europe/Tirane,FALSE,1008199854
Velaj,Velaj,,40.7047,19.7900,Albania,AL,ALB,Berat,Berat,AL-01,county,,80.4,,,4,Europe/Tirane,FALSE,1008805169
Bishçukas,Bishcukas,Bishçukez|Bishçukasi|Biçukas|Bičuks|Bishtuçka|Biçukës,41.0218,19.5742,Albania,AL,ALB,Fier,Fier,AL-04,county,,83.7,,,4,Europe/Tirane,FALSE,1008665797
Lapulec,Lapulec,Lahpuleci|Ljapulec|Lapuleci,40.6273,19.7362,Albania,AL,ALB,Fier,Fier,AL-04,county,,64.0,,,4,Europe/Tirane,FALSE,1008430228
Dumollë,Dumolle,Dumolla,40.7986,19.9317,Albania,AL,ALB,Berat,Berat,AL-01,county,,638.4,,,3,Europe/Tirane,FALSE,1008856573
Lekër,Leker,Lekëri,40.5097,20.0217,Albania,AL,ALB,Berat,Berat,AL-01,county,,5.9,,,5,Europe/Tirane,FALSE,1008270286
"Ali Hanit","Ali Hanit",,41.6167,20.0500,Albania,AL,ALB,Dibër,Diber,AL-09,county,,40.4,,,4,Europe/Tirane,FALSE,1008671947
Thartor,Thartor,Thartori|Tharter,41.1297,19.7064,Albania,AL,ALB,Tiranë,Tirane,AL-11,county,,18.6,,,4,Europe/Tirane,FALSE,1008434252
Gjyshaj,Gjyshaj,Gjyshej|Gjyshan|Ðušaj,40.9786,19.7596,Albania,AL,ALB,Fier,Fier,AL-04,county,,90.8,,,4,Europe/Tirane,FALSE,1008421593
"Çerenec i Epërm","Cerenec i Eperm","Çerneci e Epër|Çerenec i Epër|Çerneci|Çerneti|Çereneci|Çeranec|Çerenec|Çerenic i Sipërm|Gornje Černeze|Çernesi|Çerenet i Epër|Çernec i Epër",41.5089,20.4372,Albania,AL,ALB,Dibër,Diber,AL-09,county,,90.5,,,4,Europe/Tirane,FALSE,1008928752
Panarit,Panarit,Panariti,40.4844,20.4733,Albania,AL,ALB,Korçë,Korce,AL-06,county,,3.7,,,3,Europe/Tirane,FALSE,1008137334
"Lagja e Poshtëme","Lagja e Poshteme",Juba,41.4214,19.4942,Albania,AL,ALB,Durrës,Durres,AL-02,county,,181.2,,,4,Europe/Tirane,FALSE,1008000061
Mirdicë,Mirdice,,42.0100,19.7217,Albania,AL,ALB,Shkodër,Shkoder,AL-10,county,,76.9,,,4,Europe/Tirane,FALSE,1008259179
Omarë,Omare,Omarej|Omaraj|Amaraj|Amarej,42.1461,19.4878,Albania,AL,ALB,Shkodër,Shkoder,AL-10,county,,70.6,,,4,Europe/Tirane,FALSE,1008536939
Leljet,Leljet,,41.2458,20.3253,Albania,AL,ALB,Elbasan,Elbasan,AL-03,county,,16.0,,,4,Europe/Tirane,FALSE,1008537476
Kasaj,Kasaj,Kacaj|Koçaj|Kasai,42.4082,20.1930,Albania,AL,ALB,Kukës,Kukes,AL-07,county,,13.9,,,4,Europe/Tirane,FALSE,1008914188
"Trushi i Poshtëm","Trushi i Poshtem","Trush i Poshtëm",41.9542,19.4672,Albania,AL,ALB,Shkodër,Shkoder,AL-10,county,,131.3,,,4,Europe/Tirane,FALSE,1008405403
Çela,Cela,,41.5500,20.0833,Albania,AL,ALB,Dibër,Diber,AL-09,county,,40.6,,,4,Europe/Tirane,FALSE,1008501365
Gjols,Gjols,,42.1425,19.6944,Albania,AL,ALB,Shkodër,Shkoder,AL-10,county,,53.1,,,4,Europe/Tirane,FALSE,1008573970
Kostar,Kostar,Kosturi|Kostari|Costari,39.9308,20.1011,Albania,AL,ALB,Vlorë,Vlore,AL-12,county,,49.8,,,3,Europe/Tirane,FALSE,1008802799
Buz-Kalemaj,Buz-Kalemaj,"Buzi|Buz|Buzi i Vogël|Buq-Kalemaj|Buz i Vogël",40.4567,20.0150,Albania,AL,ALB,Gjirokastër,Gjirokaster,AL-05,county,,4.1,,,4,Europe/Tirane,FALSE,1008286678
Elez,Elez,"Elezi|Saliar i Desui|Salar i Sipërm",40.3069,19.8936,Albania,AL,ALB,Gjirokastër,Gjirokaster,AL-05,county,,11.2,,,4,Europe/Tirane,FALSE,1008002919
Kular,Kular,Kuljar|Kulari|Kulai|Gulär,41.0314,19.4906,Albania,AL,ALB,Fier,Fier,AL-04,county,,79.0,,,4,Europe/Tirane,FALSE,1008994969
"Stan i Shpanit","Stan i Shpanit",,41.2500,20.1667,Albania,AL,ALB,Elbasan,Elbasan,AL-03,county,,35.1,,,4,Europe/Tirane,FALSE,1008253076
Myç,Myc,Mici|Myqi|Myçi|Muç|Muc-Manze|Muçi,42.0750,20.3875,Albania,AL,ALB,Kukës,Kukes,AL-07,county,,25.2,,,4,Europe/Tirane,FALSE,1008785488
Marice,Marice,Murriz|Murrizi|Murrizia,41.4381,20.0222,Albania,AL,ALB,Dibër,Diber,AL-09,county,,20.6,,,4,Europe/Tirane,FALSE,1008755538
Dobrunë,Dobrune,Dobrunna|Dobruna,42.2705,20.4270,Albania,AL,ALB,Kukës,Kukes,AL-07,county,,29.6,,,4,Europe/Tirane,FALSE,1008289062
Musukar,Musukar,Muskar|Musucari,40.1889,20.4406,Albania,AL,ALB,Gjirokastër,Gjirokaster,AL-05,county,,6.8,,,5,Europe/Tirane,FALSE,1008813286
Sinani,Sinani,,40.9192,20.2267,Albania,AL,ALB,Elbasan,Elbasan,AL-03,county,,8.8,,,5,Europe/Tirane,FALSE,1008899294
Këmishtaj,Kemishtaj,Kmištanj|Këmishtanj|Kemishtani|Këmishtan|Këmishaj,40.8932,19.6341,Albania,AL,ALB,Fier,Fier,AL-04,county,,114.7,,,4,Europe/Tirane,FALSE,1008831373
Skënderbegas,Skenderbegas,"Shënmerllag|Shëmberdhenj i Poshtëm|Shëmberdhej i Poshtëm|Shemerdhenj i Poshtëm|Skënderbegasi|Shëmbërthej i Poshtëm|Shëmerdhej i Poshtme",40.7833,20.2333,Albania,AL,ALB,Elbasan,Elbasan,AL-03,county,,9.2,,,4,Europe/Tirane,FALSE,1008879835
Sheldi,Sheldi,"Sheldija|Hill Dodej",42.0333,19.6128,Albania,AL,ALB,Shkodër,Shkoder,AL-10,county,,96.7,,,4,Europe/Tirane,FALSE,1008396298
Kurte,Kurte,,41.4931,19.9972,Albania,AL,ALB,Dibër,Diber,AL-09,county,,21.5,,,4,Europe/Tirane,FALSE,1008422103
Baqël,Baqel,Bacë|Baqëli|Baqli|Bač,41.8958,19.6481,Albania,AL,ALB,Lezhë,Lezhe,AL-08,county,,58.4,,,4,Europe/Tirane,FALSE,1008080326
Klos,Klos,Klosi|Calos|Këlosi|Këlos|Kljos,40.5289,19.7525,Albania,AL,ALB,Fier,Fier,AL-04,county,,35.0,,,4,Europe/Tirane,FALSE,1008873460
Laudisht,Laudisht,,40.6844,20.0769,Albania,AL,ALB,Berat,Berat,AL-01,county,,34.1,,,4,Europe/Tirane,FALSE,1008222567
Urxallë,Urxalle,Urzall|Urzalli,41.6894,20.0719,Albania,AL,ALB,Dibër,Diber,AL-09,county,,9.6,,,5,Europe/Tirane,FALSE,1008431293
Mbolan,Mbolan,Mbolani|Bolan,40.6511,19.8903,Albania,AL,ALB,Berat,Berat,AL-01,county,,16.3,,,4,Europe/Tirane,FALSE,1008981504
Krej-Lurë,Krej-Lure,"Krej-Lura|Krej e Lurës|Krejë|Krajë|Krejë e Lurës|Krêja",41.8342,20.1811,Albania,AL,ALB,Dibër,Diber,AL-09,county,,4.8,,,4,Europe/Tirane,FALSE,1008467094
Samaticë,Samatice,Stametaj|Stamaticë|Stamatica|Samatica|Stamatic,40.8000,19.7500,Albania,AL,ALB,Berat,Berat,AL-01,county,,204.2,,,3,Europe/Tirane,FALSE,1008441862
Mavrojer,Mavrojer,"Mavrojeri|Çatise Mavrojeri|Çatisë Mavrojer|Çatisë Mavrojet",40.0500,20.3333,Albania,AL,ALB,Gjirokastër,Gjirokaster,AL-05,county,,1.5,,,3,Europe/Tirane,FALSE,1008975999
Petë,Pete,Peta,40.4256,19.6347,Albania,AL,ALB,Vlorë,Vlore,AL-12,county,,15.7,,,4,Europe/Tirane,FALSE,1008518530
Vitë,Vite,,40.7717,20.0383,Albania,AL,ALB,Berat,Berat,AL-01,county,,105.4,,,4,Europe/Tirane,FALSE,1008269113
Gramsh,Gramsh,Gramshi|Gramschi|Gjamsh,41.9039,19.5717,Albania,AL,ALB,Lezhë,Lezhe,AL-08,county,,83.9,,,4,Europe/Tirane,FALSE,1008777433
Buçaj,Bucaj,,42.4257,20.1679,Albania,AL,ALB,Kukës,Kukes,AL-07,county,,13.9,,,4,Europe/Tirane,FALSE,1008540758
Vithkuq,Vithkuq,Zagor|Vithuqi|Bityq|Bithyq|Bythyq|Buthuq|Zagori|Zagorie|Bythyçi|Vithuq,40.2047,20.2594,Albania,AL,ALB,Gjirokastër,Gjirokaster,AL-05,county,,1.9,,,4,Europe/Tirane,FALSE,1008356758
Vithkuq,Vithkuq,Vithkuqi,40.5167,20.5833,Albania,AL,ALB,Korçë,Korce,AL-06,county,,3.7,,,5,Europe/Tirane,FALSE,1008804431
Zherkë,Zherke,Xherkja|Gerka|Zharkë|Zherka,42.3194,20.2238,Albania,AL,ALB,Kukës,Kukes,AL-07,county,,7.3,,,4,Europe/Tirane,FALSE,1008661904
Gramsh,Gramsh,"Gramsh i Lushnjes|Gramshi|Gramish’i Lushnjes",41.0224,19.6682,Albania,AL,ALB,Fier,Fier,AL-04,county,,162.3,,,4,Europe/Tirane,FALSE,1008616110
"Lagjja e Re","Lagjja e Re",,40.2075,20.3842,Albania,AL,ALB,Gjirokastër,Gjirokaster,AL-05,county,,6.8,,,5,Europe/Tirane,FALSE,1008538556
"Lagjja e Re","Lagjja e Re",Krapsi|Sherifaj,40.6660,19.5856,Albania,AL,ALB,Fier,Fier,AL-04,county,,189.2,,,4,Europe/Tirane,FALSE,1008116577
"Lagjja e Re","Lagjja e Re",,40.7506,19.8983,Albania,AL,ALB,Berat,Berat,AL-01,county,,105.4,,,4,Europe/Tirane,FALSE,1008476257
Petkaj,Petkaj,Petkai,42.1126,20.2451,Albania,AL,ALB,Kukës,Kukes,AL-07,county,,11.9,,,4,Europe/Tirane,FALSE,1008400068
"Guri i Zi","Guri i Zi","Gur-zij|Gur i Zi",41.2083,20.1044,Albania,AL,ALB,Elbasan,Elbasan,AL-03,county,,35.1,,,4,Europe/Tirane,FALSE,1008117946
Cakran,Cakran,Cakrrani|Cakrani|Zakran,40.6000,19.6167,Albania,AL,ALB,Fier,Fier,AL-04,county,,110.0,,,4,Europe/Tirane,FALSE,1008348146
Mazrekë,Mazreke,Mazrek|Mazreku,40.9358,20.0669,Albania,AL,ALB,Elbasan,Elbasan,AL-03,county,,9.2,,,5,Europe/Tirane,FALSE,1008899543
Gërbllesh,Gerbllesh,Grumbllesh|Grubleš|Greblleshi|Gerblleshi|Grublleshë|Grebllesh,41.2667,19.6833,Albania,AL,ALB,Tiranë,Tirane,AL-11,county,,55.3,,,4,Europe/Tirane,FALSE,1008704484
Vërçisht,Vercisht,Vërçishti|Verçishta|Vërçisht-Gostromicka|Vërçisht-Gostromickë|Verçist|Verceshta|Vercisti,40.4208,20.4314,Albania,AL,ALB,Gjirokastër,Gjirokaster,AL-05,county,,1.7,,,4,Europe/Tirane,FALSE,1008537893
Kukucovë,Kukucove,Kukuçova|Kukoçovë|Tundëza|Kukucot,40.8775,20.0819,Albania,AL,ALB,Elbasan,Elbasan,AL-03,county,,6.0,,,4,Europe/Tirane,FALSE,1008506464
Lajthizë,Lajthize,Lejthizë|Lejthiz|Lejthiza|Lajthiza,42.0617,19.8953,Albania,AL,ALB,Shkodër,Shkoder,AL-10,county,,13.6,,,4,Europe/Tirane,FALSE,1008305529
Lajthizë,Lajthize,Lejthiza|Lejthiz|Lehize|Lejthizë|Lajthizë|Lajthiza|Lejtizë,42.0936,20.1467,Albania,AL,ALB,Shkodër,Shkoder,AL-10,county,,4.6,,,4,Europe/Tirane,TRUE,1008560378
Qarr,Qarr,Qarri|Qarrë|Čar|Qar|Çarri,42.2612,20.3878,Albania,AL,ALB,Kukës,Kukes,AL-07,county,,29.6,,,4,Europe/Tirane,FALSE,1008270733
Sharrë,Sharre,Sharra|Sara,41.3000,19.7667,Albania,AL,ALB,Tiranë,Tirane,AL-11,county,,211.4,,,3,Europe/Tirane,FALSE,1008439541
Prrenjas,Prrenjas,Përrenjas|Prenjas|Prenjasi|Përrenjasi,40.5706,20.2947,Albania,AL,ALB,Berat,Berat,AL-01,county,,3.2,,,4,Europe/Tirane,FALSE,1008544730
Fier-Seman,Fier-Seman,"Tjerj Seman|Fier-Semani",40.8833,19.5667,Albania,AL,ALB,Fier,Fier,AL-04,county,,114.7,,,3,Europe/Tirane,FALSE,1008431853
Ujanik,Ujanik,Ojanik|Kulmake|Ujaniku,40.6333,20.2000,Albania,AL,ALB,Berat,Berat,AL-01,county,,3.5,,,4,Europe/Tirane,FALSE,1008890950
Rërës-Kumarak,Reres-Kumarak,Rërës|Rrërëzi|Rrërëz|Reres-Kumaraku|Rrëzës-Kumaraku|Rere-Kumarak|Rrërës-Kumaraku,40.7667,19.7833,Albania,AL,ALB,Berat,Berat,AL-01,county,,204.2,,,3,Europe/Tirane,FALSE,1008391547
Kishavec,Kishavec,Kishaveci|Këshavec,41.7117,20.3508,Albania,AL,ALB,Dibër,Diber,AL-09,county,,73.2,,,4,Europe/Tirane,FALSE,1008853715
"Fshati i Ri","Fshati i Ri",Nevosela|Kashtorja|Novoselë|Novosela|Novosel,40.7075,19.6381,Albania,AL,ALB,Fier,Fier,AL-04,county,,155.5,,,4,Europe/Tirane,FALSE,1008402684
Veliaj,Veliaj,,40.5456,20.0339,Albania,AL,ALB,Berat,Berat,AL-01,county,,5.9,,,5,Europe/Tirane,FALSE,1008580985
Herebel,Herebel,Herbeli|Herbel|Herebeli,41.6197,20.4697,Albania,AL,ALB,Dibër,Diber,AL-09,county,,106.3,,,3,Europe/Tirane,FALSE,1008100822
Ravonik,Ravonik,Ravoniku|Ravanik,40.6053,20.7447,Albania,AL,ALB,Korçë,Korce,AL-06,county,,184.3,,,4,Europe/Tirane,FALSE,1008358180
Shtrungaj,Shtrungaj,Strungaj|Shtrunga|Shtrung|Sktrungaj,41.8872,20.1000,Albania,AL,ALB,Lezhë,Lezhe,AL-08,county,,8.5,,,4,Europe/Tirane,FALSE,1008706359
Shpatmal,Shpatmal,Varvara|Shpatmali|Varvarë,40.6844,20.4042,Albania,AL,ALB,Korçë,Korce,AL-06,county,,2.5,,,4,Europe/Tirane,FALSE,1008515615
Bzhetë-Makaj,Bzhete-Makaj,Bzheta-Makaj,42.2000,19.4333,Albania,AL,ALB,Shkodër,Shkoder,AL-10,county,,424.2,,,3,Europe/Tirane,FALSE,1008920816
"Rreth i Brashtës","Rreth i Brashtes",,42.2511,19.8219,Albania,AL,ALB,Shkodër,Shkoder,AL-10,county,,5.1,,,5,Europe/Tirane,FALSE,1008243689
Zagorë,Zagore,Zagoraj|Zagora,42.2875,19.5031,Albania,AL,ALB,Shkodër,Shkoder,AL-10,county,,8.6,,,5,Europe/Tirane,FALSE,1008596003
Dakaj,Dakaj,,42.2942,19.7761,Albania,AL,ALB,Shkodër,Shkoder,AL-10,county,,5.1,,,5,Europe/Tirane,FALSE,1008197567
Paraspun,Paraspun,Paraspuni,40.9647,20.1925,Albania,AL,ALB,Elbasan,Elbasan,AL-03,county,,12.5,,,4,Europe/Tirane,FALSE,1008601892
Kabashit,Kabashit,,42.1878,20.3242,Albania,AL,ALB,Kukës,Kukes,AL-07,county,,78.2,,,4,Europe/Tirane,FALSE,1008021316
Tafani,Tafani,,40.9819,19.7725,Albania,AL,ALB,Fier,Fier,AL-04,county,,90.9,,,4,Europe/Tirane,FALSE,1008439519
Rushtë,Rushte,Rushta|Rrushtë|Rausha|Rrusht,42.2364,20.1642,Albania,AL,ALB,Kukës,Kukes,AL-07,county,,7.3,,,4,Europe/Tirane,FALSE,1008059011
Kishaj,Kishaj,,42.1859,20.5017,Albania,AL,ALB,Kukës,Kukes,AL-07,county,,11.0,,,4,Europe/Tirane,FALSE,1008579975
Karreç,Karrec,Korreç|Kareci|Korreçi|Korrasi|Koreč|Karreci,41.3886,19.6161,Albania,AL,ALB,Durrës,Durres,AL-02,county,,158.3,,,4,Europe/Tirane,FALSE,1008998734
Danaj,Danaj,,40.5070,19.7852,Albania,AL,ALB,Fier,Fier,AL-04,county,,46.8,,,4,Europe/Tirane,FALSE,1008000034
Kalivaç,Kalivac,Kalivaçi,41.7111,20.0936,Albania,AL,ALB,Dibër,Diber,AL-09,county,,9.1,,,5,Europe/Tirane,FALSE,1008641876
Majac,Majac,,42.2686,20.1300,Albania,AL,ALB,Kukës,Kukes,AL-07,county,,19.1,,,4,Europe/Tirane,FALSE,1008081204
Rashnapojë,Rashnapoje,Rashnopoja|Rrazhnapojë|Rrashnapojë|Rrazhnapajë,41.6875,20.4092,Albania,AL,ALB,Dibër,Diber,AL-09,county,,124.2,,,4,Europe/Tirane,FALSE,1008200187
Buzëliqen,Buzeliqen,Zagradeci|Zagradec|Buzliqen|Buzëliqeni|Buzliqeni,40.6747,21.0136,Albania,AL,ALB,Korçë,Korce,AL-06,county,,63.2,,,4,Europe/Tirane,FALSE,1008324624
Zabërzan,Zaberzan,"Zaberzan i Sipërm|Zabërzani|Zabërzanë|Zabarzan|Zabarzani",40.4333,20.2667,Albania,AL,ALB,Berat,Berat,AL-01,county,,3.3,,,3,Europe/Tirane,FALSE,1008780630
Arshi-Lëngo,Arshi-Lengo,,40.0858,20.1631,Albania,AL,ALB,Gjirokastër,Gjirokaster,AL-05,county,,21.6,,,4,Europe/Tirane,FALSE,1008789167
Cerkovicë,Cerkovice,Cerkoçiva|Cerkovica,39.8269,20.2078,Albania,AL,ALB,Vlorë,Vlore,AL-12,county,,10.7,,,3,Europe/Tirane,FALSE,1008511778
Kolkondas,Kolkondas,"Kolkondasi|Rreth Libofsha",40.8071,19.5419,Albania,AL,ALB,Fier,Fier,AL-04,county,,78.0,,,4,Europe/Tirane,FALSE,1008834999
Paftal,Paftal,Paftali,40.6886,19.8747,Albania,AL,ALB,Berat,Berat,AL-01,county,,16.3,,,4,Europe/Tirane,FALSE,1008107383
Mali-Bardhë,Mali-Bardhe,"Mali i Bardhëj|Malibardh|Mali i Bardhë",40.6333,19.9000,Albania,AL,ALB,Berat,Berat,AL-01,county,,16.3,,,4,Europe/Tirane,FALSE,1008826286
Mënik,Menik,Mynik|Mëniku|Mjunik,41.3000,19.7000,Albania,AL,ALB,Tiranë,Tirane,AL-11,county,,55.3,,,4,Europe/Tirane,FALSE,1008528340
Peladhi,Peladhi,Peledhia|Teladhej|Peladhia,41.5197,20.3447,Albania,AL,ALB,Dibër,Diber,AL-09,county,,23.6,,,4,Europe/Tirane,FALSE,1008736104
Sotirë,Sotire,Sotira,39.8197,20.3589,Albania,AL,ALB,Gjirokastër,Gjirokaster,AL-05,county,,0.8,,,5,Europe/Tirane,FALSE,1008774190
Qafëzez,Qafezez,Qafzez|Qafëzezi|Qafëzezë|Qafëzesi|Qafzezi,40.4339,20.6339,Albania,AL,ALB,Korçë,Korce,AL-06,county,,5.7,,,4,Europe/Tirane,FALSE,1008847608
"Curraj i Epërm","Curraj i Eperm","Curraj Epër|Curraj i Epër|Curaj i Epër|Curaj i-epermë",42.3499,19.9112,Albania,AL,ALB,Kukës,Kukes,AL-07,county,,3.2,,,4,Europe/Tirane,FALSE,1008391834
Fravesh,Fravesh,Fraveshi,41.2500,20.0000,Albania,AL,ALB,Tiranë,Tirane,AL-11,county,,59.9,,,4,Europe/Tirane,FALSE,1008452269
"Katundi i Sipërm","Katundi i Siperm",,41.9264,20.0572,Albania,AL,ALB,Lezhë,Lezhe,AL-08,county,,10.1,,,4,Europe/Tirane,FALSE,1008000006
Bradoshnicë,Bradoshnice,Bretosnica|Bratoshnicë|Bradozhnicë|Bradoshnica|Bradozhnica|Bratoshica,42.4331,20.0474,Albania,AL,ALB,Kukës,Kukes,AL-07,county,,6.4,,,4,Europe/Tirane,FALSE,1008272682
Kodër,Koder,"Kalive Pashaj|Kalivja Pshaj|Kalivja-Pashaj|Kodra|Kalivja Pasha|Kalivja e Pashait",39.8208,20.1236,Albania,AL,ALB,Vlorë,Vlore,AL-12,county,,2.8,,,4,Europe/Tirane,FALSE,1008043540
Arrëz,Arrez,Arrëzë,42.1536,19.8694,Albania,AL,ALB,Shkodër,Shkoder,AL-10,county,,14.6,,,4,Europe/Tirane,FALSE,1008671311
Hoseckë,Hosecke,Hoveçka|Hoceska|Hosecka|Oseçko,40.2211,20.6150,Albania,AL,ALB,Korçë,Korce,AL-06,county,,1.0,,,4,Europe/Tirane,FALSE,1008533495
Vërmik,Vermik,Vermiku|Vermie|Vermic|Verniku|Vërmiku,40.2968,19.7895,Albania,AL,ALB,Vlorë,Vlore,AL-12,county,,11.4,,,4,Europe/Tirane,FALSE,1008759832
Bubës,Bubes,"Bubësi|Bubësi I|Bubës i Parë|Bubsi i Parë|Bubësi i Parë|Hani i Bubësit",40.4528,20.0975,Albania,AL,ALB,Gjirokastër,Gjirokaster,AL-05,county,,7.1,,,4,Europe/Tirane,FALSE,1008169678
Trash,Trash,,41.0314,19.8458,Albania,AL,ALB,Elbasan,Elbasan,AL-03,county,,94.9,,,4,Europe/Tirane,FALSE,1008016497
Dragoç,Dragoc,Dragoçi,42.1219,19.5611,Albania,AL,ALB,Shkodër,Shkoder,AL-10,county,,53.5,,,4,Europe/Tirane,FALSE,1008061432
Luzhë,Luzhe,Luzha|Luzh,42.3249,20.1237,Albania,AL,ALB,Kukës,Kukes,AL-07,county,,27.7,,,4,Europe/Tirane,FALSE,1008045913
Rusan,Rusan,Rusani|Bussani,39.9539,20.0750,Albania,AL,ALB,Vlorë,Vlore,AL-12,county,,103.9,,,4,Europe/Tirane,FALSE,1008299625
Sejmenas,Sejmenas,Semen|Sejmenezi|Sejmenëz|Sejmenasi|Sejmanisi|Sejmani|Trimaj|Seman|Semani,40.8803,19.8043,Albania,AL,ALB,Fier,Fier,AL-04,county,,136.4,,,4,Europe/Tirane,FALSE,1008977776
Rrumbullak,Rrumbullak,Rumullaku|Rrumullak|Rrumbullaku|Rumbullaka|Rumbullaku,41.0231,19.7600,Albania,AL,ALB,Elbasan,Elbasan,AL-03,county,,123.1,,,4,Europe/Tirane,FALSE,1008828376
Përpunje,Perpunje,Përpuja|Perpûj|Përpunë|Parpunjë|Parpun’ë|Përpujë,41.3167,20.0333,Albania,AL,ALB,Tiranë,Tirane,AL-11,county,,6.4,,,4,Europe/Tirane,FALSE,1008316014
Pilaf,Pilaf,Pilafe|Pilafi,41.6936,20.4122,Albania,AL,ALB,Dibër,Diber,AL-09,county,,118.7,,,4,Europe/Tirane,FALSE,1008629935
Mallkeq,Mallkeq,Mallqet-Pete|Mallkeqi|Maljkeć|Mollkeq|Malchec|Malkeć|Malkeq|Malkeqi,40.4222,19.6814,Albania,AL,ALB,Vlorë,Vlore,AL-12,county,,15.7,,,4,Europe/Tirane,FALSE,1008728464
Gjoc,Gjoc,,42.0758,19.6044,Albania,AL,ALB,Shkodër,Shkoder,AL-10,county,,96.7,,,4,Europe/Tirane,FALSE,1008932264
Dobrushë,Dobrushe,Doprusha|Dobrusha,40.5542,20.1819,Albania,AL,ALB,Berat,Berat,AL-01,county,,8.4,,,4,Europe/Tirane,FALSE,1008466600
Fezuk,Fezuk,,42.1203,20.4481,Albania,AL,ALB,Kukës,Kukes,AL-07,county,,11.0,,,4,Europe/Tirane,FALSE,1008747025
Bodinak,Bodinak,Budinaku|Badinot|Bodinaku|Budinak,41.3478,19.6197,Albania,AL,ALB,Durrës,Durres,AL-02,county,,158.3,,,4,Europe/Tirane,FALSE,1008930856
Qyrkan,Qyrkan,Qyrkani|Qirkani|Kqyrazi,40.9592,20.0097,Albania,AL,ALB,Elbasan,Elbasan,AL-03,county,,93.2,,,4,Europe/Tirane,FALSE,1008911189
"San Sula","San Sula","San Sulja",42.1167,20.4500,Albania,AL,ALB,Kukës,Kukes,AL-07,county,,11.0,,,4,Europe/Tirane,FALSE,1008072037
Zall-Dajt,Zall-Dajt,Zall-Dajti,41.4000,19.9333,Albania,AL,ALB,Tiranë,Tirane,AL-11,county,,14.2,,,3,Europe/Tirane,FALSE,1008014130
Manth,Manth,,40.9853,20.2239,Albania,AL,ALB,Elbasan,Elbasan,AL-03,county,,12.5,,,4,Europe/Tirane,FALSE,1008314107
Dushallar,Dushallar,,40.4872,20.1378,Albania,AL,ALB,Berat,Berat,AL-01,county,,11.5,,,4,Europe/Tirane,FALSE,1008966575
Obot,Obot,"Obot i Ri",42.0161,19.4333,Albania,AL,ALB,Shkodër,Shkoder,AL-10,county,,75.9,,,3,Europe/Tirane,FALSE,1008650407
Malkaj,Malkaj,Matkaj,40.4575,19.9625,Albania,AL,ALB,Gjirokastër,Gjirokaster,AL-05,county,,5.6,,,5,Europe/Tirane,FALSE,1008364948
Patalej,Patalej,Palalej|Patale|Partallaj|Patalaj,41.7925,19.6742,Albania,AL,ALB,Lezhë,Lezhe,AL-08,county,,130.2,,,4,Europe/Tirane,FALSE,1008780116
Grudë-Fushë,Grude-Fushe,Grudë-Fusha,42.1622,19.4967,Albania,AL,ALB,Shkodër,Shkoder,AL-10,county,,70.6,,,4,Europe/Tirane,FALSE,1008241773
Hoshtecë,Hoshtece,Hoshteça|Hoshtec|Oshteca|Oshtece|Hoshteci|Hosteca|Hosteçë,40.9461,20.5572,Albania,AL,ALB,Korçë,Korce,AL-06,county,,13.1,,,4,Europe/Tirane,FALSE,1008067385
Karbanjos,Karbanjos,Karbanjozi|Karbanjoz|Karbanjesi|Karbanjos,40.6339,20.4764,Albania,AL,ALB,Korçë,Korce,AL-06,county,,4.0,,,4,Europe/Tirane,FALSE,1008107858
"Fush’ e Gjate","Fush' e Gjate",,40.8400,19.8986,Albania,AL,ALB,Berat,Berat,AL-01,county,,108.6,,,4,Europe/Tirane,FALSE,1008600152
Leshec,Leshec,Moglica-Leshec|Lesheci|Lebheci,40.6994,20.4200,Albania,AL,ALB,Korçë,Korce,AL-06,county,,2.5,,,4,Europe/Tirane,FALSE,1008276824
Koron-Picar,Koron-Picar,Koron-Picari|Koronë-Picar|Koron,40.1667,20.0500,Albania,AL,ALB,Gjirokastër,Gjirokaster,AL-05,county,,4.9,,,4,Europe/Tirane,FALSE,1008535120
Alavane,Alavane,Alavan,42.2428,19.6461,Albania,AL,ALB,Shkodër,Shkoder,AL-10,county,,8.4,,,5,Europe/Tirane,FALSE,1008754614
Hondisht,Hondisht,Hundishtë|Hondishta|Ondishti|Ondisht|Hondishti|Hondishtë,40.9114,20.5003,Albania,AL,ALB,Korçë,Korce,AL-06,county,,13.1,,,4,Europe/Tirane,FALSE,1008226181
Dotaj,Dotaj,Dotal,40.9292,19.7533,Albania,AL,ALB,Fier,Fier,AL-04,county,,95.9,,,4,Europe/Tirane,FALSE,1008750446
Kenaj,Kenaj,,40.4533,20.1189,Albania,AL,ALB,Gjirokastër,Gjirokaster,AL-05,county,,7.1,,,5,Europe/Tirane,FALSE,1008471112
"Rodokali i Poshtëm","Rodokali i Poshtem","Radokali i Poshtëm|Radokal i Poshtëm",41.0167,20.5511,Albania,AL,ALB,Korçë,Korce,AL-06,county,,58.2,,,4,Europe/Tirane,FALSE,1008900910
Mollë,Molle,,40.8211,20.3256,Albania,AL,ALB,Elbasan,Elbasan,AL-03,county,,18.2,,,4,Europe/Tirane,FALSE,1008611807
Risili,Risili,Risilia|Risilija|Reselia|Risiljia|Risil|Risilija,40.5019,19.5255,Albania,AL,ALB,Vlorë,Vlore,AL-12,county,,68.0,,,4,Europe/Tirane,FALSE,1008387309
Kakrukë,Kakruke,Kakruka|Kakruk,40.5403,20.1339,Albania,AL,ALB,Berat,Berat,AL-01,county,,8.3,,,4,Europe/Tirane,FALSE,1008097118
Kullollas,Kullollas,Kullollasi,40.7639,20.2897,Albania,AL,ALB,Elbasan,Elbasan,AL-03,county,,9.2,,,5,Europe/Tirane,FALSE,1008645510
Reçan,Recan,Reçiani|Rechani|Reçani|Lisaj,41.1236,20.0192,Albania,AL,ALB,Elbasan,Elbasan,AL-03,county,,194.5,,,4,Europe/Tirane,FALSE,1008025142
Merqi,Merqi,Merqija|Merćin|Mërqia|Merqini|Merqin,41.8092,19.6572,Albania,AL,ALB,Lezhë,Lezhe,AL-08,county,,94.2,,,4,Europe/Tirane,FALSE,1008488297
Sang,Sang,"Mzhan|Sangu i Xhuxhës|Sangu",41.9811,20.1958,Albania,AL,ALB,Lezhë,Lezhe,AL-08,county,,8.5,,,4,Europe/Tirane,FALSE,1008146870
"Qaf Sukë","Qaf Suke","Qaf Suka",40.3653,20.1492,Albania,AL,ALB,Gjirokastër,Gjirokaster,AL-05,county,,8.9,,,5,Europe/Tirane,FALSE,1008135387
Kulme,Kulme,,41.7714,19.8156,Albania,AL,ALB,Lezhë,Lezhe,AL-08,county,,37.8,,,4,Europe/Tirane,FALSE,1008378876
Melçan,Melcan,Melçani,40.6475,20.7231,Albania,AL,ALB,Korçë,Korce,AL-06,county,,100.5,,,4,Europe/Tirane,FALSE,1008610323
Belorta,Belorta,Bilurta|Belortë|Belortaja,40.6675,20.8306,Albania,AL,ALB,Korçë,Korce,AL-06,county,,100.5,,,4,Europe/Tirane,FALSE,1008294830
Virjon,Virjon,Verjan|Virjoni|Verjani|Verjon|Virion,41.4525,19.7861,Albania,AL,ALB,Durrës,Durres,AL-02,county,,258.6,,,3,Europe/Tirane,FALSE,1008254392
Rrethas,Rrethas,,41.7667,20.0000,Albania,AL,ALB,Lezhë,Lezhe,AL-08,county,,17.3,,,4,Europe/Tirane,FALSE,1008157454
Fushë-Muhurr,Fushe-Muhurr,Muhuri|Fushe-Mukheri|Fushë-Muhuri|Fushë-Muhur|Fush-Muhur|Fushe-Mukhuri|Muherr|Mukur|Muhurr|Fushë-Muhurri|Fushë-Muhri|Muhur,41.6833,20.3333,Albania,AL,ALB,Dibër,Diber,AL-09,county,,26.8,,,4,Europe/Tirane,FALSE,1008577514
Shesh,Shesh,Sheshi,40.3367,19.9142,Albania,AL,ALB,Gjirokastër,Gjirokaster,AL-05,county,,11.2,,,4,Europe/Tirane,FALSE,1008555495
Mafsheq,Mafsheq,Mavsheqi|Mavsheq|Mavšeć|Mafsheqi,41.5500,19.8000,Albania,AL,ALB,Durrës,Durres,AL-02,county,,9.8,,,3,Europe/Tirane,FALSE,1008030071
Shesh,Shesh,Sheshit,40.9408,20.2347,Albania,AL,ALB,Elbasan,Elbasan,AL-03,county,,9.0,,,5,Europe/Tirane,FALSE,1008502014
Shinavlash,Shinavlash,"Shën Vllash|Shen Vlash|Shën-Vilash|Shënavlashi|Shënavlash|Sinovlaschi|Scinavias|Snavljaš|Shinavlashi",41.3475,19.4914,Albania,AL,ALB,Durrës,Durres,AL-02,county,,650.2,,,3,Europe/Tirane,FALSE,1008349171
Sharaj,Sharaj,,40.4156,19.6600,Albania,AL,ALB,Vlorë,Vlore,AL-12,county,,19.6,,,4,Europe/Tirane,FALSE,1008897356
Shushejt,Shushejt,,40.7094,19.6817,Albania,AL,ALB,Fier,Fier,AL-04,county,,155.9,,,4,Europe/Tirane,FALSE,1008756236
Çikallesh,Cikallesh,,41.1678,19.6725,Albania,AL,ALB,Tiranë,Tirane,AL-11,county,,32.4,,,4,Europe/Tirane,FALSE,1008884878
Krongj,Krongj,Kronji|Krongjia|Krongje|Crogni|Kronjgj|Cronghi|Krongja|Krongji,39.9131,20.1733,Albania,AL,ALB,Vlorë,Vlore,AL-12,county,,49.8,,,3,Europe/Tirane,FALSE,1008446875
Rexhepaj,Rexhepaj,Regepai|Redžepaj,40.4703,19.7131,Albania,AL,ALB,Vlorë,Vlore,AL-12,county,,15.7,,,4,Europe/Tirane,FALSE,1008838410
Rrapëz-Fshat,Rrapez-Fshat,Rrapëza|Rrapëz|Rapez|Rapëzë|Rapëza|Rrapëzë,40.8462,19.6323,Albania,AL,ALB,Fier,Fier,AL-04,county,,159.7,,,4,Europe/Tirane,FALSE,1008737217
Gjegjet,Gjegjet,"Gjegjë|Gjegjani i Poshtanit|Gjegjaj|Gjegjeti|Gjegja",41.8732,20.4345,Albania,AL,ALB,Kukës,Kukes,AL-07,county,,25.9,,,4,Europe/Tirane,FALSE,1008892820
Shkallë,Shkalle,Shalla|Shkalla,41.4746,20.0598,Albania,AL,ALB,Dibër,Diber,AL-09,county,,20.6,,,4,Europe/Tirane,FALSE,1008972627
Hyre,Hyre,Helej,41.0878,19.7422,Albania,AL,ALB,Elbasan,Elbasan,AL-03,county,,30.1,,,4,Europe/Tirane,FALSE,1008264264
Jatesh,Jatesh,Jateshi|Teshi,41.1022,19.9811,Albania,AL,ALB,Elbasan,Elbasan,AL-03,county,,76.4,,,4,Europe/Tirane,FALSE,1008615540
Val,Val,Valë|Vali,41.4028,20.1611,Albania,AL,ALB,Dibër,Diber,AL-09,county,,6.5,,,5,Europe/Tirane,FALSE,1008518026
Shkallë,Shkalle,Škal|Shkalla,41.4525,19.5736,Albania,AL,ALB,Durrës,Durres,AL-02,county,,113.4,,,4,Europe/Tirane,FALSE,1008707829
Currilat,Currilat,,41.3211,19.4306,Albania,AL,ALB,Durrës,Durres,AL-02,county,,3183.2,,,2,Europe/Tirane,FALSE,1008000062
Ballan,Ballan,Ballani,40.5622,19.7181,Albania,AL,ALB,Fier,Fier,AL-04,county,,28.6,,,4,Europe/Tirane,FALSE,1008022148
"Kullat e Boksit","Kullat e Boksit",,42.1297,19.5542,Albania,AL,ALB,Shkodër,Shkoder,AL-10,county,,70.6,,,4,Europe/Tirane,FALSE,1008577342
Gjanç,Gjanc,Gjançë|Gjançi,40.5400,20.6450,Albania,AL,ALB,Korçë,Korce,AL-06,county,,3.7,,,5,Europe/Tirane,FALSE,1008986456
Grabovicë,Grabovice,Grabovica,40.8319,20.7261,Albania,AL,ALB,Korçë,Korce,AL-06,county,,78.7,,,4,Europe/Tirane,FALSE,1008834809
Arbanë,Arbane,Arbana|Arbonë|Arbona|Erbona,41.2667,19.8000,Albania,AL,ALB,Tiranë,Tirane,AL-11,county,,127.6,,,4,Europe/Tirane,FALSE,1008894616
Fajzë,Fajze,Fajza,42.1667,20.3500,Albania,AL,ALB,Kukës,Kukes,AL-07,county,,46.4,,,4,Europe/Tirane,FALSE,1008969294
Kllojkë,Kllojke,Kllojka|Kudhojkës,41.2667,20.0167,Albania,AL,ALB,Tiranë,Tirane,AL-11,county,,57.8,,,4,Europe/Tirane,FALSE,1008005431
Izvir,Izvir,Izviri,41.4764,20.4542,Albania,AL,ALB,Dibër,Diber,AL-09,county,,45.6,,,4,Europe/Tirane,FALSE,1008112449
Luarë,Luare,Luar|Luari,40.3614,20.1886,Albania,AL,ALB,Gjirokastër,Gjirokaster,AL-05,county,,8.6,,,5,Europe/Tirane,FALSE,1008780798
Dopaj,Dopaj,Dopej,41.1789,20.0056,Albania,AL,ALB,Elbasan,Elbasan,AL-03,county,,26.9,,,4,Europe/Tirane,FALSE,1008263387
Potom,Potom,Potomi|Podhom,40.4833,20.3667,Albania,AL,ALB,Berat,Berat,AL-01,county,,4.4,,,5,Europe/Tirane,FALSE,1008677056
Gjashtë,Gjashte,Metogjashta|Gjiashte|Gjashta|Giasta|Gjastha,39.8747,20.0250,Albania,AL,ALB,Vlorë,Vlore,AL-12,county,,616.7,,,3,Europe/Tirane,FALSE,1008862196
Koldede,Koldede,Gegaj,42.4171,20.2131,Albania,AL,ALB,Kukës,Kukes,AL-07,county,,13.9,,,4,Europe/Tirane,FALSE,1008000014
Lëpushë,Lepushe,Lipushë|Lepushi|Lëpusha|Lepush|Lpusha,42.5294,19.7283,Albania,AL,ALB,Shkodër,Shkoder,AL-10,county,,5.3,,,3,Europe/Tirane,FALSE,1008022493
Kafarraj,Kafarraj,"Kafaranji Kafaraj|Kafaranj|Kafaragni|Cafarani|Kafaraj|Kafarj",40.6379,19.5108,Albania,AL,ALB,Fier,Fier,AL-04,county,,118.9,,,4,Europe/Tirane,FALSE,1008205218
"Sheshi i Zi","Sheshi i Zi","Shesh i Zi",40.8458,20.0872,Albania,AL,ALB,Elbasan,Elbasan,AL-03,county,,10.6,,,4,Europe/Tirane,FALSE,1008400076
Bleran,Bleran,Blerani,42.0842,19.5447,Albania,AL,ALB,Shkodër,Shkoder,AL-10,county,,598.6,,,3,Europe/Tirane,FALSE,1008396784
Gurbardhë,Gurbardhe,Shënjergji|Shëngjergj|Shëngjergi|Gurabardhë|Gurbardhi|Gurabardh|Shëngjergji|Gurëbardhi|Gurbardh,40.7519,20.8303,Albania,AL,ALB,Korçë,Korce,AL-06,county,,107.5,,,4,Europe/Tirane,FALSE,1008937094
Pishkash,Pishkash,Pishkashi,41.0967,20.5122,Albania,AL,ALB,Elbasan,Elbasan,AL-03,county,,53.2,,,4,Europe/Tirane,FALSE,1008436688
Gjon,Gjon,Gjoni,41.4147,20.1942,Albania,AL,ALB,Dibër,Diber,AL-09,county,,6.5,,,5,Europe/Tirane,FALSE,1008780691
Muçaj,Mucaj,,41.4000,19.6833,Albania,AL,ALB,Tiranë,Tirane,AL-11,county,,248.0,,,3,Europe/Tirane,FALSE,1008517191
Qosë,Qose,Qosja,40.8856,19.9172,Albania,AL,ALB,Elbasan,Elbasan,AL-03,county,,62.3,,,4,Europe/Tirane,FALSE,1008791828
Grecë,Grece,Greca|Grec,41.1833,19.7500,Albania,AL,ALB,Tiranë,Tirane,AL-11,county,,78.2,,,4,Europe/Tirane,FALSE,1008821711
Pashtresh,Pashtresh,Petresh|Pashtreshi|Patreshi,41.0031,20.2281,Albania,AL,ALB,Elbasan,Elbasan,AL-03,county,,25.2,,,4,Europe/Tirane,FALSE,1008756680
Mes,Mes,Mesi|Mesit,40.9242,20.4444,Albania,AL,ALB,Korçë,Korce,AL-06,county,,14.0,,,4,Europe/Tirane,FALSE,1008174465
Përcall,Percall,Përxalli,41.5386,19.9364,Albania,AL,ALB,Dibër,Diber,AL-09,county,,36.6,,,4,Europe/Tirane,FALSE,1008861165
Berzanaj,Berzanaj,Berzanë,40.4692,20.0994,Albania,AL,ALB,Gjirokastër,Gjirokaster,AL-05,county,,7.1,,,5,Europe/Tirane,FALSE,1008305785
Golem,Golem,"Golemi|Golem i Sipërm",42.0972,19.5258,Albania,AL,ALB,Shkodër,Shkoder,AL-10,county,,598.6,,,3,Europe/Tirane,FALSE,1008281620
Patok,Patok,"Patog|Plazhi i Patokut|Patoku|Patku|Tatok|Patok|Sqele e Patkut",41.6261,19.5925,Albania,AL,ALB,Lezhë,Lezhe,AL-08,county,,90.0,,,4,Europe/Tirane,FALSE,1008000009
Linaj-Egç-Lepurosh,Linaj-Egc-Lepurosh,Lepurosh|Linaj-Egç-Lepuroshi|Leporosh|Ljepuroshi,42.1814,19.5489,Albania,AL,ALB,Shkodër,Shkoder,AL-10,county,,70.6,,,4,Europe/Tirane,FALSE,1008107687
Sheqeras,Sheqeras,Sheqerasi,40.7442,20.7731,Albania,AL,ALB,Korçë,Korce,AL-06,county,,93.9,,,4,Europe/Tirane,FALSE,1008743192
Luarzë,Luarze,Luarëz|Luarazi|Luarzi|Luars|Luarz,41.9219,19.3850,Albania,AL,ALB,Shkodër,Shkoder,AL-10,county,,55.7,,,4,Europe/Tirane,FALSE,1008358989
Sbuc,Sbuc,,42.1225,19.6778,Albania,AL,ALB,Shkodër,Shkoder,AL-10,county,,5.6,,,5,Europe/Tirane,FALSE,1008850289
Malkë,Malke,"Matkë|Malka|Matka|Matke Mal",40.7517,19.7222,Albania,AL,ALB,Fier,Fier,AL-04,county,,259.3,,,3,Europe/Tirane,FALSE,1008464363
Trebickë,Trebicke,"Trebickë e Poshtëme|Trebitsca|Trebicka",40.4500,20.4717,Albania,AL,ALB,Korçë,Korce,AL-06,county,,3.7,,,4,Europe/Tirane,FALSE,1008880249
Bardhaj,Bardhaj,Belica|Belicë,40.4658,19.9833,Albania,AL,ALB,Gjirokastër,Gjirokaster,AL-05,county,,4.1,,,5,Europe/Tirane,FALSE,1008907595
Pëllumbas,Pellumbas,Plumasi|Pllumbasi|Pllumbas|Pullumbasi|Pëllumbasi|Plumas|Pullumbas,41.2500,19.9500,Albania,AL,ALB,Tiranë,Tirane,AL-11,county,,59.9,,,3,Europe/Tirane,FALSE,1008464724
Prodan,Prodan,Prodani,40.3078,20.6803,Albania,AL,ALB,Korçë,Korce,AL-06,county,,12.3,,,4,Europe/Tirane,FALSE,1008732834
Vorrozen,Vorrozen,Vorosen|Vorezë|Vorezaj|Vorazen|Vorrozeni|Vorrezaj|Vorrazen|Vorozeni|Vorrazeni|Vorozen,41.1453,19.5647,Albania,AL,ALB,Tiranë,Tirane,AL-11,county,,153.2,,,4,Europe/Tirane,FALSE,1008937264
"Rrapi i Gresallisë","Rrapi i Gresallise",,40.7681,19.5586,Albania,AL,ALB,Fier,Fier,AL-04,county,,133.5,,,4,Europe/Tirane,FALSE,1008000019
"Kodër Leshe","Koder Leshe",Kodralesha|Kodërlesha|Kodër-Leshja,41.7429,20.2905,Albania,AL,ALB,Dibër,Diber,AL-09,county,,35.6,,,4,Europe/Tirane,FALSE,1008424089
Zall-Torë,Zall-Tore,Zall-Torrë|Zall-Torra,41.0200,20.5028,Albania,AL,ALB,Korçë,Korce,AL-06,county,,53.1,,,4,Europe/Tirane,FALSE,1008719647
Çaushi,Caushi,Pupzaj|Çaush|Çauš|Çaushaj,41.2447,19.7419,Albania,AL,ALB,Tiranë,Tirane,AL-11,county,,105.4,,,4,Europe/Tirane,FALSE,1008134821
"Mahalla e Kolejt","Mahalla e Kolejt",,42.0428,19.6156,Albania,AL,ALB,Shkodër,Shkoder,AL-10,county,,96.7,,,4,Europe/Tirane,FALSE,1008889807
Gërnac,Gernac,Garnac|Garnaci|Germec|Gërnec|Gernaci|German,41.5836,19.8200,Albania,AL,ALB,Lezhë,Lezhe,AL-08,county,,52.9,,,4,Europe/Tirane,FALSE,1008675987
Gropë,Grope,,42.2486,20.0406,Albania,AL,ALB,Shkodër,Shkoder,AL-10,county,,6.8,,,5,Europe/Tirane,FALSE,1008526329
Bricë,Brice,Brizë|Briza|Brisa|Brica|Brincë,42.3000,19.9333,Albania,AL,ALB,Kukës,Kukes,AL-07,county,,3.2,,,3,Europe/Tirane,FALSE,1008956932
"Kallmeti i Madh","Kallmeti i Madh","Calmeti|Kallmet i Math|Kallmet i Madh|Kallmeti i Math|Kallheti i Math|Kalmet|Kallmet|Kallmeti",41.8417,19.6892,Albania,AL,ALB,Lezhë,Lezhe,AL-08,county,,94.2,,,3,Europe/Tirane,FALSE,1008188199
Gjokaj,Gjokaj,Ðokaj,41.3600,19.6800,Albania,AL,ALB,Tiranë,Tirane,AL-11,county,,248.5,,,3,Europe/Tirane,FALSE,1008462674
Koskorist,Koskorist,,42.4333,20.0000,Albania,AL,ALB,Kukës,Kukes,AL-07,county,,6.4,,,5,Europe/Tirane,FALSE,1008534511
Bulshar,Bulshar,Bulshari|Bulsharë|Bulshara,41.8458,20.0658,Albania,AL,ALB,Lezhë,Lezhe,AL-08,county,,7.0,,,4,Europe/Tirane,FALSE,1008582809
Abat,Abat,Abatë|Abati,42.3125,19.8078,Albania,AL,ALB,Shkodër,Shkoder,AL-10,county,,5.1,,,5,Europe/Tirane,FALSE,1008160462
Odriçan,Odrican,Odriçani|Odriçen,40.3503,20.3264,Albania,AL,ALB,Gjirokastër,Gjirokaster,AL-05,county,,6.5,,,5,Europe/Tirane,FALSE,1008825451
Plet,Plet,,42.0233,19.8117,Albania,AL,ALB,Shkodër,Shkoder,AL-10,county,,4.1,,,5,Europe/Tirane,FALSE,1008902631
Vërri,Verri,"Verri Slatinë|Veri Sllatinja|Verer|Veri-Sllatina|Veri Slatina",41.0033,20.5067,Albania,AL,ALB,Korçë,Korce,AL-06,county,,45.4,,,4,Europe/Tirane,FALSE,1008445432
Vërri,Verri,Vërriu,42.0167,20.3667,Albania,AL,ALB,Kukës,Kukes,AL-07,county,,8.0,,,5,Europe/Tirane,FALSE,1008468945
Vërri,Verri,Verrj|Vërrija|Veri|Vorri|Verija|Verrija,40.7883,19.6217,Albania,AL,ALB,Fier,Fier,AL-04,county,,147.0,,,4,Europe/Tirane,FALSE,1008019726
Vërri,Verri,Vërrin|Vërrija|Vrija|Vërrini|Vrrië,41.2692,20.2144,Albania,AL,ALB,Elbasan,Elbasan,AL-03,county,,24.3,,,4,Europe/Tirane,FALSE,1008244279
Mirovne,Mirovne,Rrethinje,42.2478,19.6778,Albania,AL,ALB,Shkodër,Shkoder,AL-10,county,,8.4,,,5,Europe/Tirane,FALSE,1008479909
Xhanaj,Xhanaj,Gianai|Djauani|Xhanau|Xhenaj,40.3706,20.2317,Albania,AL,ALB,Gjirokastër,Gjirokaster,AL-05,county,,7.0,,,4,Europe/Tirane,FALSE,1008791395
Bënjë,Benje,Veshnjë|Benja-Dishnica|Bënja|Begna|Benje-Dishnica,40.3539,20.2425,Albania,AL,ALB,Gjirokastër,Gjirokaster,AL-05,county,,7.0,,,4,Europe/Tirane,FALSE,1008260591
Shkallnur,Shkallnur,Škalngur|Skalgrah|Shkallnueri|Shkallnuer|Shkallngur|Shkallnuri|Shkallnduer,41.2903,19.5169,Albania,AL,ALB,Durrës,Durres,AL-02,county,,989.9,,,3,Europe/Tirane,FALSE,1008622792
"Hot i Ri","Hot i Ri","Shtoj i Ri",42.1003,19.5494,Albania,AL,ALB,Shkodër,Shkoder,AL-10,county,,598.6,,,3,Europe/Tirane,FALSE,1008180382
Martindrejaj,Martindrejaj,,42.2122,19.6456,Albania,AL,ALB,Shkodër,Shkoder,AL-10,county,,8.4,,,5,Europe/Tirane,FALSE,1008029314
Broshkë,Broshke,Shkumiza|Broshka|Broshca|Ihkumiza,41.0633,19.9172,Albania,AL,ALB,Elbasan,Elbasan,AL-03,county,,57.4,,,4,Europe/Tirane,FALSE,1008973840
Ungrej,Ungrej,Ungrei|Ungreji,41.8667,19.7833,Albania,AL,ALB,Lezhë,Lezhe,AL-08,county,,5.9,,,5,Europe/Tirane,FALSE,1008751253
Erebarë,Erebare,Erebara,41.6269,20.4711,Albania,AL,ALB,Dibër,Diber,AL-09,county,,106.3,,,4,Europe/Tirane,FALSE,1008406077
Macukull,Macukull,Macukuli|Macuklli|Macukulli,41.7000,20.0833,Albania,AL,ALB,Dibër,Diber,AL-09,county,,9.1,,,4,Europe/Tirane,FALSE,1008264886
Kollovoz,Kollovoz,Kollovozi|Kallovozi|Kolovoz|Kollovos,41.9972,20.5469,Albania,AL,ALB,Kukës,Kukes,AL-07,county,,41.9,,,3,Europe/Tirane,FALSE,1008467978
Shezë,Sheze,"Seza|Shezë e Madhe|Ujeza|Sheza",41.0167,19.8167,Albania,AL,ALB,Elbasan,Elbasan,AL-03,county,,94.9,,,4,Europe/Tirane,FALSE,1008032154
Arës,Ares,"Katund i Arasit|Arrëz|Arrzë|Arësi",41.1725,20.2792,Albania,AL,ALB,Elbasan,Elbasan,AL-03,county,,35.2,,,4,Europe/Tirane,FALSE,1008523419
"Breg i Kaçito","Breg i Kacito",,41.5000,19.6167,Albania,AL,ALB,Durrës,Durres,AL-02,county,,42.1,,,4,Europe/Tirane,FALSE,1008151124
Ndërlysaj,Nderlysaj,Nerlisa|Nderlysa|Ndërhysaj|Ndërlysë,42.3544,19.7731,Albania,AL,ALB,Shkodër,Shkoder,AL-10,county,,5.1,,,4,Europe/Tirane,FALSE,1008767404
Ralnik,Ralnik,,40.7603,20.9261,Albania,AL,ALB,Korçë,Korce,AL-06,county,,14.4,,,4,Europe/Tirane,FALSE,1008995353
Demaj,Demaj,,41.8297,19.5819,Albania,AL,ALB,Lezhë,Lezhe,AL-08,county,,175.0,,,4,Europe/Tirane,FALSE,1008746259
Lodë,Lode,,41.0500,19.8167,Albania,AL,ALB,Elbasan,Elbasan,AL-03,county,,90.7,,,4,Europe/Tirane,FALSE,1008564007
Fitore,Fitore,"N. B. Fitore|Fitorja",40.6303,19.4575,Albania,AL,ALB,Vlorë,Vlore,AL-12,county,,53.7,,,4,Europe/Tirane,FALSE,1008727898
Fitore,Fitore,"Fitorjë|Omer Efendi|Imer Ell|Imer Efendi|Fitorja|Ymer Efendi",39.8642,20.1100,Albania,AL,ALB,Vlorë,Vlore,AL-12,county,,10.7,,,4,Europe/Tirane,TRUE,1008145837
Kalivaç,Kalivac,Kalivaçi,40.8958,20.5808,Albania,AL,ALB,Korçë,Korce,AL-06,county,,13.1,,,4,Europe/Tirane,FALSE,1008901974
Karjan,Karjan,Qarjani|Carlani|Cariani|Karjani,40.1631,20.1447,Albania,AL,ALB,Gjirokastër,Gjirokaster,AL-05,county,,20.3,,,4,Europe/Tirane,FALSE,1008398110
Godvi,Godvi,Gotvija|Godvija|Godivya|Godvië,41.5208,20.3478,Albania,AL,ALB,Dibër,Diber,AL-09,county,,23.6,,,4,Europe/Tirane,FALSE,1008089115
Bofëngë,Bofenge,Bofënga,40.3414,20.0081,Albania,AL,ALB,Gjirokastër,Gjirokaster,AL-05,county,,17.5,,,4,Europe/Tirane,FALSE,1008752248
Bruz,Bruz,"Bruzje|Bruzja|Bruzi|Bros|Bruz Mal|Bruç|Bruze",41.4839,19.8922,Albania,AL,ALB,Durrës,Durres,AL-02,county,,9.8,,,4,Europe/Tirane,FALSE,1008345123
Grevë,Greve,Greva|Grerë,40.6583,20.3000,Albania,AL,ALB,Berat,Berat,AL-01,county,,2.7,,,4,Europe/Tirane,FALSE,1008056029
Bulagarec,Bulagarec,Bullgareci|Bullgarec|Bulgareci|Bujgarec,40.6525,20.7539,Albania,AL,ALB,Korçë,Korce,AL-06,county,,100.5,,,4,Europe/Tirane,FALSE,1008570710
Kryelug,Kryelug,Kryelugu,42.2875,20.1269,Albania,AL,ALB,Kukës,Kukes,AL-07,county,,19.3,,,4,Europe/Tirane,FALSE,1008849484
Gjonas,Gjonas,Gjonasi|Gjonaj,40.8055,19.6560,Albania,AL,ALB,Fier,Fier,AL-04,county,,117.7,,,4,Europe/Tirane,FALSE,1008601533
Stobertë,Stoberte,Stoberta,42.3147,20.2522,Albania,AL,ALB,Kukës,Kukes,AL-07,county,,7.3,,,5,Europe/Tirane,FALSE,1008489502
Iballë,Iballe,Ibalja|Jballje|Iballjë|Iballja,42.1833,20.0000,Albania,AL,ALB,Shkodër,Shkoder,AL-10,county,,3.8,,,4,Europe/Tirane,FALSE,1008161044
Grevë,Greve,Greva,41.6647,20.4578,Albania,AL,ALB,Dibër,Diber,AL-09,county,,30.9,,,4,Europe/Tirane,FALSE,1008152632
Rrapshë-Starë,Rrapshe-Stare,Rapsh-Starja|Rrapsh-Starje|Rrapsh-Starja|Rapsh-Starjë,42.3856,19.4928,Albania,AL,ALB,Shkodër,Shkoder,AL-10,county,,43.9,,,4,Europe/Tirane,FALSE,1008279112
Ndërshenë,Ndershene,Ndërshen|Nersheni|Ndërshena|Ndershenës,41.8294,20.0869,Albania,AL,ALB,Lezhë,Lezhe,AL-08,county,,6.0,,,4,Europe/Tirane,FALSE,1008431375
Ndërshenë,Ndershene,Ndërshen|Ndërshena,41.8558,20.2622,Albania,AL,ALB,Dibër,Diber,AL-09,county,,4.9,,,4,Europe/Tirane,FALSE,1008250743
"Cerova e Malit","Cerova e Malit",,40.4889,20.1700,Albania,AL,ALB,Berat,Berat,AL-01,county,,11.5,,,4,Europe/Tirane,FALSE,1008010363
Bizhdan,Bizhdan,Bizhodoni|Brezhdon|Brezhdani|Dafinëza|Bizhdani|Brazhdani|Brezhdan,40.9675,20.1447,Albania,AL,ALB,Elbasan,Elbasan,AL-03,county,,26.2,,,4,Europe/Tirane,FALSE,1008070845
Stan,Stan,Stani,40.7639,19.8933,Albania,AL,ALB,Berat,Berat,AL-01,county,,105.4,,,4,Europe/Tirane,FALSE,1008184661
Lunre,Lunre,Lunra,41.6342,19.8717,Albania,AL,ALB,Dibër,Diber,AL-09,county,,8.3,,,5,Europe/Tirane,FALSE,1008706067
Mushtë,Mushte,Mushta,41.9556,20.0689,Albania,AL,ALB,Shkodër,Shkoder,AL-10,county,,10.2,,,4,Europe/Tirane,FALSE,1008798588
Metaliaj,Metaliaj,Metallaj|Metë-Alia,42.1284,20.3162,Albania,AL,ALB,Kukës,Kukes,AL-07,county,,46.4,,,4,Europe/Tirane,FALSE,1008701391
Jazxhias,Jazxhias,Jazexhiasi|Jazdije|Jazexhiaj|Jazixhije|Jazixhias|Jazexhijasi|Jazxhijasi|Jazexhias|Jazexhiosi|Cugarsi|Jazaxhiasi|Jazexhijas,41.0055,19.7411,Albania,AL,ALB,Fier,Fier,AL-04,county,,67.3,,,4,Europe/Tirane,FALSE,1008040246
Arrën,Arren,Arrn|Arrëni|Arn|Arni|Arrni,41.9167,20.2833,Albania,AL,ALB,Kukës,Kukes,AL-07,county,,4.0,,,4,Europe/Tirane,FALSE,1008700423
"Kërçishti i Poshtëm","Kercishti i Poshtem","Kerçishte e Poshtëme|Dolna Krčišta|Kërçisht i Poshtëm|Kerçishta e Posthër",41.5861,20.5061,Albania,AL,ALB,Dibër,Diber,AL-09,county,,106.3,,,3,Europe/Tirane,FALSE,1008150080
Gjalish,Gjalish,Gjalishi,41.6133,20.1011,Albania,AL,ALB,Dibër,Diber,AL-09,county,,40.4,,,4,Europe/Tirane,FALSE,1008449905
Mirnë,Mirne,Mirinë|Mirina|Maricë,40.3597,19.9692,Albania,AL,ALB,Gjirokastër,Gjirokaster,AL-05,county,,17.5,,,4,Europe/Tirane,FALSE,1008232024
Barbullej,Barbullej,Barbulleji|Barbullejë|Barbulleja|Barbull|Barbulli,41.6644,20.0583,Albania,AL,ALB,Dibër,Diber,AL-09,county,,10.8,,,4,Europe/Tirane,FALSE,1008465476
Qytezë,Qyteze,Qyteza,40.4975,20.8947,Albania,AL,ALB,Korçë,Korce,AL-06,county,,26.9,,,4,Europe/Tirane,FALSE,1008832229
Qytezë,Qyteze,Qyteza,40.4322,20.5508,Albania,AL,ALB,Korçë,Korce,AL-06,county,,1.9,,,5,Europe/Tirane,TRUE,1008681763
Frashër,Frasher,"Frashëri|Frashari|Frashëri Qelepir",40.8653,19.9453,Albania,AL,ALB,Berat,Berat,AL-01,county,,108.6,,,4,Europe/Tirane,FALSE,1008066609
Guman,Guman,Gumani,40.6525,20.0067,Albania,AL,ALB,Berat,Berat,AL-01,county,,67.4,,,4,Europe/Tirane,FALSE,1008553823
Harkaj,Harkaj,,40.4008,20.1972,Albania,AL,ALB,Gjirokastër,Gjirokaster,AL-05,county,,8.9,,,5,Europe/Tirane,FALSE,1008885872
Çukë,Cuke,Çuka,42.2369,20.1111,Albania,AL,ALB,Kukës,Kukes,AL-07,county,,19.1,,,4,Europe/Tirane,FALSE,1008354192
Frashër,Frasher,Frašr|Frashëri,40.7152,19.6144,Albania,AL,ALB,Fier,Fier,AL-04,county,,112.0,,,4,Europe/Tirane,FALSE,1008330489
Maminas,Maminas,Maminasi|Meminosi|Meminas|Meminasi|Veminasi,41.3833,19.6000,Albania,AL,ALB,Durrës,Durres,AL-02,county,,158.3,,,4,Europe/Tirane,FALSE,1008033704
Partizan,Partizan,Theolog|Partizani|Theollogo,39.8094,20.2114,Albania,AL,ALB,Vlorë,Vlore,AL-12,county,,10.7,,,4,Europe/Tirane,FALSE,1008035850
Kakarriq,Kakarriq,Kakarriqi|Kakariq|Kakaric|Kakariqi|Cacaritc,41.8569,19.6114,Albania,AL,ALB,Lezhë,Lezhe,AL-08,county,,72.0,,,4,Europe/Tirane,FALSE,1008867541
Kapinovë,Kapinove,Kopinova|Kapinova|Capinova,40.6361,20.1206,Albania,AL,ALB,Berat,Berat,AL-01,county,,34.9,,,4,Europe/Tirane,FALSE,1008446467
Kapinovë,Kapinove,Kapinova|Kapinonovë|Capinova,40.5500,20.3667,Albania,AL,ALB,Berat,Berat,AL-01,county,,3.0,,,4,Europe/Tirane,TRUE,1008320346
Strafickë,Straficke,Strafiska|Straficka|Straficë,40.6333,20.3000,Albania,AL,ALB,Berat,Berat,AL-01,county,,2.9,,,4,Europe/Tirane,FALSE,1008401040
Kakos,Kakos,Kakozi|Kakosi|Cacossi|Kakoz,40.3976,20.3475,Albania,AL,ALB,Berat,Berat,AL-01,county,,3.3,,,4,Europe/Tirane,FALSE,1008026874
Stafe,Stafe,Stafajt,41.2000,20.0333,Albania,AL,ALB,Elbasan,Elbasan,AL-03,county,,23.9,,,4,Europe/Tirane,FALSE,1008361314
Draçovë,Dracove,Drashova|Draçova|Dracevo,40.1292,20.4875,Albania,AL,ALB,Gjirokastër,Gjirokaster,AL-05,county,,3.5,,,4,Europe/Tirane,FALSE,1008231651
Shebë,Shebe,Shebaj|Shebje|Shebja,41.7686,20.0156,Albania,AL,ALB,Lezhë,Lezhe,AL-08,county,,17.2,,,4,Europe/Tirane,FALSE,1008285385
Rokat,Rokat,,40.9875,19.9325,Albania,AL,ALB,Elbasan,Elbasan,AL-03,county,,110.6,,,4,Europe/Tirane,FALSE,1008810345
Shqiponjë,Shqiponje,Shqipone|Shqiponja,41.0103,20.4067,Albania,AL,ALB,Elbasan,Elbasan,AL-03,county,,15.1,,,4,Europe/Tirane,FALSE,1008619236
Nezhan,Nezhan,Nezhari|Nezhani|Nezhaj|Nezani,40.9786,20.2292,Albania,AL,ALB,Elbasan,Elbasan,AL-03,county,,12.5,,,4,Europe/Tirane,FALSE,1008011018
Lukovë,Lukove,Lukova|Lukovo|Lucova,39.9833,19.9167,Albania,AL,ALB,Vlorë,Vlore,AL-12,county,,21.0,,,3,Europe/Tirane,FALSE,1008562686
Plug,Plug,"Plugu|Rrumullak|N.B. 29 Nëntori",40.9471,19.6667,Albania,AL,ALB,Fier,Fier,AL-04,county,,193.0,,,4,Europe/Tirane,FALSE,1008102656
Shijezë,Shijeze,Shieza,41.5931,19.7667,Albania,AL,ALB,Lezhë,Lezhe,AL-08,county,,52.9,,,4,Europe/Tirane,FALSE,1008607883
"Gllava e Vogël","Gllava e Vogel","Gllavë e Vogël",40.4694,19.9436,Albania,AL,ALB,Gjirokastër,Gjirokaster,AL-05,county,,8.7,,,5,Europe/Tirane,FALSE,1008154861
Hoxhë,Hoxhe,"Liko Mdaj|Hoxha|Hoxhaj",40.6731,19.7644,Albania,AL,ALB,Fier,Fier,AL-04,county,,29.6,,,4,Europe/Tirane,FALSE,1008042376
Lugjaj,Lugjaj,Lugjej|Lugje|Gjogjaj,41.7969,20.3489,Albania,AL,ALB,Dibër,Diber,AL-09,county,,10.6,,,4,Europe/Tirane,FALSE,1008750950
"Cingari i Sipërm","Cingari i Siperm",,40.9525,20.1436,Albania,AL,ALB,Elbasan,Elbasan,AL-03,county,,36.7,,,4,Europe/Tirane,FALSE,1008523740
Babot,Babot,Baboti|Babat|Bobot|Boboti,42.0569,19.4011,Albania,AL,ALB,Shkodër,Shkoder,AL-10,county,,75.9,,,4,Europe/Tirane,FALSE,1008165453
Homezh,Homezh,"Homezhi|Homeshti|Homeshit Thatu|Homeshi|Homesh|Homezhie|Omezhi",40.9808,20.5667,Albania,AL,ALB,Korçë,Korce,AL-06,county,,45.4,,,4,Europe/Tirane,FALSE,1008611799
Myç-Has,Myc-Has,Muçhasi|Myc-Hasi,42.1071,20.3603,Albania,AL,ALB,Kukës,Kukes,AL-07,county,,11.0,,,4,Europe/Tirane,FALSE,1008756713
Lalëz,Lalez,Lalze-Rotull|Lalz|Lals|Lalëzi|Lales-rrotull|Lales|Lalza|Lalzi|Lalzë,41.5319,19.5681,Albania,AL,ALB,Durrës,Durres,AL-02,county,,42.1,,,4,Europe/Tirane,FALSE,1008287740
Kakaç,Kakac,Kakaçi,40.8119,20.6906,Albania,AL,ALB,Korçë,Korce,AL-06,county,,103.1,,,4,Europe/Tirane,FALSE,1008007070
Kjosolavë,Kjosolave,,40.9167,20.5500,Albania,AL,ALB,Korçë,Korce,AL-06,county,,13.1,,,4,Europe/Tirane,FALSE,1008467085
Dhëmblan,Dhemblan,Dhëmblani|Zemblan,40.3455,19.8528,Albania,AL,ALB,Gjirokastër,Gjirokaster,AL-05,county,,5.3,,,5,Europe/Tirane,FALSE,1008887379
"Krahësi i Sipërm","Krahesi i Siperm","Krahësi Numër Dy|Krahës Numër Dy|Krahës i Sipërm",40.4478,19.8738,Albania,AL,ALB,Gjirokastër,Gjirokaster,AL-05,county,,22.2,,,4,Europe/Tirane,FALSE,1008573055
Dokaj,Dokaj,,40.5308,20.0328,Albania,AL,ALB,Berat,Berat,AL-01,county,,5.9,,,5,Europe/Tirane,FALSE,1008096044
Dokaj,Dokaj,,40.4394,19.9758,Albania,AL,ALB,Gjirokastër,Gjirokaster,AL-05,county,,7.7,,,5,Europe/Tirane,FALSE,1008330514
"Sopi i Lleshit","Sopi i Lleshit",,40.9558,19.9831,Albania,AL,ALB,Elbasan,Elbasan,AL-03,county,,147.8,,,4,Europe/Tirane,FALSE,1008683848
Lagjas,Lagjas,Lagjasi,40.7417,20.0042,Albania,AL,ALB,Berat,Berat,AL-01,county,,87.3,,,4,Europe/Tirane,FALSE,1008264612
Kokaj,Kokaj,Kokay,42.2744,19.5308,Albania,AL,ALB,Shkodër,Shkoder,AL-10,county,,8.6,,,5,Europe/Tirane,FALSE,1008431189
Tranoshishtë,Tranoshishte,Tranoshisht|Tranusciste|Tranosishta|Tranushishtë|Tranasciste|Treneshishte|Tranushishta,40.1022,20.2117,Albania,AL,ALB,Gjirokastër,Gjirokaster,AL-05,county,,21.6,,,4,Europe/Tirane,FALSE,1008575679
Zimaj,Zimaj,,41.9167,19.7667,Albania,AL,ALB,Lezhë,Lezhe,AL-08,county,,5.9,,,5,Europe/Tirane,FALSE,1008510728
Zhej,Zhej,Zheji|Zhejë|Jeyi,40.2122,20.2089,Albania,AL,ALB,Gjirokastër,Gjirokaster,AL-05,county,,1.9,,,4,Europe/Tirane,FALSE,1008417674
Ktosh,Ktosh,Ktoshi|Klosh,42.1700,19.4822,Albania,AL,ALB,Shkodër,Shkoder,AL-10,county,,70.6,,,4,Europe/Tirane,FALSE,1008932083
Spille,Spille,Spilleja|Spilla|Spiljaj|Spileja|Spilej|Spilaj|Spillai|Shpelle|Spilleji,41.0925,19.4672,Albania,AL,ALB,Tiranë,Tirane,AL-11,county,,58.7,,,4,Europe/Tirane,FALSE,1008810006
Çekin,Cekin,Çekini|Çekina,40.8897,20.1731,Albania,AL,ALB,Elbasan,Elbasan,AL-03,county,,38.0,,,4,Europe/Tirane,FALSE,1008446620
Portëz,Portez,Portëza|Portëzë,40.7000,19.5833,Albania,AL,ALB,Fier,Fier,AL-04,county,,218.9,,,3,Europe/Tirane,FALSE,1008642414
Taragjin,Taragjin,Taragjini|Taragina,40.7861,20.3253,Albania,AL,ALB,Elbasan,Elbasan,AL-03,county,,4.1,,,5,Europe/Tirane,FALSE,1008136421
Lunar,Lunar,,41.6167,20.2167,Albania,AL,ALB,Dibër,Diber,AL-09,county,,8.1,,,5,Europe/Tirane,FALSE,1008061633
"Shushica e Vogël","Shushica e Vogel","Shushicë e Vogël|Shush e Kacani|Kadiasi|Shushicë e Kadiut",40.9614,20.0808,Albania,AL,ALB,Elbasan,Elbasan,AL-03,county,,29.4,,,4,Europe/Tirane,FALSE,1008531859
Linaj,Linaj,Linaj-Egç-Lepurosh|Limaj,42.1719,19.5308,Albania,AL,ALB,Shkodër,Shkoder,AL-10,county,,70.6,,,4,Europe/Tirane,FALSE,1008536319
Çaush,Caush,Ciausci|Çaushi,39.8697,20.0708,Albania,AL,ALB,Vlorë,Vlore,AL-12,county,,81.7,,,3,Europe/Tirane,FALSE,1008341921
"Mali i Gjymtit","Mali i Gjymtit","Mal i Gjamtit|Mal i Gjymtit",41.9558,19.3936,Albania,AL,ALB,Shkodër,Shkoder,AL-10,county,,93.3,,,4,Europe/Tirane,FALSE,1008307621
Valësh,Valesh,Pojonit|Valëshi|Vallëshi|Valshi,41.0000,20.1833,Albania,AL,ALB,Elbasan,Elbasan,AL-03,county,,25.7,,,4,Europe/Tirane,FALSE,1008967750
Krushovë,Krushove,Krushova,40.6764,20.5667,Albania,AL,ALB,Korçë,Korce,AL-06,county,,4.0,,,5,Europe/Tirane,FALSE,1008525454
Çiflig,Ciflig,"Orman Çifliku|Orman Çiflik|Orman Çiflig|Çiflik",40.6461,20.7675,Albania,AL,ALB,Korçë,Korce,AL-06,county,,100.5,,,4,Europe/Tirane,FALSE,1008705080
Çiflig,Ciflig,"Çifliqu|Çifliq|Çifliku|Çiflik-Poshnje|Çiflik Pashje|Çiflik-Poshnja|Çifligu",40.7974,19.8630,Albania,AL,ALB,Berat,Berat,AL-01,county,,165.1,,,4,Europe/Tirane,FALSE,1008441618
Krushovë,Krushove,Kurshova|Krushovc|Kurshovë|Krushova,40.5667,20.3667,Albania,AL,ALB,Berat,Berat,AL-01,county,,3.0,,,4,Europe/Tirane,FALSE,1008969967
Petran,Petran,Qendra|Qendër|Pertran,40.2094,20.4183,Albania,AL,ALB,Gjirokastër,Gjirokaster,AL-05,county,,6.8,,,4,Europe/Tirane,FALSE,1008645118
Buzmadh,Buzmadh,Buzmal|Buzëmadhë|Buzëmadh|Busmani|Buzemadhi|Buzmadhi|Buzëmadhi,40.5818,19.6116,Albania,AL,ALB,Fier,Fier,AL-04,county,,110.0,,,4,Europe/Tirane,FALSE,1008267197
Mollagjesh,Mollagjesh,"Mollagjeshi|Molla Gjecit",41.2219,20.0347,Albania,AL,ALB,Elbasan,Elbasan,AL-03,county,,21.8,,,4,Europe/Tirane,FALSE,1008742372
Dazhjan,Dazhjan,Dazhjani,41.6731,20.1261,Albania,AL,ALB,Dibër,Diber,AL-09,county,,9.1,,,5,Europe/Tirane,FALSE,1008323375
Bezhan,Bezhan,Beçan|Bezhani,40.4208,20.7342,Albania,AL,ALB,Korçë,Korce,AL-06,county,,5.7,,,5,Europe/Tirane,FALSE,1008110372
Kapaj,Kapaj,,40.7722,19.6908,Albania,AL,ALB,Fier,Fier,AL-04,county,,230.0,,,3,Europe/Tirane,FALSE,1008366270
Kapaj,Kapaj,Kapanj|Kapanxi|Kapani|Capani,40.5462,19.8288,Albania,AL,ALB,Fier,Fier,AL-04,county,,12.2,,,4,Europe/Tirane,TRUE,1008632109
Lumalas,Lumalas,"Lumasi|Lumalaz|Lumalasi|Teqeja e Lumalas|Lumlas Teqe|Lumalazi|Teqe e Lumalasit",40.6586,20.7364,Albania,AL,ALB,Korçë,Korce,AL-06,county,,100.7,,,4,Europe/Tirane,FALSE,1008262220
Përcëllesh,Percellesh,Përclleshi|Përcëlleshi|Perkhodesh|Percelleshi|Perolleshi,41.2833,19.9500,Albania,AL,ALB,Tiranë,Tirane,AL-11,county,,80.1,,,4,Europe/Tirane,FALSE,1008414612
Danushi,Danushi,Porgan,40.7144,20.0925,Albania,AL,ALB,Berat,Berat,AL-01,county,,15.7,,,4,Europe/Tirane,FALSE,1008085586
Pasha-Limani,Pasha-Limani,,40.3203,19.4293,Albania,AL,ALB,Vlorë,Vlore,AL-12,county,,14.4,,,4,Europe/Tirane,FALSE,1008000024
Bakall,Bakall,,41.3239,19.7486,Albania,AL,ALB,Tiranë,Tirane,AL-11,county,,2196.5,,,2,Europe/Tirane,FALSE,1008598881
"Grabova e Sipërme","Grabova e Siperme","Grabovë e Krishterëve|Grabova B|Grabova|Grabovë e Sipërme|Grabova Hristianiki|Grabova-Krishte|Grabovë e Krështerë|Grabovë B",40.7953,20.4086,Albania,AL,ALB,Elbasan,Elbasan,AL-03,county,,4.1,,,3,Europe/Tirane,FALSE,1008725862
Golemas,Golemas,Sfrati|Golemasi|Sfrat,40.2472,20.3106,Albania,AL,ALB,Gjirokastër,Gjirokaster,AL-05,county,,16.4,,,4,Europe/Tirane,FALSE,1008686794
Joullinj,Joullinj,,40.7731,19.9661,Albania,AL,ALB,Berat,Berat,AL-01,county,,94.9,,,4,Europe/Tirane,FALSE,1008606708
Hotolisht,Hotolisht,Kotolishta|Hotolishta|Hodolishti|Otolisht|Hotolishti|Baldreti,41.1500,20.4000,Albania,AL,ALB,Elbasan,Elbasan,AL-03,county,,29.4,,,4,Europe/Tirane,FALSE,1008102778
Lekbibaj,Lekbibaj,,42.3000,19.9333,Albania,AL,ALB,Kukës,Kukes,AL-07,county,,3.2,,,5,Europe/Tirane,FALSE,1008875948
Bual,Bual,Buhali|Buhal|Buali|Buhall,40.2525,20.3036,Albania,AL,ALB,Gjirokastër,Gjirokaster,AL-05,county,,6.5,,,4,Europe/Tirane,FALSE,1008387710
Skore,Skore,Skoreja|Skorea|Shkorë|Shorë,40.1000,20.3667,Albania,AL,ALB,Gjirokastër,Gjirokaster,AL-05,county,,1.5,,,3,Europe/Tirane,FALSE,1008445949
Toshkës,Toshkes,Toshkëzi|Toshkëzë|Toshkeza|Toschisci|Toshkësi|Toshkëz|Toskisci,40.4461,20.1550,Albania,AL,ALB,Gjirokastër,Gjirokaster,AL-05,county,,7.1,,,4,Europe/Tirane,FALSE,1008958389
Shijan,Shijan,Shijan-Goroshijan|Shijan-Goroshian|Shijan-Goroshijani|Shijani,40.3306,20.4892,Albania,AL,ALB,Korçë,Korce,AL-06,county,,2.2,,,4,Europe/Tirane,FALSE,1008400942
Mumajes,Mumajes,Mamajes|Mumajesi|Memajes|Mumajas,41.2333,19.8167,Albania,AL,ALB,Tiranë,Tirane,AL-11,county,,31.7,,,4,Europe/Tirane,FALSE,1008709757
Garuç,Garuc,Garuçi,42.1608,19.5886,Albania,AL,ALB,Shkodër,Shkoder,AL-10,county,,53.1,,,4,Europe/Tirane,FALSE,1008503434
Kullas,Kullas,,41.5167,19.6000,Albania,AL,ALB,Durrës,Durres,AL-02,county,,42.1,,,4,Europe/Tirane,FALSE,1008251323
Vasjan,Vasjan,Vasjani,41.1000,20.1833,Albania,AL,ALB,Elbasan,Elbasan,AL-03,county,,83.9,,,4,Europe/Tirane,FALSE,1008025734
Çalamanaj,Calamanaj,,40.8106,19.7319,Albania,AL,ALB,Fier,Fier,AL-04,county,,191.1,,,4,Europe/Tirane,FALSE,1008184669
Tumë,Tume,Masaresh,41.5842,20.0925,Albania,AL,ALB,Dibër,Diber,AL-09,county,,38.0,,,4,Europe/Tirane,FALSE,1008253375
Hasturkas,Hasturkas,Hasturkasi|Hasturkani|Hasturkan|Hasturkaj|Hasturk|Hastriku|Hasturkuj,40.8463,19.4696,Albania,AL,ALB,Fier,Fier,AL-04,county,,62.1,,,4,Europe/Tirane,FALSE,1008018371
Mërtur,Mertur,"Meturi i Gurit|Mërturi|Mërtura e Gurit|Mertur i Gurit|Mërturi i Gurit",42.2339,19.9119,Albania,AL,ALB,Shkodër,Shkoder,AL-10,county,,4.4,,,4,Europe/Tirane,FALSE,1008342001
Orosh,Orosh,Oroshi,42.1158,20.0397,Albania,AL,ALB,Shkodër,Shkoder,AL-10,county,,17.2,,,4,Europe/Tirane,FALSE,1008638827
Kullas,Kullas,,41.8182,20.4702,Albania,AL,ALB,Dibër,Diber,AL-09,county,,15.0,,,4,Europe/Tirane,FALSE,1008753199
Gradiskije,Gradiskije,Gradiskie,42.2453,19.5108,Albania,AL,ALB,Shkodër,Shkoder,AL-10,county,,8.6,,,5,Europe/Tirane,FALSE,1008693853
Vilë,Vile,Vila,41.8750,20.1008,Albania,AL,ALB,Lezhë,Lezhe,AL-08,county,,8.5,,,5,Europe/Tirane,FALSE,1008496003
Selimaj,Selimaj,,41.0189,19.7447,Albania,AL,ALB,Elbasan,Elbasan,AL-03,county,,141.4,,,4,Europe/Tirane,FALSE,1008162706
Micoj,Micoj,Miçoi|Micaj|Mizoj|Micu,42.0833,20.0125,Albania,AL,ALB,Shkodër,Shkoder,AL-10,county,,29.0,,,4,Europe/Tirane,FALSE,1008339752
Selimaj,Selimaj,Tosk|Cerila-Toske|Toskë|Cerila-Toska|Çerillë|Cerilë-Toskë,40.6136,19.7886,Albania,AL,ALB,Fier,Fier,AL-04,county,,34.0,,,4,Europe/Tirane,FALSE,1008064868
Selimaj,Selimaj,,42.3072,20.0218,Albania,AL,ALB,Kukës,Kukes,AL-07,county,,18.1,,,4,Europe/Tirane,FALSE,1008952703
Mesopotam,Mesopotam,"Mesapotami|Mesopótamo|Mesopotami|Mesopotam i Poshtër",39.9167,20.1000,Albania,AL,ALB,Vlorë,Vlore,AL-12,county,,49.8,,,4,Europe/Tirane,FALSE,1008896024
Lanabregas,Lanabregas,Lanabregas-Shtepazë|Lanabreges|Lanabregas-Shtepëza|Lanabregas-Shtepëz|Shtupanza|Shtëpazë|Shtepanza|Shtëpaza|Shpoza|Shtepozë|Shtëpiza|Shtëpanzë,41.3417,19.8917,Albania,AL,ALB,Tiranë,Tirane,AL-11,county,,539.4,,,3,Europe/Tirane,FALSE,1008519439
Sarasel,Sarasel,Seraseli|Saraseli|Ulza,40.8292,20.0347,Albania,AL,ALB,Elbasan,Elbasan,AL-03,county,,10.6,,,4,Europe/Tirane,FALSE,1008955006
Zall-Dardhë,Zall-Dardhe,"Zalli i Dardhës|Zalli i Dardes|Zall-Dardha|Zali|Zall i Dardhës",41.8000,20.3333,Albania,AL,ALB,Dibër,Diber,AL-09,county,,10.6,,,4,Europe/Tirane,FALSE,1008667208
Grapsh,Grapsh,Grapsi|Grapshi|Grapci|Gropsh|Grapsa,39.9544,20.2481,Albania,AL,ALB,Gjirokastër,Gjirokaster,AL-05,county,,4.5,,,3,Europe/Tirane,FALSE,1008209149
Grapsh,Grapsh,Krapsh|Grapshi|Grapsht|Grapshti|Grabesh,40.5839,20.8814,Albania,AL,ALB,Korçë,Korce,AL-06,county,,40.5,,,4,Europe/Tirane,FALSE,1008345779
Dritaj,Dritaj,"Manastiredi|Manastirec i Mokrës|Manastireci|Manastirec|Manastirasi|Dritan|Dritani|Monastirec i Mokrë|Manastirec Mokra|Dritaj(ish Manastirec)",41.0308,20.4936,Albania,AL,ALB,Elbasan,Elbasan,AL-03,county,,53.2,,,4,Europe/Tirane,FALSE,1008554454
Plesat,Plesat,Plesal|Plesa|Plesati,40.1297,20.0494,Albania,AL,ALB,Gjirokastër,Gjirokaster,AL-05,county,,6.5,,,4,Europe/Tirane,FALSE,1008152312
Hllomo,Hllomo,Hlomo|Hlomá|Hllomoja|Hiliomo|Hllomo-Mavrojeri|Hilomo|Hllomo-Mavrojer,40.0667,20.3500,Albania,AL,ALB,Gjirokastër,Gjirokaster,AL-05,county,,1.5,,,3,Europe/Tirane,FALSE,1008379874
Ujshtrezë,Ujshtreze,Uj-Shtreza,41.7833,19.9000,Albania,AL,ALB,Lezhë,Lezhe,AL-08,county,,45.2,,,4,Europe/Tirane,FALSE,1008203499
Pasnovisht,Pasnovisht,Pasnovishti|Posnovishta|Posnovisht|Posnevisht|Benga|Posnovishti|Posnovishtë,40.8486,20.2689,Albania,AL,ALB,Elbasan,Elbasan,AL-03,county,,19.3,,,4,Europe/Tirane,FALSE,1008892395
Shopël,Shopel,Shopli|Shopeli,42.1856,19.9328,Albania,AL,ALB,Shkodër,Shkoder,AL-10,county,,3.8,,,5,Europe/Tirane,FALSE,1008778824
Vrith,Vrith,Vrrisi|Vrrethi|Vrizi|Vrithi,42.3328,19.5414,Albania,AL,ALB,Shkodër,Shkoder,AL-10,county,,8.6,,,3,Europe/Tirane,FALSE,1008692190
Salcë,Salce,Salca,42.2633,19.8811,Albania,AL,ALB,Kukës,Kukes,AL-07,county,,3.2,,,4,Europe/Tirane,FALSE,1008185754
Pevelan,Pevelan,Pevelani|Prevalani,40.9106,20.5581,Albania,AL,ALB,Korçë,Korce,AL-06,county,,13.1,,,4,Europe/Tirane,FALSE,1008272263
Tushemisht,Tushemisht,Tuthemishti|Tushemishti|Tushemishte|Tushëmishta|Tushenishtë|Tushemist,40.9003,20.7192,Albania,AL,ALB,Korçë,Korce,AL-06,county,,339.1,,,3,Europe/Tirane,FALSE,1008180988
Ermenj,Ermenj,Rrëmenji|Rrëmenj|Rëmanji|Remanj|Ermenji|Armenji|Ermej|Eremenji,40.7431,20.2511,Albania,AL,ALB,Elbasan,Elbasan,AL-03,county,,9.2,,,4,Europe/Tirane,FALSE,1008199259
Rinas,Rinas,Rinasi,41.2833,20.2000,Albania,AL,ALB,Elbasan,Elbasan,AL-03,county,,24.3,,,4,Europe/Tirane,FALSE,1008131481
Rinas,Rinas,Rinasi,41.4333,19.7167,Albania,AL,ALB,Durrës,Durres,AL-02,county,,252.1,,,3,Europe/Tirane,FALSE,1008989284
Sinaj,Sinaj,,40.5519,20.0819,Albania,AL,ALB,Berat,Berat,AL-01,county,,12.3,,,4,Europe/Tirane,FALSE,1008157686
"Krutja e Poshtme","Krutja e Poshtme","Krutje e Postëme|Kruatje e Poshtme|Kruatje e Poshtëme|Kruati i Poshtëm|Krutje e Poshtme|Post Kruati|Krutja e Poshtëme",40.8723,19.6811,Albania,AL,ALB,Fier,Fier,AL-04,county,,144.4,,,4,Europe/Tirane,FALSE,1008113572
Zvarisht,Zvarisht,Zvarishtë|Zvarishta|Zavarishte|Zbarisht|Zvarishti,40.7236,20.5650,Albania,AL,ALB,Korçë,Korce,AL-06,county,,5.0,,,4,Europe/Tirane,FALSE,1008774553
Pap,Pap,Papi,42.1733,19.9267,Albania,AL,ALB,Shkodër,Shkoder,AL-10,county,,3.8,,,5,Europe/Tirane,FALSE,1008377427
Metoh,Metoh,Metohia|Metok|Metohu,40.6393,19.8345,Albania,AL,ALB,Fier,Fier,AL-04,county,,30.5,,,4,Europe/Tirane,FALSE,1008800709
Kamerllas,Kamerllas,Xhami|Kamerllasi,40.8164,20.0742,Albania,AL,ALB,Elbasan,Elbasan,AL-03,county,,20.8,,,4,Europe/Tirane,FALSE,1008143127
Goraj,Goraj,Goranji|Goran|Gorani,40.8120,19.9480,Albania,AL,ALB,Berat,Berat,AL-01,county,,174.1,,,4,Europe/Tirane,FALSE,1008809570
Kombësi,Kombesi,Kombesit|Kombësia|Komsi|Komësi|Komësia|Komësi,41.5833,19.9833,Albania,AL,ALB,Dibër,Diber,AL-09,county,,36.6,,,4,Europe/Tirane,FALSE,1008715814
Lëkurtaj,Lekurtaj,,42.3139,20.0341,Albania,AL,ALB,Kukës,Kukes,AL-07,county,,18.1,,,4,Europe/Tirane,FALSE,1008540100
Shijon,Shijon,"Sin Jon|Singjoni|Shingjon|Shenjoni|Shinjoni|Shijoni",41.1167,20.0167,Albania,AL,ALB,Elbasan,Elbasan,AL-03,county,,194.5,,,4,Europe/Tirane,FALSE,1008756290
Kir,Kir,Kiri,42.2411,19.7211,Albania,AL,ALB,Shkodër,Shkoder,AL-10,county,,6.9,,,5,Europe/Tirane,FALSE,1008900860
Portat,Portat,,42.1956,19.6292,Albania,AL,ALB,Shkodër,Shkoder,AL-10,county,,8.4,,,5,Europe/Tirane,FALSE,1008530089
Demaliaj,Demaliaj,,42.3036,20.2003,Albania,AL,ALB,Kukës,Kukes,AL-07,county,,7.3,,,5,Europe/Tirane,FALSE,1008311139
"Rreja e Zezë","Rreja e Zeze","Rrejë e Zezë|Rej e Kriezi|Rejë e Zezë|Reja e Zezë|Rreja|Rêja|Rejë-e Kryëzi",41.8092,19.7847,Albania,AL,ALB,Lezhë,Lezhe,AL-08,county,,37.0,,,4,Europe/Tirane,FALSE,1008315102
Kaçivel,Kacivel,Kaçiveli|Karçiveçi,40.9600,20.1328,Albania,AL,ALB,Elbasan,Elbasan,AL-03,county,,36.8,,,4,Europe/Tirane,FALSE,1008590778
Laktesh,Laktesh,Lakteshi,40.9736,20.4756,Albania,AL,ALB,Korçë,Korce,AL-06,county,,14.0,,,4,Europe/Tirane,FALSE,1008283332
Glac,Glac,,42.2478,19.6994,Albania,AL,ALB,Shkodër,Shkoder,AL-10,county,,8.4,,,5,Europe/Tirane,FALSE,1008821765
Lekaj,Lekaj,,40.2386,19.6528,Albania,AL,ALB,Vlorë,Vlore,AL-12,county,,5.5,,,5,Europe/Tirane,FALSE,1008644551
Vilë-Ballaj,Vile-Ballaj,"Vlaj Ballaj i Ri|Vilj|Vila|Shpati|Villa|Vilë|Vilaj",41.0556,19.5117,Albania,AL,ALB,Tiranë,Tirane,AL-11,county,,69.7,,,4,Europe/Tirane,FALSE,1008784246
Lekaj,Lekaj,,42.0700,19.7378,Albania,AL,ALB,Shkodër,Shkoder,AL-10,county,,43.9,,,4,Europe/Tirane,FALSE,1008904550
Lekaj,Lekaj,Lecaj,42.3219,19.7947,Albania,AL,ALB,Shkodër,Shkoder,AL-10,county,,5.1,,,5,Europe/Tirane,TRUE,1008689972
Lekaj,Lekaj,Ljekaj,41.1147,19.6097,Albania,AL,ALB,Tiranë,Tirane,AL-11,county,,71.4,,,4,Europe/Tirane,FALSE,1008552323
Spather,Spather,,40.4833,20.1500,Albania,AL,ALB,Berat,Berat,AL-01,county,,11.5,,,4,Europe/Tirane,FALSE,1008311210
Prencaj,Prencaj,,42.2417,19.6803,Albania,AL,ALB,Shkodër,Shkoder,AL-10,county,,8.4,,,5,Europe/Tirane,FALSE,1008121886
Petoc,Petoc,Petoçi|Petoq,41.9372,20.1814,Albania,AL,ALB,Lezhë,Lezhe,AL-08,county,,8.5,,,5,Europe/Tirane,FALSE,1008230964
Palokastër,Palokaster,Palokastre|Palokaskër|Palakastra|Palokastra|Paliocastro,40.1583,20.1028,Albania,AL,ALB,Gjirokastër,Gjirokaster,AL-05,county,,15.8,,,3,Europe/Tirane,FALSE,1008930642
Dushk,Dushk,Dushku,40.7267,19.7572,Albania,AL,ALB,Fier,Fier,AL-04,county,,71.5,,,4,Europe/Tirane,FALSE,1008999553
Dushk,Dushk,Dushku,40.9342,20.1094,Albania,AL,ALB,Elbasan,Elbasan,AL-03,county,,38.0,,,4,Europe/Tirane,FALSE,1008940650
Dushk,Dushk,Dušk|Dushku|Dushkë,41.4206,19.5231,Albania,AL,ALB,Durrës,Durres,AL-02,county,,220.0,,,3,Europe/Tirane,FALSE,1008126797
Alopul,Alopul,Alopuli,39.8353,20.2694,Albania,AL,ALB,Vlorë,Vlore,AL-12,county,,10.7,,,4,Europe/Tirane,FALSE,1008168313
Gostimë,Gostime,Gostima|Vizë|Vjza,41.0000,20.0167,Albania,AL,ALB,Elbasan,Elbasan,AL-03,county,,122.4,,,4,Europe/Tirane,FALSE,1008343704
Gostimë,Gostime,Gostimë-Mal|Gostima|Gostim-Mali|Gostim-Mal,41.1456,20.2400,Albania,AL,ALB,Elbasan,Elbasan,AL-03,county,,32.8,,,4,Europe/Tirane,TRUE,1008175946
Durisht,Durisht,Durishti|Durishtë|Durishta,41.2333,19.8833,Albania,AL,ALB,Tiranë,Tirane,AL-11,county,,78.3,,,4,Europe/Tirane,FALSE,1008297265
Vidhishtë,Vidhishte,Vivishta|Vidhishta,40.7175,19.7002,Albania,AL,ALB,Fier,Fier,AL-04,county,,155.9,,,4,Europe/Tirane,FALSE,1008141273
Gërdec,Gerdec,Gërdeci|Gjeçaj,41.4167,19.6333,Albania,AL,ALB,Tiranë,Tirane,AL-11,county,,248.5,,,3,Europe/Tirane,FALSE,1008368345
Rabije,Rabije,Rabija|Rabie|Babijë|Babija|Rabia,40.4839,19.9431,Albania,AL,ALB,Gjirokastër,Gjirokaster,AL-05,county,,5.1,,,4,Europe/Tirane,FALSE,1008264868
Isakas,Isakas,Isakasi|Hisakas|Hisiagas,40.7658,20.0494,Albania,AL,ALB,Berat,Berat,AL-01,county,,32.5,,,4,Europe/Tirane,FALSE,1008467735
Shterpas,Shterpas,Shterpasi|Šterpas|Sterbasi,40.7910,19.4941,Albania,AL,ALB,Fier,Fier,AL-04,county,,54.2,,,4,Europe/Tirane,FALSE,1008000057
Rasboks,Rasboks,Ndërxhina|Ðinaj|Ndërxhinaj|Nërxhinaj,41.9558,19.7103,Albania,AL,ALB,Shkodër,Shkoder,AL-10,county,,10.8,,,4,Europe/Tirane,FALSE,1008738727
"Shëngjini i Madh","Shengjini i Madh","Shengini|Shingjini|Shëngjin i Math|Shëngjini i Math|Shingjini i Math|Shëngjin|Shëngjini|Shëngjin i Madh",41.3167,20.0667,Albania,AL,ALB,Tiranë,Tirane,AL-11,county,,6.4,,,4,Europe/Tirane,FALSE,1008221640
"Grykëshi i Vogël","Grykeshi i Vogel","Gryksh i Vogël|Grykshi i Vogël|Grykësh Vogël|Grykash i Vogël|Grykesh i Vogël|Grykëshi i Vogël|Grykë e Vogël",41.0425,19.8569,Albania,AL,ALB,Elbasan,Elbasan,AL-03,county,,93.9,,,4,Europe/Tirane,FALSE,1008648104
"Ura e Shtrejtë","Ura e Shtrejte","Ur’ e Shtrenjtë|Ur’ e Shtrejtë|Urë e Shtrenjtë|Uraštrejt|Ura e Shtrenjtë",42.1450,19.6580,Albania,AL,ALB,Shkodër,Shkoder,AL-10,county,,53.1,,,4,Europe/Tirane,FALSE,1008127907
Grykësh,Grykesh,Grykshi|Grykas|Grykëshi|Grykasi,41.0556,19.8681,Albania,AL,ALB,Elbasan,Elbasan,AL-03,county,,90.7,,,4,Europe/Tirane,FALSE,1008699280
Shkretë,Shkrete,Shkreti|Shkreta,41.5494,19.8319,Albania,AL,ALB,Durrës,Durres,AL-02,county,,9.8,,,5,Europe/Tirane,FALSE,1008977201
Shëngjergj,Shengjergj,Shengjini|Shëngiergij|Singjerć,41.8897,19.8558,Albania,AL,ALB,Lezhë,Lezhe,AL-08,county,,5.4,,,4,Europe/Tirane,FALSE,1008170785
Xhavur,Xhavur,,40.8944,20.0156,Albania,AL,ALB,Elbasan,Elbasan,AL-03,county,,70.2,,,4,Europe/Tirane,FALSE,1008011166
Anola,Anola,Anolë,41.2317,20.1078,Albania,AL,ALB,Elbasan,Elbasan,AL-03,county,,22.1,,,4,Europe/Tirane,FALSE,1008963850
Gur-Lurë,Gur-Lure,"Gur i Lurës|Guri|Gurë-Lurë|Gur|Gurë-Lura",41.7586,20.2258,Albania,AL,ALB,Dibër,Diber,AL-09,county,,4.8,,,4,Europe/Tirane,FALSE,1008038245
