city,city_ascii,city_alt,lat,lng,country,iso2,iso3,admin_name,admin_name_ascii,admin_code,admin_type,capital,density,population,population_proper,ranking,timezone,same_name,id
Yerevan,Yerevan,Iravan|Erivan|Erewan|Erevan|Yervandavan|Ereun|Revan|Ayrivan,40.1814,44.5144,Armenia,AM,ARM,Yerevan,Yerevan,AM-ER,city,primary,4739.2,1075800,1075800,1,Asia/Yerevan,FALSE,1051074169
Gyumri,Gyumri,Kümri|Alexandropol’|Aleksandropol’|Gumri|Alek’pol|Gimri|Kyumayri|Kyumri|Gumry|Kumayri|Leninakan|Alek’sandrobol|Alek’sandrapol,40.7894,43.8475,Armenia,AM,ARM,Shirak,Shirak,AM-SH,region,admin,2640.2,121976,121976,2,Asia/Yerevan,FALSE,1051341374
Vanadzor,Vanadzor,"Mets Karakilisa|Korovakan|Karakilis|Gharak’ilisa|Karaklis|Karakhs|Kirowakan|Kirovakan",40.8128,44.4883,Armenia,AM,ARM,Lorri,Lorri,AM-LO,region,admin,3606.6,90525,90525,2,Asia/Yerevan,FALSE,1051691929
Ejmiatsin,Ejmiatsin,"Üçkilise|Vagharshapat|Iejmiatsin|Norak’aghak’|Echmiatsin|Avan Vardgesi|Artemed|Kaynepolis|Kayrak’aghak’|Uch’k’ilisa|Echmiadzin|Vardgesavan|Valeroktista",40.1728,44.2925,Armenia,AM,ARM,Armavir,Armavir,AM-AV,region,,1043.2,57500,57500,3,Asia/Yerevan,FALSE,1051214432
Hrazdan,Hrazdan,"Akhta|Razdan|Nizhne Akhti|Nizhnyaya Akhta|Nerkin Akhta|Akhtala|Nizhniye Akhty|Akhti",40.5000,44.7667,Armenia,AM,ARM,Kotayk’,Kotayk',AM-KT,region,admin,347.6,52808,52808,2,Asia/Yerevan,FALSE,1051566733
Abovyan,Abovyan,Elar,40.2739,44.6256,Armenia,AM,ARM,Kotayk’,Kotayk',AM-KT,region,,6342.9,44400,44400,2,Asia/Yerevan,FALSE,1051509043
Kapan,Kapan,Qafan|Kafan|Ghap’an|Zangezur|Madan|Katan|Kafin,39.2011,46.4150,Armenia,AM,ARM,Syunik’,Syunik',AM-SU,region,admin,1199.7,43190,43190,2,Asia/Yerevan,FALSE,1051527958
Armavir,Armavir,Oktemberyan|Sardarapat|Sardar-Abad|Hoktemberyan,40.1500,44.0400,Armenia,AM,ARM,Armavir,Armavir,AM-AV,region,admin,4540.0,38635,38635,2,Asia/Yerevan,FALSE,1051878002
Charentsavan,Charentsavan,Ch’arants’avan|Lusavan|Choentsavan,40.4097,44.6431,Armenia,AM,ARM,Kotayk’,Kotayk',AM-KT,region,,5007.8,25039,25039,2,Asia/Yerevan,FALSE,1051304472
Stepanavan,Stepanavan,Stepanawan-Lori|Stepahavan|Dzhalalogly|Dzhelaloglu,41.0096,44.3841,Armenia,AM,ARM,Lorri,Lorri,AM-LO,region,,194.7,23782,23782,3,Asia/Yerevan,FALSE,1051221961
Sevan,Sevan,Yelenovka|Ssewan,40.5550,44.9536,Armenia,AM,ARM,Geghark’unik’,Geghark'unik',AM-GR,region,,1307.0,23200,23200,3,Asia/Yerevan,FALSE,1051586680
Ashtarak,Ashtarak,"Achtarak|Ashtarakats’ Gyugh",40.2975,44.3617,Armenia,AM,ARM,Aragatsotn,Aragatsotn,AM-AG,region,admin,438.3,21600,21600,2,Asia/Yerevan,FALSE,1051714712
Masis,Masis,Narimanlu|Razdan|Hrazdan|Zangibasar|Tokhanshalu|Takhanshalu|Ulukhanlu,40.0633,44.4408,Armenia,AM,ARM,Ararat,Ararat,AM-AR,region,,1000.7,21376,21376,3,Asia/Yerevan,FALSE,1051588635
Artashat,Artashat,Kamarlyu|Kamarlu|Kamarl,39.9539,44.5506,Armenia,AM,ARM,Ararat,Ararat,AM-AR,region,admin,1163.9,21300,21300,2,Asia/Yerevan,FALSE,1051969157
Ararat,Ararat,"Davalinskiy Tsemzavod|Davalu",39.8303,44.7025,Armenia,AM,ARM,Ararat,Ararat,AM-AR,region,,133.5,20800,20800,3,Asia/Yerevan,FALSE,1051804328
Gavarr,Gavarr,"Novo Bayazet|Nor-Bajaset|Kyavar|Kamo",40.3589,45.1267,Armenia,AM,ARM,Geghark’unik’,Geghark'unik',AM-GR,region,admin,94.5,20765,20765,2,Asia/Yerevan,FALSE,1051983153
Goris,Goris,Geryusy,39.5078,46.3386,Armenia,AM,ARM,Syunik’,Syunik',AM-SU,region,,572.0,20591,20591,3,Asia/Yerevan,FALSE,1051724931
Ijevan,Ijevan,"Istibulagh|Karavan Savan|K’arvansara|K’aravansaray|Karavansarai|Idzhevan|İcevan|Karvansara",40.8792,45.1472,Armenia,AM,ARM,Tavush,Tavush,AM-TV,region,admin,1289.0,20509,20509,2,Asia/Yerevan,FALSE,1051007129
Artik,Artik,,40.6167,43.9500,Armenia,AM,ARM,Shirak,Shirak,AM-SH,region,,550.9,19543,19543,3,Asia/Yerevan,TRUE,1051915203
Artik,Artik,,40.6172,43.9758,Armenia,AM,ARM,Shirak,Shirak,AM-SH,region,,559.9,19534,19534,3,Asia/Yerevan,FALSE,1051264283
Dilijan,Dilijan,"Delizhan|Delishan|Dili|Dilichan|Dilizhan|Hin|Dili P’ok’r|Tili|Tilichan|Dilishan|Delijan",40.7408,44.8631,Armenia,AM,ARM,Tavush,Tavush,AM-TV,region,,311.1,16600,16600,3,Asia/Yerevan,FALSE,1051278149
Spitak,Spitak,Amamth|Amamlu,40.8372,44.2675,Armenia,AM,ARM,Lorri,Lorri,AM-LO,region,,260.4,15000,15000,3,Asia/Yerevan,FALSE,1051088654
Sisian,Sisian,Karakilisa|Sisavan,39.5208,46.0322,Armenia,AM,ARM,Syunik’,Syunik',AM-SU,region,,302.3,14894,14894,3,Asia/Yerevan,FALSE,1051297901
Vedi,Vedi,Beyuk-Vedi|Biyuk-Vedi,39.9106,44.7278,Armenia,AM,ARM,Ararat,Ararat,AM-AR,region,,360.8,13600,13600,3,Asia/Yerevan,FALSE,1051497874
Alaverdi,Alaverdi,Alaverdy|Alawerdy|Allaverdy|Manes,41.1333,44.6500,Armenia,AM,ARM,Lorri,Lorri,AM-LO,region,,195.1,13000,13000,3,Asia/Yerevan,FALSE,1051787137
Vardenis,Vardenis,Basargech’ar,40.1806,45.7200,Armenia,AM,ARM,Geghark’unik’,Geghark'unik',AM-GR,region,,335.4,12363,12363,3,Asia/Yerevan,FALSE,1051776950
Martuni,Martuni,"Martuki|Karanlug|Nerkin Karanlukh|Nizhniy-Karanlug|Martuny",40.1400,45.3064,Armenia,AM,ARM,Geghark’unik’,Geghark'unik',AM-GR,region,,363.7,11987,11987,3,Asia/Yerevan,FALSE,1051260753
Yeghvard,Yeghvard,Yegvart|Yevgard|Jegward|Yegvard,40.3217,44.4814,Armenia,AM,ARM,Kotayk’,Kotayk',AM-KT,region,,175.9,10656,10656,3,Asia/Yerevan,FALSE,1051779287
Vardenik,Vardenik,"Nerkin Gezaldara|Nizhnyaya Gezaldara|Gezeldara",40.1331,45.4367,Armenia,AM,ARM,Geghark’unik’,Geghark'unik',AM-GR,region,,112.1,9880,9880,3,Asia/Yerevan,FALSE,1051146271
Metsamor,Metsamor,,40.1428,44.1164,Armenia,AM,ARM,Armavir,Armavir,AM-AV,region,,1082.2,9870,9870,3,Asia/Yerevan,FALSE,1051651063
Berd,Berd,"T’ovuz|T’uzukala|Bert|Tovuzkala|T’auzkala|Taua Kale|Berrdgyugh|T’avuzghala|T’ous Gale|Shlorut|Ghalak’yand|T’ous|Volorut|T’auzk’end|Berrdagyugh|Taya-Kala|Tovuzqala",40.8808,45.3917,Armenia,AM,ARM,Tavush,Tavush,AM-TV,region,,205.7,9864,9864,3,Asia/Yerevan,FALSE,1051965968
Byureghavan,Byureghavan,Byuregavan,40.3147,44.5936,Armenia,AM,ARM,Kotayk’,Kotayk',AM-KT,region,,2378.2,9513,9513,2,Asia/Yerevan,FALSE,1051696950
"Nor Hachn","Nor Hachn","Nor Achin|Nor Hachyn",40.3019,44.5831,Armenia,AM,ARM,Kotayk’,Kotayk',AM-KT,region,,4046.5,9307,9307,2,Asia/Yerevan,FALSE,1051802790
Tashir,Tashir,Kaliniko|Kalinin|Kalinino|Vorontsovka,41.1244,44.2819,Armenia,AM,ARM,Lorri,Lorri,AM-LO,region,,69.3,8700,8700,3,Asia/Yerevan,FALSE,1051680734
"Nerk’in Getashen","Nerk'in Getashen","Nerkin Adyaman|Nizhniy Adyaman",40.1467,45.2642,Armenia,AM,ARM,Geghark’unik’,Geghark'unik',AM-GR,region,,368.2,8553,8553,3,Asia/Yerevan,FALSE,1051445812
Ayntap,Ayntap,,40.0986,44.4681,Armenia,AM,ARM,Ararat,Ararat,AM-AR,region,,951.8,8376,8376,3,Asia/Yerevan,FALSE,1051408099
Sarukhan,Sarukhan,Dalikardash,40.2892,45.1342,Armenia,AM,ARM,Geghark’unik’,Geghark'unik',AM-GR,region,,124.9,8309,8309,3,Asia/Yerevan,FALSE,1051200074
Yeghegnadzor,Yeghegnadzor,Yeghegik|Mikoyan|Keshishkend|Keshishkent|Yekhegnadzor,39.7611,45.3333,Armenia,AM,ARM,"Vayots’ Dzor","Vayots' Dzor",AM-VD,region,admin,282.7,7633,7633,2,Asia/Yerevan,FALSE,1051234787
"Nor Kharberd","Nor Kharberd","Nor Kyank",40.0892,44.4778,Armenia,AM,ARM,Ararat,Ararat,AM-AR,region,,960.4,7366,7366,3,Asia/Yerevan,FALSE,1051321773
Kajaran,Kajaran,Qacaran|Kadzharan,39.1594,46.1222,Armenia,AM,ARM,Syunik’,Syunik',AM-SU,region,,42.2,7163,7163,3,Asia/Yerevan,FALSE,1051149529
Jrvezh,Jrvezh,Dzhivrishch’|Dzhrvezh,40.1856,44.5869,Armenia,AM,ARM,Yerevan,Yerevan,AM-ER,city,,812.3,6848,6848,3,Asia/Yerevan,FALSE,1051050758
Noratus,Noratus,Noraduz,40.3800,45.1800,Armenia,AM,ARM,Geghark’unik’,Geghark'unik',AM-GR,region,,119.2,6732,6732,3,Asia/Yerevan,FALSE,1051811701
Aparan,Aparan,"Bash Aparan|Aparanbol|Dash Abaron|Bash Abaran|Abaran Verin|Aparanpol|Aparan Verin|K’asagh|P’araznavert|Abaran|K’asakh|Pash Aparan",40.5891,44.3572,Armenia,AM,ARM,Aragatsotn,Aragatsotn,AM-AG,region,,232.0,6400,6400,3,Asia/Yerevan,FALSE,1051583934
Zolakar,Zolakar,,40.1250,45.3750,Armenia,AM,ARM,Geghark’unik’,Geghark'unik',AM-GR,region,,116.4,6381,6381,3,Asia/Yerevan,FALSE,1051349111
Zolakar,Zolakar,Zolakhach,40.1250,45.3750,Armenia,AM,ARM,Geghark’unik’,Geghark'unik',AM-GR,region,,116.4,6381,6381,4,Asia/Yerevan,TRUE,1051054530
Arrinj,Arrinj,Arindzh,40.2314,44.5711,Armenia,AM,ARM,Kotayk’,Kotayk',AM-KT,region,,736.1,6220,6220,3,Asia/Yerevan,FALSE,1051802785
Chambarak,Chambarak,"Krasnoye|Krasnosel’sk|Kraside|Mikhaylovka|Verkhniy Chambarak|Verin-Chambarak|Çəmbərək",40.5953,45.3475,Armenia,AM,ARM,Geghark’unik’,Geghark'unik',AM-GR,region,,55.5,5850,5850,3,Asia/Yerevan,FALSE,1051172497
Parakar,Parakar,Shirabad,40.1639,44.4058,Armenia,AM,ARM,Armavir,Armavir,AM-AV,region,,762.8,5584,5584,3,Asia/Yerevan,FALSE,1051709809
Yeranos,Yeranos,,40.2042,45.1883,Armenia,AM,ARM,Geghark’unik’,Geghark'unik',AM-GR,region,,105.8,5479,5479,3,Asia/Yerevan,FALSE,1051320429
Zovuni,Zovuni,,40.2364,44.5039,Armenia,AM,ARM,Aragatsotn,Aragatsotn,AM-AG,region,,251.4,5479,5479,3,Asia/Yerevan,FALSE,1051411408
Lichk,Lichk,Gël,40.1592,45.2347,Armenia,AM,ARM,Geghark’unik’,Geghark'unik',AM-GR,region,,132.7,5417,5417,3,Asia/Yerevan,FALSE,1051665873
Maralik,Maralik,"Molla Gëkcha",40.5722,43.8669,Armenia,AM,ARM,Shirak,Shirak,AM-SH,region,,113.0,5398,5398,3,Asia/Yerevan,FALSE,1051325804
"Nor Geghi","Nor Geghi","Chatkran|Bazmavan|Nor Gekhi",40.3211,44.5797,Armenia,AM,ARM,Kotayk’,Kotayk',AM-KT,region,,220.7,5319,5319,3,Asia/Yerevan,FALSE,1051681329
Talin,Talin,"Verin Talin|Verkhniy Talin",40.3830,43.8737,Armenia,AM,ARM,Aragatsotn,Aragatsotn,AM-AG,region,,108.6,5310,5310,4,Asia/Yerevan,TRUE,1051494167
Noyemberyan,Noyemberyan,Barana|Baran,41.1725,44.9936,Armenia,AM,ARM,Tavush,Tavush,AM-TV,region,,110.7,5310,5310,3,Asia/Yerevan,FALSE,1051943920
Sardarapat,Sardarapat,Hoktember|Oktember,40.1361,44.0139,Armenia,AM,ARM,Armavir,Armavir,AM-AV,region,,321.0,5192,5192,3,Asia/Yerevan,FALSE,1051014617
Proshyan,Proshyan,Proshian|Prroshyan,40.2481,44.4150,Armenia,AM,ARM,Kotayk’,Kotayk',AM-KT,region,,239.2,5147,5147,3,Asia/Yerevan,FALSE,1051804175
Tsovinar,Tsovinar,Kolakran,40.1600,45.4664,Armenia,AM,ARM,Geghark’unik’,Geghark'unik',AM-GR,region,,144.5,5115,5115,3,Asia/Yerevan,FALSE,1051601540
Aragatsavan,Aragatsavan,Alagyoz|Alagyaz|Alagëz|Alages|Aragats,40.3331,43.6581,Armenia,AM,ARM,Aragatsotn,Aragatsotn,AM-AG,region,,38.0,5053,5053,3,Asia/Yerevan,FALSE,1051001914
"Verin Getashen","Verin Getashen","Verkhniy Adyaman|Verin Adyaman",40.1328,45.2486,Armenia,AM,ARM,Geghark’unik’,Geghark'unik',AM-GR,region,,250.7,5010,5010,3,Asia/Yerevan,FALSE,1051624886
Mrgashat,Mrgashat,Gecherlau|Gechrlu,40.1297,44.0706,Armenia,AM,ARM,Armavir,Armavir,AM-AV,region,,265.5,4993,4993,3,Asia/Yerevan,FALSE,1051128274
Talin,Talin,,40.3836,43.8764,Armenia,AM,ARM,Aragatsotn,Aragatsotn,AM-AG,region,,17.5,4981,4981,3,Asia/Yerevan,FALSE,1051570664
Lchashen,Lchashen,Ordaklu,40.5203,44.9308,Armenia,AM,ARM,Geghark’unik’,Geghark'unik',AM-GR,region,,90.8,4969,4969,3,Asia/Yerevan,FALSE,1051997291
Nalbandyan,Nalbandyan,"Mets Shagriar|Shagriar Bol’shoy|Shagriar",40.0678,43.9856,Armenia,AM,ARM,Armavir,Armavir,AM-AV,region,,235.7,4863,4863,3,Asia/Yerevan,FALSE,1051872058
Azatan,Azatan,"Pokr Karakilisa|Karakilisa|Karakhs",40.7239,43.8206,Armenia,AM,ARM,Shirak,Shirak,AM-SH,region,,110.7,4838,4838,3,Asia/Yerevan,FALSE,1051289302
Vosketap,Vosketap,Shiraz|Shirazlu,39.8725,44.6544,Armenia,AM,ARM,Ararat,Ararat,AM-AR,region,,218.4,4808,4808,3,Asia/Yerevan,FALSE,1051286781
Dzoragyugh,Dzoragyugh,"Dvoragyukh|Dzoragyukh|Vali Agalu",40.1694,45.1986,Armenia,AM,ARM,Geghark’unik’,Geghark'unik',AM-GR,region,,109.2,4737,4737,3,Asia/Yerevan,FALSE,1051196121
Meghri,Meghri,Megri|Mergi|Mogri|Megry,38.9033,46.2458,Armenia,AM,ARM,Syunik’,Syunik',AM-SU,region,,109.6,4580,4580,3,Asia/Yerevan,FALSE,1051857361
Metsavan,Metsavan,Shakhnazar,41.2017,44.2289,Armenia,AM,ARM,Lorri,Lorri,AM-LO,region,,46.1,4578,4578,3,Asia/Yerevan,FALSE,1051829543
Mkhchyan,Mkhchyan,Imanshalu,40.0200,44.4911,Armenia,AM,ARM,Ararat,Ararat,AM-AR,region,,459.9,4535,4535,3,Asia/Yerevan,FALSE,1051608796
Karakert,Karakert,Karaburun|Karmrashen,40.2403,43.8097,Armenia,AM,ARM,Armavir,Armavir,AM-AV,region,,129.0,4471,4471,3,Asia/Yerevan,FALSE,1051842262
Malishka,Malishka,,39.7369,45.3875,Armenia,AM,ARM,"Vayots’ Dzor","Vayots' Dzor",AM-VD,region,,51.9,4460,4460,3,Asia/Yerevan,FALSE,1051245132
Akunk,Akunk,,40.1618,45.7251,Armenia,AM,ARM,Geghark’unik’,Geghark'unik',AM-GR,region,,98.3,4443,4443,3,Asia/Yerevan,FALSE,1051400034
Akunk,Akunk,Kirkhbulag|Akunk,40.1572,45.7264,Armenia,AM,ARM,Geghark’unik’,Geghark'unik',AM-GR,region,,136.2,4443,4443,4,Asia/Yerevan,TRUE,1051281718
Koghb,Koghb,Kochb|Kokhb,41.1831,44.9728,Armenia,AM,ARM,Tavush,Tavush,AM-TV,region,,82.5,4420,4420,3,Asia/Yerevan,FALSE,1051468390
Byurakan,Byurakan,Biurakan|Burakan|Bjurakan,40.3400,44.2703,Armenia,AM,ARM,Aragatsotn,Aragatsotn,AM-AG,region,,204.3,4345,4345,3,Asia/Yerevan,FALSE,1051580016
"Verin Artashat","Verin Artashat","Ardashar|Artashat|Verkhniy Artashat",40.0006,44.5850,Armenia,AM,ARM,Ararat,Ararat,AM-AR,region,,552.1,4334,4334,3,Asia/Yerevan,FALSE,1051274266
Gugark,Gugark,Meghrut|Megrut|Yagublu,40.8072,44.5381,Armenia,AM,ARM,Lorri,Lorri,AM-LO,region,,155.9,4278,4278,3,Asia/Yerevan,FALSE,1051798696
Vaghashen,Vaghashen,Vagashen|Avdalagalu,40.1350,45.3289,Armenia,AM,ARM,Geghark’unik’,Geghark'unik',AM-GR,region,,157.1,4267,4267,3,Asia/Yerevan,FALSE,1051837383
Achajur,Achajur,Achadzhur|Açacur|Haçasu|Achasu,40.9903,45.1453,Armenia,AM,ARM,Tavush,Tavush,AM-TV,region,,143.0,4258,4258,3,Asia/Yerevan,FALSE,1051467515
Arshaluys,Arshaluys,Kërpalu,40.1689,44.2142,Armenia,AM,ARM,Armavir,Armavir,AM-AV,region,,242.0,4250,4250,3,Asia/Yerevan,FALSE,1051859921
Astghadzor,Astghadzor,Astkhadzor|Alikrykh,40.1239,45.3567,Armenia,AM,ARM,Geghark’unik’,Geghark'unik',AM-GR,region,,192.3,4215,4215,3,Asia/Yerevan,FALSE,1051709747
Voskevaz,Voskevaz,Kiziltamur,40.2758,44.2972,Armenia,AM,ARM,Aragatsotn,Aragatsotn,AM-AG,region,,404.5,4168,4168,3,Asia/Yerevan,FALSE,1051334023
Jermuk,Jermuk,Dzhermuk,39.8417,45.6722,Armenia,AM,ARM,"Vayots’ Dzor","Vayots' Dzor",AM-VD,region,,73.8,4070,4070,3,Asia/Yerevan,FALSE,1051135632
Odzun,Odzun,Dzun|Usuklyar|Uzunlar,41.0539,44.6114,Armenia,AM,ARM,Lorri,Lorri,AM-LO,region,,56.6,4048,4048,3,Asia/Yerevan,FALSE,1051272802
Myasnikyan,Myasnikyan,,40.1775,43.9064,Armenia,AM,ARM,Armavir,Armavir,AM-AV,region,,138.2,4036,4036,3,Asia/Yerevan,FALSE,1051244688
Dalarik,Dalarik,Mastara,40.2183,43.8603,Armenia,AM,ARM,Armavir,Armavir,AM-AV,region,,127.3,3975,3975,3,Asia/Yerevan,FALSE,1051141869
Tsovagyugh,Tsovagyugh,Chibukhly|Chabukhly|Tsovagyukh|Chubukhly|Tzovagyugh|Chubuliki,40.6331,44.9522,Armenia,AM,ARM,Geghark’unik’,Geghark'unik',AM-GR,region,,65.8,3943,3943,3,Asia/Yerevan,FALSE,1051005901
Geghashen,Geghashen,Razdan|Chatkran|Gekhashen,40.2344,44.7269,Armenia,AM,ARM,Kotayk’,Kotayk',AM-KT,region,,91.7,3937,3937,3,Asia/Yerevan,FALSE,1051716347
Aygavan,Aygavan,Reganlu,39.8647,44.6703,Armenia,AM,ARM,Ararat,Ararat,AM-AR,region,,184.4,3914,3914,3,Asia/Yerevan,FALSE,1051401145
Avshar,Avshar,,39.8406,44.6836,Armenia,AM,ARM,Ararat,Ararat,AM-AR,region,,221.5,3877,3877,3,Asia/Yerevan,FALSE,1051404194
Gandzak,Gandzak,Kësamamed|Batikyan,40.3244,45.1150,Armenia,AM,ARM,Geghark’unik’,Geghark'unik',AM-GR,region,,96.0,3815,3815,3,Asia/Yerevan,FALSE,1051600912
Agarak,Agarak,,38.8650,46.1964,Armenia,AM,ARM,Syunik’,Syunik',AM-SU,region,,633.3,3800,3800,3,Asia/Yerevan,FALSE,1051930812
Haghartsin,Haghartsin,Kuybishev|Haghardzin|Dzharkhech|Dzharkhedzh|Kuybyshev,40.7781,44.9625,Armenia,AM,ARM,Tavush,Tavush,AM-TV,region,,82.8,3791,3791,3,Asia/Yerevan,FALSE,1051388314
Karbi,Karbi,,40.3311,44.3764,Armenia,AM,ARM,Aragatsotn,Aragatsotn,AM-AG,region,,195.6,3666,3666,3,Asia/Yerevan,FALSE,1051320999
Gay,Gay,,40.0839,44.3056,Armenia,AM,ARM,Armavir,Armavir,AM-AV,region,,294.8,3594,3594,3,Asia/Yerevan,FALSE,1051642006
Voskehat,Voskehat,Voskeat,40.1414,44.3292,Armenia,AM,ARM,Armavir,Armavir,AM-AV,region,,412.7,3491,3491,3,Asia/Yerevan,FALSE,1051320263
Margahovit,Margahovit,Margaovit|Hamgach’iman|Bozigekh|Gamzachemanskaya|Gamzachiman,40.7381,44.6875,Armenia,AM,ARM,Lorri,Lorri,AM-LO,region,,30.9,3466,3466,3,Asia/Yerevan,FALSE,1051578977
Balahovit,Balahovit,Mehub|Mgub|Balaovit|Mekhub,40.2536,44.6039,Armenia,AM,ARM,Kotayk’,Kotayk',AM-KT,region,,279.7,3435,3435,3,Asia/Yerevan,FALSE,1051407115
Gandzakar,Gandzakar,"Qandzakar|Gandzakar|Verin-Agdan|Agdan|Verkhniy Agdan",40.8400,45.1631,Armenia,AM,ARM,Tavush,Tavush,AM-TV,region,,126.6,3434,3434,3,Asia/Yerevan,FALSE,1051555435
Aramus,Aramus,,40.2511,44.6631,Armenia,AM,ARM,Kotayk’,Kotayk',AM-KT,region,,142.3,3412,3412,3,Asia/Yerevan,FALSE,1051980200
Arteni,Arteni,Bogutlu,40.2983,43.7542,Armenia,AM,ARM,Aragatsotn,Aragatsotn,AM-AG,region,,85.5,3278,3278,3,Asia/Yerevan,FALSE,1051392903
Pemzashen,Pemzashen,Magmudzhuk|Makhmudzhug|Mahmutcuk,40.5933,43.9400,Armenia,AM,ARM,Shirak,Shirak,AM-SH,region,,156.8,3244,3244,3,Asia/Yerevan,FALSE,1051586442
Hovtashat,Hovtashat,Ovtashat,40.1019,44.3428,Armenia,AM,ARM,Ararat,Ararat,AM-AR,region,,181.1,3207,3207,3,Asia/Yerevan,FALSE,1051774590
Panik,Panik,Kyavtarlu,40.6564,43.9364,Armenia,AM,ARM,Shirak,Shirak,AM-SH,region,,170.3,3157,3157,3,Asia/Yerevan,FALSE,1051906031
"Mets Masrik","Mets Masrik","Mazra|Bol’shaya Mazra|Mets-Mazra",40.2186,45.7694,Armenia,AM,ARM,Geghark’unik’,Geghark'unik',AM-GR,region,,90.5,3132,3132,3,Asia/Yerevan,FALSE,1051188065
Taperakan,Taperakan,"Taperakan|Imeni Kirova",39.9186,44.6061,Armenia,AM,ARM,Ararat,Ararat,AM-AR,region,,354.2,3128,3128,3,Asia/Yerevan,FALSE,1051629281
Bambakashat,Bambakashat,"Molla Bayazet",40.1144,44.0122,Armenia,AM,ARM,Armavir,Armavir,AM-AV,region,,303.0,3110,3110,3,Asia/Yerevan,FALSE,1051462442
Aragats,Aragats,Kaznafar,40.4886,44.3544,Armenia,AM,ARM,Aragatsotn,Aragatsotn,AM-AG,region,,107.3,3100,3100,3,Asia/Yerevan,FALSE,1051243013
Jrashen,Jrashen,Vortnav|Vordnav|Vardnav|Dzhrashen,40.7875,44.1972,Armenia,AM,ARM,Lorri,Lorri,AM-LO,region,,63.4,3096,3096,3,Asia/Yerevan,FALSE,1051772951
"P’ok’r Vedi","P'ok'r Vedi","Kichik Vedi|Kyuchuk Vedi|Kechik-Vedi",39.8950,44.6125,Armenia,AM,ARM,Ararat,Ararat,AM-AR,region,,117.8,3091,3091,3,Asia/Yerevan,FALSE,1051813055
Aygehovit,Aygehovit,Uzuntala|Onut|Aygeovit|Ayqeovit,40.9744,45.2519,Armenia,AM,ARM,Tavush,Tavush,AM-TV,region,,144.4,3091,3091,3,Asia/Yerevan,FALSE,1051675136
K’anak’erravan,K'anak'erravan,"Murad Tapa|Kenaker|Kenakeravan|Kanakeravan",40.2472,44.5367,Armenia,AM,ARM,Yerevan,Yerevan,AM-ER,city,,247.0,3071,3071,3,Asia/Yerevan,FALSE,1051463035
"P’ok’r Mant’ash","P'ok'r Mant'ash","Malyy Mantash|Pokr Arkhvali|Pokr Mantash",40.6500,44.0500,Armenia,AM,ARM,Shirak,Shirak,AM-SH,region,,368.2,3040,3040,3,Asia/Yerevan,FALSE,1051281031
Norashen,Norashen,"Verin Kurdkend",40.0042,44.5947,Armenia,AM,ARM,Ararat,Ararat,AM-AR,region,,299.2,3034,3034,3,Asia/Yerevan,FALSE,1051119492
Aygezard,Aygezard,Aygedzor|Dargalu|Anastasavan,39.9458,44.6089,Armenia,AM,ARM,Ararat,Ararat,AM-AR,region,,346.5,2994,2994,3,Asia/Yerevan,FALSE,1051652298
Armavir,Armavir,,40.0897,44.0483,Armenia,AM,ARM,Armavir,Armavir,AM-AV,region,,460.3,2989,2989,3,Asia/Yerevan,TRUE,1051174549
Berdavan,Berdavan,Kalacha,41.2028,45.0033,Armenia,AM,ARM,Tavush,Tavush,AM-TV,region,,81.4,2987,2987,3,Asia/Yerevan,FALSE,1051554961
Jrarrat,Jrarrat,"Verin Karkhun|Dzhrarat|Jrarat|Verkhniy Karkhun|Karkhun",40.0714,44.2631,Armenia,AM,ARM,Armavir,Armavir,AM-AV,region,,296.9,2981,2981,3,Asia/Yerevan,FALSE,1051643555
Sarrnaghbyur,Sarrnaghbyur,Sogyutlu|Sarnaghpyur|Sarnakhpyur,40.5241,43.9099,Armenia,AM,ARM,Shirak,Shirak,AM-SH,region,,51.1,2971,2971,3,Asia/Yerevan,FALSE,1051784247
Janfida,Janfida,Dzhanfida,40.0456,44.0208,Armenia,AM,ARM,Armavir,Armavir,AM-AV,region,,176.4,2963,2963,3,Asia/Yerevan,FALSE,1051543311
Aragats,Aragats,Khznauz,40.2183,44.2328,Armenia,AM,ARM,Armavir,Armavir,AM-AV,region,,321.0,2924,2924,3,Asia/Yerevan,FALSE,1051112661
Lerrnanist,Lerrnanist,"Lernanist|Verin Akhta|Verkhnyaya Akhta",40.4675,44.7981,Armenia,AM,ARM,Kotayk’,Kotayk',AM-KT,region,,62.1,2877,2877,3,Asia/Yerevan,FALSE,1051200397
Marmarashen,Marmarashen,Marmorashen,40.0575,44.4711,Armenia,AM,ARM,Ararat,Ararat,AM-AR,region,,364.8,2871,2871,3,Asia/Yerevan,FALSE,1051149740
Vardadzor,Vardadzor,Adamkhan|Atamkhan,40.1886,45.1936,Armenia,AM,ARM,Geghark’unik’,Geghark'unik',AM-GR,region,,122.4,2864,2864,3,Asia/Yerevan,FALSE,1051065288
Artsvaberd,Artsvaberd,Kirgi,40.8336,45.4711,Armenia,AM,ARM,Tavush,Tavush,AM-TV,region,,97.2,2847,2847,3,Asia/Yerevan,FALSE,1051369014
Aghavnatun,Aghavnatun,Akhavnatun|Agavnatun|Akhavnatukh,40.2333,44.2514,Armenia,AM,ARM,Armavir,Armavir,AM-AV,region,,247.8,2840,2840,3,Asia/Yerevan,FALSE,1051699955
Baghramyan,Baghramyan,Bagramyan,40.1933,44.3686,Armenia,AM,ARM,Armavir,Armavir,AM-AV,region,,261.6,2838,2838,3,Asia/Yerevan,FALSE,1051664990
Artsvanist,Artsvanist,"Alichali|Nerkin Aluchalu|Nizhniy Aluchalu",40.1550,45.5078,Armenia,AM,ARM,Geghark’unik’,Geghark'unik',AM-GR,region,,39.9,2825,2825,3,Asia/Yerevan,FALSE,1051673837
Ddmashen,Ddmashen,Totmashen|Dodmashen,40.5706,44.8183,Armenia,AM,ARM,Geghark’unik’,Geghark'unik',AM-GR,region,,48.2,2806,2806,3,Asia/Yerevan,FALSE,1051906076
Kaghtsrashen,Kaghtsrashen,Kakhtsrashen,39.9667,44.6167,Armenia,AM,ARM,Ararat,Ararat,AM-AR,region,,318.9,2794,2794,3,Asia/Yerevan,FALSE,1051108629
Dvin,Dvin,"Dvin Armyanskiy|Nerkin Dvin|Nizhniy Dvin",40.0200,44.5853,Armenia,AM,ARM,Ararat,Ararat,AM-AR,region,,368.8,2751,2751,3,Asia/Yerevan,FALSE,1051028734
Vostan,Vostan,Bedzhazlu,39.9589,44.5592,Armenia,AM,ARM,Ararat,Ararat,AM-AR,region,,441.1,2739,2739,3,Asia/Yerevan,FALSE,1051937540
Geghanist,Geghanist,Gëygmbet|Getapnia|Gekhanist,40.1497,44.4344,Armenia,AM,ARM,Armavir,Armavir,AM-AV,region,,1793.3,2739,2739,3,Asia/Yerevan,FALSE,1051572750
Norakert,Norakert,,40.1922,44.3467,Armenia,AM,ARM,Armavir,Armavir,AM-AV,region,,206.2,2739,2739,3,Asia/Yerevan,FALSE,1051751590
Darakert,Darakert,,40.1058,44.4139,Armenia,AM,ARM,Ararat,Ararat,AM-AR,region,,607.8,2723,2723,3,Asia/Yerevan,FALSE,1051236184
Tsovasar,Tsovasar,T’azagyugh|Tazagyukh,40.1400,45.1900,Armenia,AM,ARM,Geghark’unik’,Geghark'unik',AM-GR,region,,84.2,2708,2708,3,Asia/Yerevan,FALSE,1051670204
Lusarrat,Lusarrat,Lusarat|Shkhlar|Shikhlar,39.8744,44.5992,Armenia,AM,ARM,Ararat,Ararat,AM-AR,region,,300.2,2699,2699,3,Asia/Yerevan,FALSE,1051107894
Tsakkar,Tsakkar,Dalikdash|Tzakkar,40.1678,45.2172,Armenia,AM,ARM,Geghark’unik’,Geghark'unik',AM-GR,region,,168.8,2692,2692,3,Asia/Yerevan,FALSE,1051650169
Shinuhayr,Shinuhayr,Shinuair|Şinuayr|Shinuayr,39.4342,46.3156,Armenia,AM,ARM,Syunik’,Syunik',AM-SU,region,,87.1,2661,2661,3,Asia/Yerevan,FALSE,1051501060
Musalerr,Musalerr,Musaler,40.1544,44.3778,Armenia,AM,ARM,Armavir,Armavir,AM-AV,region,,769.6,2641,2641,3,Asia/Yerevan,FALSE,1051955625
Haytagh,Haytagh,Aytag|Aytakh,40.1808,44.2297,Armenia,AM,ARM,Armavir,Armavir,AM-AV,region,,201.5,2612,2612,3,Asia/Yerevan,FALSE,1051826587
Dalar,Dalar,Dalular,39.9669,44.5364,Armenia,AM,ARM,Ararat,Ararat,AM-AR,region,,469.5,2594,2594,3,Asia/Yerevan,FALSE,1051265617
Urtsadzor,Urtsadzor,,39.9125,44.8175,Armenia,AM,ARM,Ararat,Ararat,AM-AR,region,,41.3,2587,2587,3,Asia/Yerevan,FALSE,1051662918
Aknalich,Aknalich,Aygerlich,40.1406,44.1606,Armenia,AM,ARM,Armavir,Armavir,AM-AV,region,,224.9,2566,2566,3,Asia/Yerevan,FALSE,1051070564
Geghakert,Geghakert,Samaghar|Samagar|Gekhakert,40.1853,44.2422,Armenia,AM,ARM,Armavir,Armavir,AM-AV,region,,389.7,2564,2564,3,Asia/Yerevan,FALSE,1051401003
Shnogh,Shnogh,Shnokh,41.1478,44.8378,Armenia,AM,ARM,Lorri,Lorri,AM-LO,region,,48.0,2561,2561,3,Asia/Yerevan,FALSE,1051300259
"Mets Mant’ash","Mets Mant'ash","Mets Arikhvali|Mantash|Metz Mantash|Bol’shoy Mantash",40.6494,44.0508,Armenia,AM,ARM,Shirak,Shirak,AM-SH,region,,127.9,2550,2550,3,Asia/Yerevan,FALSE,1051015634
Bjni,Bjni,Bzhni,40.4594,44.6486,Armenia,AM,ARM,Kotayk’,Kotayk',AM-KT,region,,53.9,2547,2547,3,Asia/Yerevan,FALSE,1051161488
Arevashogh,Arevashogh,Arevashokh|Chikdamal|Chigdamal,40.8614,44.2728,Armenia,AM,ARM,Lorri,Lorri,AM-LO,region,,79.4,2515,2515,3,Asia/Yerevan,FALSE,1051790041
Azatamut,Azatamut,"Krivoy Most",40.9758,45.1981,Armenia,AM,ARM,Tavush,Tavush,AM-TV,region,,1789.4,2513,2513,3,Asia/Yerevan,FALSE,1051220833
Khoronk,Khoronk,"Nerkin Aylanlu|Lenugi|Lenughi|Nizhniy Aylanlu",40.1358,44.2444,Armenia,AM,ARM,Armavir,Armavir,AM-AV,region,,352.0,2507,2507,3,Asia/Yerevan,FALSE,1051948120
Arratashen,Arratashen,Artashen,40.1286,44.2275,Armenia,AM,ARM,Armavir,Armavir,AM-AV,region,,259.6,2505,2505,3,Asia/Yerevan,FALSE,1051654538
Vzhan,Vzhan,Udzhan|Ujan,40.2983,44.2047,Armenia,AM,ARM,Aragatsotn,Aragatsotn,AM-AG,region,,125.1,2505,2505,3,Asia/Yerevan,FALSE,1051713774
Argel,Argel,Lusakert|Arkel,40.3794,44.5994,Armenia,AM,ARM,Kotayk’,Kotayk',AM-KT,region,,381.5,2501,2501,3,Asia/Yerevan,FALSE,1051878535
Sasunik,Sasunik,,40.2472,44.3381,Armenia,AM,ARM,Aragatsotn,Aragatsotn,AM-AG,region,,181.2,2455,2455,3,Asia/Yerevan,FALSE,1051740040
Arevshat,Arevshat,"Arpavar|Lusakert|Nerkin Agbash|Nizhniy Agbash",40.0392,44.5417,Armenia,AM,ARM,Ararat,Ararat,AM-AR,region,,1110.9,2444,2444,3,Asia/Yerevan,FALSE,1051878251
Tegh,Tegh,Dyg|Lekh|Tex|Tekh,39.5547,46.4758,Armenia,AM,ARM,Syunik’,Syunik',AM-SU,region,,63.0,2443,2443,3,Asia/Yerevan,FALSE,1051131430
Mastara,Mastara,,40.4481,43.8817,Armenia,AM,ARM,Aragatsotn,Aragatsotn,AM-AG,region,,34.4,2433,2433,3,Asia/Yerevan,FALSE,1051323518
Arevik,Arevik,Agdzharkh,40.1006,44.0969,Armenia,AM,ARM,Armavir,Armavir,AM-AV,region,,96.1,2427,2427,3,Asia/Yerevan,FALSE,1051506110
Ayrum,Ayrum,,41.1950,44.8925,Armenia,AM,ARM,Lorri,Lorri,AM-LO,region,,1846.2,2400,2400,3,Asia/Yerevan,FALSE,1051976102
Aygestan,Aygestan,Ayaslu,40.0025,44.5578,Armenia,AM,ARM,Ararat,Ararat,AM-AR,region,,958.8,2397,2397,3,Asia/Yerevan,FALSE,1051060625
Arzakan,Arzakan,Arzakyand,40.4494,44.6064,Armenia,AM,ARM,Kotayk’,Kotayk',AM-KT,region,,58.1,2390,2390,3,Asia/Yerevan,FALSE,1051979784
Armash,Armash,,39.7667,44.8083,Armenia,AM,ARM,Ararat,Ararat,AM-AR,region,,132.6,2378,2378,3,Asia/Yerevan,FALSE,1051799598
Tairov,Tairov,,40.1614,44.4222,Armenia,AM,ARM,Armavir,Armavir,AM-AV,region,,1067.4,2377,2377,3,Asia/Yerevan,FALSE,1051034660
Vanashen,Vanashen,Taitan|Taytan,39.9000,44.6833,Armenia,AM,ARM,Ararat,Ararat,AM-AR,region,,176.4,2364,2364,3,Asia/Yerevan,FALSE,1051353958
Goravan,Goravan,Yenikend|Gorovan,39.9000,44.7333,Armenia,AM,ARM,Ararat,Ararat,AM-AR,region,,72.7,2340,2340,3,Asia/Yerevan,FALSE,1051761444
Karchaghbyur,Karchaghbyur,Gedakbulag|Karchaghpyur|Karchakhpyur,40.1639,45.5722,Armenia,AM,ARM,Geghark’unik’,Geghark'unik',AM-GR,region,,81.8,2337,2337,3,Asia/Yerevan,FALSE,1051152093
Hatsik,Hatsik,"Imeni Voroshilova|Atsik",40.1642,43.9408,Armenia,AM,ARM,Aragatsotn,Aragatsotn,AM-AG,region,,168.1,2331,2331,3,Asia/Yerevan,FALSE,1051178367
Zartonk,Zartonk,,40.1092,44.1606,Armenia,AM,ARM,Armavir,Armavir,AM-AV,region,,120.6,2321,2321,3,Asia/Yerevan,FALSE,1051886988
Tsovak,Tsovak,"Nerkin Zagalu|Nizhniy Zagalu",40.1828,45.6339,Armenia,AM,ARM,Geghark’unik’,Geghark'unik',AM-GR,region,,145.9,2319,2319,3,Asia/Yerevan,FALSE,1051012771
Ohanavan,Ohanavan,Oganavan,40.3422,44.3864,Armenia,AM,ARM,Aragatsotn,Aragatsotn,AM-AG,region,,126.3,2312,2312,3,Asia/Yerevan,FALSE,1051639527
Meghradzor,Meghradzor,Taycharukh|Megradzor,40.6147,44.6497,Armenia,AM,ARM,Kotayk’,Kotayk',AM-KT,region,,30.7,2309,2309,3,Asia/Yerevan,FALSE,1051737900
Argavand,Argavand,Uzunoba,40.0608,44.0953,Armenia,AM,ARM,Armavir,Armavir,AM-AV,region,,140.1,2301,2301,3,Asia/Yerevan,FALSE,1051482412
"Nor Kyank’","Nor Kyank'","Nor Kyank",39.9003,44.6164,Armenia,AM,ARM,Ararat,Ararat,AM-AR,region,,353.1,2291,2291,3,Asia/Yerevan,FALSE,1051327651
Arzni,Arzni,,40.2964,44.5958,Armenia,AM,ARM,Kotayk’,Kotayk',AM-KT,region,,175.7,2281,2281,3,Asia/Yerevan,FALSE,1051978141
Verishen,Verishen,Verisheni,39.5358,46.3119,Armenia,AM,ARM,Syunik’,Syunik',AM-SU,region,,91.1,2264,2264,3,Asia/Yerevan,FALSE,1051130930
Aralez,Aralez,Aralek,39.9003,44.6533,Armenia,AM,ARM,Ararat,Ararat,AM-AR,region,,170.6,2243,2243,3,Asia/Yerevan,FALSE,1051417054
Solak,Solak,,40.4636,44.7086,Armenia,AM,ARM,Kotayk’,Kotayk',AM-KT,region,,48.8,2240,2240,3,Asia/Yerevan,FALSE,1051587458
Lukashin,Lukashin,"Imeni Mikoyana",40.1758,44.0186,Armenia,AM,ARM,Armavir,Armavir,AM-AV,region,,205.1,2216,2216,3,Asia/Yerevan,FALSE,1051704372
Yeghegnut,Yeghegnut,"Badal|Molla Badal|Yekheknut",40.0903,44.1625,Armenia,AM,ARM,Armavir,Armavir,AM-AV,region,,125.2,2203,2203,3,Asia/Yerevan,FALSE,1051128200
Aygeshat,Aygeshat,Kuzigidan,40.0667,44.0667,Armenia,AM,ARM,Armavir,Armavir,AM-AV,region,,337.0,2200,2200,3,Asia/Yerevan,TRUE,1051031325
Kaghsi,Kaghsi,Kakhsi,40.4806,44.7411,Armenia,AM,ARM,Kotayk’,Kotayk',AM-KT,region,,58.0,2200,2200,3,Asia/Yerevan,FALSE,1051355208
Sevsar,Sevsar,,41.0197,45.1425,Armenia,AM,ARM,Tavush,Tavush,AM-TV,region,,118.2,2193,2193,3,Asia/Yerevan,FALSE,1051548413
Sevkar,Sevkar,Karadash|Sevkar,41.0197,45.1425,Armenia,AM,ARM,Tavush,Tavush,AM-TV,region,,89.0,2193,2193,4,Asia/Yerevan,FALSE,1051537181
Mayakovski,Mayakovski,Shaab|Mayakovskiy,40.2522,44.6383,Armenia,AM,ARM,Kotayk’,Kotayk',AM-KT,region,,147.8,2161,2161,3,Asia/Yerevan,FALSE,1051017861
Norabats,Norabats,Norashen,40.1053,44.4300,Armenia,AM,ARM,Ararat,Ararat,AM-AR,region,,738.0,2155,2155,3,Asia/Yerevan,FALSE,1051823446
Kuchak,Kuchak,Krchak|Alikuchak,40.5253,44.3917,Armenia,AM,ARM,Aragatsotn,Aragatsotn,AM-AG,region,,78.9,2147,2147,3,Asia/Yerevan,FALSE,1051876474
Dsegh,Dsegh,Dsekh|Tumanyan,40.9633,44.6517,Armenia,AM,ARM,Lorri,Lorri,AM-LO,region,,41.8,2137,2137,3,Asia/Yerevan,FALSE,1051794177
Getashen,Getashen,Kalagar|Dzhafarabat,40.0433,43.9447,Armenia,AM,ARM,Armavir,Armavir,AM-AV,region,,104.2,2137,2137,3,Asia/Yerevan,FALSE,1051375417
Ashotsk,Ashotsk,Verin-Gukasyan|Kzyl-Koch|Kyzylkach|Kizilkoch|Ghukasyan|Qizilqach|Kyzyl”-koch”|Gukasyan,41.0375,43.8581,Armenia,AM,ARM,Shirak,Shirak,AM-SH,region,,3.9,2132,2132,3,Asia/Yerevan,FALSE,1051256906
Sarchapet,Sarchapet,,41.1992,44.3853,Armenia,AM,ARM,Lorri,Lorri,AM-LO,region,,55.5,2127,2127,3,Asia/Yerevan,FALSE,1051001648
Gladzor,Gladzor,Ortakend,39.7783,45.3478,Armenia,AM,ARM,"Vayots’ Dzor","Vayots' Dzor",AM-VD,region,,38.8,2126,2126,3,Asia/Yerevan,FALSE,1051317793
Dzoraghbyur,Dzoraghbyur,Tedzhirabad|Dzoraghp’yur|Tedzhrabak|Tedshirabad|Dzhorakhpyur|Dzorakhpyur,40.2050,44.6431,Armenia,AM,ARM,Kotayk’,Kotayk',AM-KT,region,,85.0,2124,2124,3,Asia/Yerevan,FALSE,1051184804
Getahovit,Getahovit,Getaovit|Tala,40.8958,45.1314,Armenia,AM,ARM,Tavush,Tavush,AM-TV,region,,241.4,2123,2123,3,Asia/Yerevan,FALSE,1051278734
Hayanist,Hayanist,Dostlug,40.1197,44.3775,Armenia,AM,ARM,Ararat,Ararat,AM-AR,region,,312.7,2117,2117,3,Asia/Yerevan,FALSE,1051374321
Kurtan,Kurtan,,40.9619,44.5664,Armenia,AM,ARM,Lorri,Lorri,AM-LO,region,,94.0,2117,2117,3,Asia/Yerevan,FALSE,1051463445
Lanjaghbyur,Lanjaghbyur,Kyuzadzhik|Landzhakhpyur,40.2731,45.1444,Armenia,AM,ARM,Geghark’unik’,Geghark'unik',AM-GR,region,,86.0,2115,2115,3,Asia/Yerevan,FALSE,1051596516
Akhtala,Akhtala,"Verin Akhtala|Verkhnyaya Akhtala",41.1667,44.7667,Armenia,AM,ARM,Lorri,Lorri,AM-LO,region,,67.5,2100,2100,3,Asia/Yerevan,FALSE,1051759298
Mrgavet,Mrgavet,,40.0300,44.4800,Armenia,AM,ARM,Ararat,Ararat,AM-AR,region,,515.8,2084,2084,3,Asia/Yerevan,FALSE,1051051123
Kamaris,Kamaris,Gyamrez,40.2358,44.6939,Armenia,AM,ARM,Kotayk’,Kotayk',AM-KT,region,,90.3,2075,2075,3,Asia/Yerevan,FALSE,1051511157
Anushavan,Anushavan,"Parni|Pokr Parni",40.6419,43.9822,Armenia,AM,ARM,Shirak,Shirak,AM-SH,region,,191.1,2070,2070,3,Asia/Yerevan,FALSE,1051105089
Khndzoresk,Khndzoresk,Xndzoresk,39.5122,46.4336,Armenia,AM,ARM,Syunik’,Syunik',AM-SU,region,,30.5,2070,2070,3,Asia/Yerevan,FALSE,1051933720
Noramarg,Noramarg,"Bulagli|Ablkend|Kalinin|Posëlok Imeni Kalinina|Abilkend|Imeni Kalinina|Bulakhly",40.0236,44.4244,Armenia,AM,ARM,Ararat,Ararat,AM-AR,region,,107.8,2069,2069,3,Asia/Yerevan,FALSE,1051337368
Akori,Akori,,41.0922,44.6161,Armenia,AM,ARM,Lorri,Lorri,AM-LO,region,,83.3,2065,2065,3,Asia/Yerevan,FALSE,1051704920
Arbat,Arbat,,40.1369,44.3983,Armenia,AM,ARM,Armavir,Armavir,AM-AV,region,,6.8,2058,2058,3,Asia/Yerevan,FALSE,1051157927
Pshatavan,Pshatavan,Igdalu|Pshatavan,40.0406,44.0675,Armenia,AM,ARM,Armavir,Armavir,AM-AV,region,,226.4,2058,2058,3,Asia/Yerevan,FALSE,1051258045
Araks,Araks,"Nerkin Karkhun|Nizhniy Karkhun",40.0547,44.3028,Armenia,AM,ARM,Armavir,Armavir,AM-AV,region,,123.4,2048,2048,4,Asia/Yerevan,TRUE,1051834489
Aygedzor,Aygedzor,Kulali,40.8256,45.5408,Armenia,AM,ARM,Tavush,Tavush,AM-TV,region,,73.3,2044,2044,3,Asia/Yerevan,FALSE,1051345011
Marmashen,Marmashen,"Kanlidzha|Verin Kanlidzha",40.8375,43.7719,Armenia,AM,ARM,Shirak,Shirak,AM-SH,region,,162.0,2032,2032,3,Asia/Yerevan,FALSE,1051986282
Horrom,Horrom,Orom|Horom,40.6542,43.8822,Armenia,AM,ARM,Shirak,Shirak,AM-SH,region,,70.9,2032,2032,3,Asia/Yerevan,FALSE,1051109243
Ghukasavan,Ghukasavan,Kalara|Gukasavan,40.1261,44.4178,Armenia,AM,ARM,Ararat,Ararat,AM-AR,region,,723.7,2019,2019,3,Asia/Yerevan,FALSE,1051884126
Koti,Koti,,41.1356,45.1250,Armenia,AM,ARM,Tavush,Tavush,AM-TV,region,,84.0,2014,2014,3,Asia/Yerevan,FALSE,1051664605
Koti,Koti,Kotigekh|Shavarshavan|Şavarşevan,41.1356,45.1250,Armenia,AM,ARM,Tavush,Tavush,AM-TV,region,,45.1,2014,2014,4,Asia/Yerevan,TRUE,1051055499
Kasakh,Kasakh,,40.2342,44.4525,Armenia,AM,ARM,Yerevan,Yerevan,AM-ER,city,,1912.0,2003,2003,3,Asia/Yerevan,FALSE,1051383030
Getap,Getap,Ghyotur|Koytur,39.7636,45.3061,Armenia,AM,ARM,"Vayots’ Dzor","Vayots' Dzor",AM-VD,region,,76.1,1981,1981,3,Asia/Yerevan,FALSE,1051865765
Parpi,Parpi,,40.3294,44.3072,Armenia,AM,ARM,Aragatsotn,Aragatsotn,AM-AG,region,,220.9,1970,1970,3,Asia/Yerevan,FALSE,1051387117
Dashtavan,Dashtavan,,40.1017,44.3906,Armenia,AM,ARM,Ararat,Ararat,AM-AR,region,,501.3,1970,1970,3,Asia/Yerevan,FALSE,1051904457
Brrnakot’,Brrnakot',Brnakot,39.4969,45.9731,Armenia,AM,ARM,Syunik’,Syunik',AM-SU,region,,38.0,1960,1960,3,Asia/Yerevan,FALSE,1051215407
Argavand,Argavand,Dzhafarapat,40.1581,44.4400,Armenia,AM,ARM,Yerevan,Yerevan,AM-ER,city,,1954.1,1950,1950,3,Asia/Yerevan,FALSE,1051610105
Shahumyan,Shahumyan,"Shaumyan|Shahumian|Shahumyani Anvan Avazan|Imeni Shaumyana",40.7883,44.5317,Armenia,AM,ARM,Lorri,Lorri,AM-LO,region,,24.3,1934,1934,3,Asia/Yerevan,FALSE,1051737468
Goght,Goght,Gokht,40.1394,44.7794,Armenia,AM,ARM,Kotayk’,Kotayk',AM-KT,region,,155.2,1921,1921,3,Asia/Yerevan,FALSE,1051548136
Tsovazard,Tsovazard,"Gadzhi Mukhan|Mukhan",40.4769,45.0375,Armenia,AM,ARM,Geghark’unik’,Geghark'unik',AM-GR,region,,44.3,1905,1905,3,Asia/Yerevan,FALSE,1051386493
Varser,Varser,Chirchir,40.5544,44.9081,Armenia,AM,ARM,Geghark’unik’,Geghark'unik',AM-GR,region,,49.9,1901,1901,3,Asia/Yerevan,FALSE,1051520623
Taronik,Taronik,,40.1331,44.1992,Armenia,AM,ARM,Armavir,Armavir,AM-AV,region,,187.7,1892,1892,3,Asia/Yerevan,FALSE,1051582889
Aghavnadzor,Aghavnadzor,Akhavnadzor|Agavnadzor|Aynadzor,39.7836,45.2281,Armenia,AM,ARM,"Vayots’ Dzor","Vayots' Dzor",AM-VD,region,,33.5,1890,1890,3,Asia/Yerevan,FALSE,1051840711
Sayat’-Nova,Sayat'-Nova,,40.0742,44.3975,Armenia,AM,ARM,Ararat,Ararat,AM-AR,region,,203.9,1886,1886,3,Asia/Yerevan,FALSE,1051567014
Getazat,Getazat,Agdzhakishlag|Getashen,40.0381,44.5639,Armenia,AM,ARM,Ararat,Ararat,AM-AR,region,,314.5,1882,1882,3,Asia/Yerevan,FALSE,1051247288
Akunk,Akunk,Bashgyukh,40.2692,44.6836,Armenia,AM,ARM,Kotayk’,Kotayk',AM-KT,region,,79.2,1876,1876,3,Asia/Yerevan,FALSE,1051065157
Gyulagarak,Gyulagarak,Gyulabarrak|Gyulagorak,40.9655,44.4702,Armenia,AM,ARM,Lorri,Lorri,AM-LO,region,,97.4,1870,1870,3,Asia/Yerevan,FALSE,1051142938
Burastan,Burastan,Karagamzalu|Tamamlu,39.9833,44.5000,Armenia,AM,ARM,Ararat,Ararat,AM-AR,region,,236.6,1865,1865,3,Asia/Yerevan,FALSE,1051248755
Voskehask,Voskehask,"Molla Musa|Musakan|Voskeask",40.7383,43.7758,Armenia,AM,ARM,Shirak,Shirak,AM-SH,region,,83.6,1864,1864,3,Asia/Yerevan,FALSE,1051252112
Lerrnapat,Lerrnapat,Lernapat|Makarashen|Gadzhikara,40.8200,44.3972,Armenia,AM,ARM,Lorri,Lorri,AM-LO,region,,35.8,1857,1857,4,Asia/Yerevan,FALSE,1051451047
Apaga,Apaga,"Verin Turkmenlu",40.0961,44.2511,Armenia,AM,ARM,Armavir,Armavir,AM-AV,region,,216.3,1853,1853,3,Asia/Yerevan,FALSE,1051964855
Griboyedov,Griboyedov,"Aralykh|Këlanlu Aralykh|Verin Këlanlu",40.1131,44.2717,Armenia,AM,ARM,Armavir,Armavir,AM-AV,region,,246.4,1845,1845,3,Asia/Yerevan,FALSE,1051557748
Jrashen,Jrashen,"Dzhrashen|Nor Dzhrashen",40.0547,44.5133,Armenia,AM,ARM,Yerevan,Yerevan,AM-ER,city,,187.8,1842,1842,4,Asia/Yerevan,TRUE,1051127559
Sisavan,Sisavan,Yengidzha,39.9000,44.6667,Armenia,AM,ARM,Ararat,Ararat,AM-AR,region,,205.7,1841,1841,3,Asia/Yerevan,FALSE,1051784214
"Mets Parni","Mets Parni",Parni|Bekyand,40.8372,44.1092,Armenia,AM,ARM,Lorri,Lorri,AM-LO,region,,27.4,1839,1839,3,Asia/Yerevan,FALSE,1051795931
Hnaberd,Hnaberd,Kyrkhdagirman|Kirkhdagirman|Khnaberd,40.6428,44.1444,Armenia,AM,ARM,Aragatsotn,Aragatsotn,AM-AG,region,,80.7,1836,1836,3,Asia/Yerevan,FALSE,1051055581
Yeraskhahun,Yeraskhahun,Yeraskhaun|Kuru-Araz,40.0722,44.2158,Armenia,AM,ARM,Armavir,Armavir,AM-AV,region,,221.4,1834,1834,3,Asia/Yerevan,FALSE,1051508339
"Verin Dvin","Verin Dvin","Aysori Dvin|Verkhniy Dvin",40.0253,44.5908,Armenia,AM,ARM,Ararat,Ararat,AM-AR,region,,265.4,1831,1831,3,Asia/Yerevan,FALSE,1051017771
Shirakamut,Shirakamut,Nalband,40.8583,44.1614,Armenia,AM,ARM,Lorri,Lorri,AM-LO,region,,51.7,1821,1821,3,Asia/Yerevan,FALSE,1051247648
Arevshat,Arevshat,Yekanlar|Yekan,40.6486,44.0444,Armenia,AM,ARM,Shirak,Shirak,AM-SH,region,,121.3,1809,1809,3,Asia/Yerevan,FALSE,1051885096
Aygeshat,Aygeshat,Gadzhikara,40.2358,44.2867,Armenia,AM,ARM,Armavir,Armavir,AM-AV,region,,361.0,1798,1798,3,Asia/Yerevan,FALSE,1051981316
Ptghunk,Ptghunk,Ptkhunk,40.1644,44.3636,Armenia,AM,ARM,Armavir,Armavir,AM-AV,region,,381.2,1795,1795,3,Asia/Yerevan,FALSE,1051186284
Arrap’i,Arrap'i,Arapi|Odzhakhkuli,40.7797,43.8006,Armenia,AM,ARM,Shirak,Shirak,AM-SH,region,,97.8,1795,1795,3,Asia/Yerevan,FALSE,1051097264
Zorak,Zorak,Zangilar|Donguzyan,40.0925,44.3919,Armenia,AM,ARM,Ararat,Ararat,AM-AR,region,,461.9,1783,1783,3,Asia/Yerevan,FALSE,1051696165
Areni,Areni,Arpa,39.7208,45.1839,Armenia,AM,ARM,"Vayots’ Dzor","Vayots' Dzor",AM-VD,region,,30.6,1772,1772,3,Asia/Yerevan,FALSE,1051679374
Khasht’arrak,Khasht'arrak,Khashtarak|Həştərək,40.9386,45.1797,Armenia,AM,ARM,Tavush,Tavush,AM-TV,region,,88.0,1771,1771,3,Asia/Yerevan,FALSE,1051400610
"Hin Movses","Hin Movses",,40.9209,45.4805,Armenia,AM,ARM,Tavush,Tavush,AM-TV,region,,37.5,1748,1748,4,Asia/Yerevan,FALSE,1051170782
Mosesgegh,Mosesgegh,Mosesgekh|Mosesgex|Mosesqex,40.9064,45.4914,Armenia,AM,ARM,Tavush,Tavush,AM-TV,region,,37.5,1748,1748,3,Asia/Yerevan,FALSE,1051819885
Masis,Masis,,39.9973,44.4939,Armenia,AM,ARM,Ararat,Ararat,AM-AR,region,,385.7,1744,1744,3,Asia/Yerevan,TRUE,1051823636
Norapat,Norapat,,40.1333,44.0167,Armenia,AM,ARM,Armavir,Armavir,AM-AV,region,,2019.1,1738,1738,2,Asia/Yerevan,FALSE,1051043349
Shatin,Shatin,"Hasankand|Hesan Kand|Gasankend|Shatik",39.8333,45.3017,Armenia,AM,ARM,"Vayots’ Dzor","Vayots' Dzor",AM-VD,region,,41.5,1736,1736,3,Asia/Yerevan,FALSE,1051171852
Tandzut,Tandzut,Armutlu,40.0772,44.0886,Armenia,AM,ARM,Armavir,Armavir,AM-AV,region,,213.4,1735,1735,3,Asia/Yerevan,FALSE,1051262597
Nshavan,Nshavan,,40.0264,44.5253,Armenia,AM,ARM,Ararat,Ararat,AM-AR,region,,494.3,1725,1725,3,Asia/Yerevan,FALSE,1051750139
Geghamavan,Geghamavan,Gegamavan|Shagriz,40.5619,44.8875,Armenia,AM,ARM,Geghark’unik’,Geghark'unik',AM-GR,region,,58.4,1721,1721,3,Asia/Yerevan,FALSE,1051798250
Artimet,Artimet,Atarbekyan|Alibeklu,40.1514,44.2664,Armenia,AM,ARM,Armavir,Armavir,AM-AV,region,,269.2,1704,1704,3,Asia/Yerevan,FALSE,1051270053
"Nor Kyank’","Nor Kyank'",Machidli,40.6503,43.9750,Armenia,AM,ARM,Shirak,Shirak,AM-SH,region,,144.9,1701,1701,3,Asia/Yerevan,FALSE,1051702423
Lerrnagog,Lerrnagog,,40.2569,43.9081,Armenia,AM,ARM,Aragatsotn,Aragatsotn,AM-AG,region,,64.6,1700,1700,3,Asia/Yerevan,FALSE,1051142916
Zovaber,Zovaber,Yaydzhi,40.5672,44.7894,Armenia,AM,ARM,Kotayk’,Kotayk',AM-KT,region,,54.5,1683,1683,3,Asia/Yerevan,FALSE,1051000000
Mayisyan,Mayisyan,Maisyan|Ortakilisa|Maisian,40.8531,43.8294,Armenia,AM,ARM,Shirak,Shirak,AM-SH,region,,88.3,1682,1682,3,Asia/Yerevan,FALSE,1051434674
Norashen,Norashen,Kamalkənd|Noraşen,40.8769,45.4594,Armenia,AM,ARM,Tavush,Tavush,AM-TV,region,,123.4,1677,1677,3,Asia/Yerevan,FALSE,1051442822
Darpas,Darpas,Darbas,40.8381,44.4233,Armenia,AM,ARM,Lorri,Lorri,AM-LO,region,,435.1,1664,1664,3,Asia/Yerevan,FALSE,1051744610
Spandaryan,Spandaryan,Kulidzhan,40.6650,44.0189,Armenia,AM,ARM,Shirak,Shirak,AM-SH,region,,180.0,1662,1662,3,Asia/Yerevan,FALSE,1051547318
Gegharkunik,Gegharkunik,Gekharkunik|Bashkend|Gekharkuni,40.2511,45.1481,Armenia,AM,ARM,Geghark’unik’,Geghark'unik',AM-GR,region,,46.2,1654,1654,3,Asia/Yerevan,FALSE,1051813608
Araks,Araks,,40.0931,43.9508,Armenia,AM,ARM,Armavir,Armavir,AM-AV,region,,155.6,1651,1651,3,Asia/Yerevan,FALSE,1051509266
Shahumyan,Shahumyan,"Shaumyan|Molla Dursun|Shahumian",40.2133,44.2967,Armenia,AM,ARM,Armavir,Armavir,AM-AV,region,,310.8,1642,1642,3,Asia/Yerevan,FALSE,1051371627
Mayisyan,Mayisyan,"Imeni Zhdanova|Imeni Beriya|Zhdanov",40.1617,44.0883,Armenia,AM,ARM,Armavir,Armavir,AM-AV,region,,10.9,1642,1642,4,Asia/Yerevan,FALSE,1051586084
Shenavan,Shenavan,Blkher,40.4831,44.3814,Armenia,AM,ARM,Aragatsotn,Aragatsotn,AM-AG,region,,77.6,1638,1638,3,Asia/Yerevan,FALSE,1051023982
Noyakert,Noyakert,Khalisa,39.8167,44.6669,Armenia,AM,ARM,Ararat,Ararat,AM-AR,region,,102.2,1634,1634,3,Asia/Yerevan,FALSE,1051972168
"Verin Karmiraghbyur","Verin Karmiraghbyur","Verin Karmirakhpyur|Verin-Karmiraxpyur|Verkhniy Karmragbyur|Verin Karmiraxpür",40.8842,45.4414,Armenia,AM,ARM,Tavush,Tavush,AM-TV,region,,86.3,1632,1632,3,Asia/Yerevan,FALSE,1051835075
"Nor Armavir","Nor Armavir",,40.0867,43.9900,Armenia,AM,ARM,Armavir,Armavir,AM-AV,region,,226.3,1631,1631,3,Asia/Yerevan,FALSE,1051226479
Aygevan,Aygevan,,40.1667,43.9667,Armenia,AM,ARM,Armavir,Armavir,AM-AV,region,,196.8,1630,1630,4,Asia/Yerevan,FALSE,1051099744
"Nor Yerznka","Nor Yerznka",,40.3133,44.4047,Armenia,AM,ARM,Aragatsotn,Aragatsotn,AM-AG,region,,97.0,1628,1628,3,Asia/Yerevan,FALSE,1051037544
Merdzavan,Merdzavan,Mertsavan,40.1797,44.3997,Armenia,AM,ARM,Armavir,Armavir,AM-AV,region,,888.2,1624,1624,3,Asia/Yerevan,FALSE,1051979993
Ushi,Ushi,,40.3483,44.3731,Armenia,AM,ARM,Aragatsotn,Aragatsotn,AM-AG,region,,139.1,1617,1617,3,Asia/Yerevan,FALSE,1051665583
Aghdzk,Aghdzk,Akhs|Aghts’k’|Dzorap,40.3164,44.2536,Armenia,AM,ARM,Aragatsotn,Aragatsotn,AM-AG,region,,73.7,1614,1614,3,Asia/Yerevan,FALSE,1051433425
Baghramyan,Baghramyan,Bashnalu|Bagramyan|Baghramian,39.9767,44.5194,Armenia,AM,ARM,Ararat,Ararat,AM-AR,region,,293.5,1614,1614,3,Asia/Yerevan,FALSE,1051099993
Tsaghkahovit,Tsaghkahovit,Tzaghkahovit|Gadzhi-Khalil|Tsakhkaovit,40.6361,44.2231,Armenia,AM,ARM,Aragatsotn,Aragatsotn,AM-AG,region,,82.5,1611,1611,3,Asia/Yerevan,FALSE,1051768230
Jrashen,Jrashen,,40.0547,44.5133,Armenia,AM,ARM,Yerevan,Yerevan,AM-ER,city,,216.3,1607,1607,3,Asia/Yerevan,FALSE,1051512843
Mrgavan,Mrgavan,Gedaklu,39.9661,44.5333,Armenia,AM,ARM,Ararat,Ararat,AM-AR,region,,458.9,1606,1606,3,Asia/Yerevan,FALSE,1051890797
Jrarbi,Jrarbi,,40.0917,44.2333,Armenia,AM,ARM,Armavir,Armavir,AM-AV,region,,283.0,1600,1600,3,Asia/Yerevan,FALSE,1051555334
Tumanyan,Tumanyan,Tumanian|Dzagidzor,40.9867,44.6558,Armenia,AM,ARM,Lorri,Lorri,AM-LO,region,,166.9,1600,1600,3,Asia/Yerevan,FALSE,1051002314
Ptghni,Ptghni,Ptykhni|Ptkhni|Ptgni,40.2567,44.5850,Armenia,AM,ARM,Kotayk’,Kotayk',AM-KT,region,,256.4,1595,1595,3,Asia/Yerevan,FALSE,1051337149
Angeghakot,Angeghakot,Angelaut|Angekhakot,39.5681,45.9439,Armenia,AM,ARM,Syunik’,Syunik',AM-SU,region,,34.5,1582,1582,3,Asia/Yerevan,FALSE,1051439057
Khanjyan,Khanjyan,,40.1667,44.0333,Armenia,AM,ARM,Armavir,Armavir,AM-AV,region,,195.1,1580,1580,3,Asia/Yerevan,FALSE,1051885284
Getapnya,Getapnya,Getapnia,40.1406,44.4325,Armenia,AM,ARM,Armavir,Armavir,AM-AV,region,,2306.0,1571,1571,2,Asia/Yerevan,FALSE,1051596520
Aknashen,Aknashen,"Khatunarkh|Verkhniy Khatunarkh|Verin Khatunarkh",40.0958,44.2861,Armenia,AM,ARM,Armavir,Armavir,AM-AV,region,,307.1,1569,1569,3,Asia/Yerevan,FALSE,1051887881
Alashkert,Alashkert,Kyarimarkh|Sovetakan,40.1133,44.0553,Armenia,AM,ARM,Armavir,Armavir,AM-AV,region,,333.7,1569,1569,3,Asia/Yerevan,FALSE,1051153043
Berkanush,Berkanush,Ogurbeklu|Berkanush,39.9833,44.5167,Armenia,AM,ARM,Ararat,Ararat,AM-AR,region,,414.3,1568,1568,3,Asia/Yerevan,FALSE,1051367955
Arevik,Arevik,Tapadolag|Tapadolak,40.7361,43.8928,Armenia,AM,ARM,Shirak,Shirak,AM-SH,region,,81.7,1566,1566,3,Asia/Yerevan,FALSE,1051191286
Agarak,Agarak,,40.3025,44.2789,Armenia,AM,ARM,Aragatsotn,Aragatsotn,AM-AG,region,,272.5,1564,1564,3,Asia/Yerevan,FALSE,1051915073
Chochkan,Chochkan,,41.1861,44.8314,Armenia,AM,ARM,Lorri,Lorri,AM-LO,region,,62.2,1559,1559,3,Asia/Yerevan,FALSE,1051882609
Kotayk,Kotayk,Yelgovan,40.2750,44.6606,Armenia,AM,ARM,Kotayk’,Kotayk',AM-KT,region,,77.7,1558,1558,3,Asia/Yerevan,FALSE,1051724330
Buzhakan,Buzhakan,Babakishi,40.4553,44.5206,Armenia,AM,ARM,Kotayk’,Kotayk',AM-KT,region,,39.0,1546,1546,3,Asia/Yerevan,FALSE,1051417280
Katnajur,Katnajur,Karal|Katnadzhur,40.8250,44.1414,Armenia,AM,ARM,Lorri,Lorri,AM-LO,region,,54.0,1536,1536,3,Asia/Yerevan,FALSE,1051767064
Harrich,Harrich,Arich|Kipchag,40.5981,44.0075,Armenia,AM,ARM,Shirak,Shirak,AM-SH,region,,130.9,1535,1535,3,Asia/Yerevan,FALSE,1051528967
Amasia,Amasia,Amasiya|Gukasyan,40.9467,43.7814,Armenia,AM,ARM,Shirak,Shirak,AM-SH,region,,37.5,1532,1532,3,Asia/Yerevan,FALSE,1051795610
Arevashat,Arevashat,Varmaziar|Arevashet,40.1417,44.3708,Armenia,AM,ARM,Armavir,Armavir,AM-AV,region,,2694.5,1524,1524,2,Asia/Yerevan,FALSE,1051497270
Haykavan,Haykavan,Aykavan|Tapadibi,40.0833,44.0500,Armenia,AM,ARM,Armavir,Armavir,AM-AV,region,,359.7,1508,1508,3,Asia/Yerevan,FALSE,1051927888
Gargarr,Gargarr,"Herher|Gerger|Dyarrgyarr|Gergeri|Armyanskiy Gerger|Garrgarr|Gerger Russkiy|Gargarr",40.9569,44.4428,Armenia,AM,ARM,Lorri,Lorri,AM-LO,region,,101.4,1478,1478,3,Asia/Yerevan,FALSE,1051579542
Lenughi,Lenughi,,40.1239,43.9653,Armenia,AM,ARM,Armavir,Armavir,AM-AV,region,,183.3,1470,1470,3,Asia/Yerevan,FALSE,1051234635
Parravak’ar,Parravak'ar,Paravaker|Paravakar,40.9806,45.3992,Armenia,AM,ARM,Tavush,Tavush,AM-TV,region,,36.1,1464,1464,3,Asia/Yerevan,FALSE,1051088363
Vahramaberd,Vahramaberd,"Nerkin Kanlidzha|Vagramaberd",40.8500,43.7500,Armenia,AM,ARM,Shirak,Shirak,AM-SH,region,,131.8,1455,1455,3,Asia/Yerevan,FALSE,1051676603
Tavush,Tavush,Tovuz|T’ovuz|Tovuz,40.9144,45.4011,Armenia,AM,ARM,Tavush,Tavush,AM-TV,region,,43.8,1454,1454,3,Asia/Yerevan,FALSE,1051373686
Lusakunk,Lusakunk,"Lusakunk (Sovetakert)",40.1667,45.6833,Armenia,AM,ARM,Geghark’unik’,Geghark'unik',AM-GR,region,,95.0,1440,1440,3,Asia/Yerevan,FALSE,1051992257
Shatjrek,Shatjrek,Koshabulag|Shatjrek|Koshabulakh|Qoşabulaq,40.1639,45.8033,Armenia,AM,ARM,Geghark’unik’,Geghark'unik',AM-GR,region,,45.9,1440,1440,3,Asia/Yerevan,FALSE,1051955125
Meghrashen,Meghrashen,Kazanchi|Megrashen,40.6758,43.9486,Armenia,AM,ARM,Shirak,Shirak,AM-SH,region,,98.0,1435,1435,3,Asia/Yerevan,FALSE,1051634330
Aygek,Aygek,,40.1886,44.3833,Armenia,AM,ARM,Armavir,Armavir,AM-AV,region,,336.4,1433,1433,3,Asia/Yerevan,FALSE,1051871478
Shenavan,Shenavan,Kyalagarkh,40.0500,43.9333,Armenia,AM,ARM,Armavir,Armavir,AM-AV,region,,143.2,1423,1423,3,Asia/Yerevan,FALSE,1051233895
Yeghegnavan,Yeghegnavan,Shidlu,39.8278,44.6372,Armenia,AM,ARM,Ararat,Ararat,AM-AR,region,,76.7,1420,1420,3,Asia/Yerevan,FALSE,1051932825
"Nerk’in Bazmaberd","Nerk'in Bazmaberd","Agdzhakala|Nerkin Agdzhakala|Nizhnyaya Agdzhakala",40.3453,44.0556,Armenia,AM,ARM,Aragatsotn,Aragatsotn,AM-AG,region,,45.9,1417,1417,3,Asia/Yerevan,FALSE,1051516779
Rranch’par,Rranch'par,Ranchpar,40.0253,44.3703,Armenia,AM,ARM,Ararat,Ararat,AM-AR,region,,132.2,1413,1413,3,Asia/Yerevan,FALSE,1051434768
Lerrnakert,Lerrnakert,Shirvan|Shirvandzhug|Lernakert,40.5669,43.9361,Armenia,AM,ARM,Shirak,Shirak,AM-SH,region,,69.3,1412,1412,3,Asia/Yerevan,FALSE,1051137395
Abovyan,Abovyan,"Agbash|Verin Agbash|Verkhniy Agbash",40.0489,44.5475,Armenia,AM,ARM,Ararat,Ararat,AM-AR,region,,251.3,1402,1402,3,Asia/Yerevan,FALSE,1051900317
Rrind,Rrind,Rind,39.7597,45.1800,Armenia,AM,ARM,"Vayots’ Dzor","Vayots' Dzor",AM-VD,region,,34.1,1397,1397,3,Asia/Yerevan,FALSE,1051204325
Basen,Basen,"Musayelyan|Mets Kyapanak",40.7653,43.9908,Armenia,AM,ARM,Shirak,Shirak,AM-SH,region,,32.3,1393,1393,3,Asia/Yerevan,FALSE,1051156127
Dimitrov,Dimitrov,,40.0081,44.4881,Armenia,AM,ARM,Ararat,Ararat,AM-AR,region,,399.7,1391,1391,3,Asia/Yerevan,FALSE,1051789258
Lanjazat,Lanjazat,Landzhazat|Lendzhazat,40.0614,44.5778,Armenia,AM,ARM,Ararat,Ararat,AM-AR,region,,74.5,1388,1388,3,Asia/Yerevan,FALSE,1051222455
Zarrit’ap’,Zarrit'ap',Pashaghu|Zaritap|Azizbekov|Pashalu,39.6372,45.5086,Armenia,AM,ARM,"Vayots’ Dzor","Vayots' Dzor",AM-VD,region,,16.2,1380,1380,3,Asia/Yerevan,FALSE,1051770760
Gagarin,Gagarin,,40.5369,44.8578,Armenia,AM,ARM,Geghark’unik’,Geghark'unik',AM-GR,region,,50.3,1379,1379,4,Asia/Yerevan,FALSE,1051135667
Karahunj,Karahunj,Qaraunc|Karaundzh,39.4792,46.3589,Armenia,AM,ARM,Syunik’,Syunik',AM-SU,region,,71.2,1365,1365,3,Asia/Yerevan,FALSE,1051739136
Araks,Araks,,40.0547,44.3028,Armenia,AM,ARM,Yerevan,Yerevan,AM-ER,city,,109.6,1364,1364,3,Asia/Yerevan,FALSE,1051516863
Lerrnavan,Lerrnavan,Kachagan|Lernavan,40.7883,44.1844,Armenia,AM,ARM,Lorri,Lorri,AM-LO,region,,49.8,1363,1363,3,Asia/Yerevan,FALSE,1051676019
Arazap,Arazap,Evdzhilar|Arazap,40.0428,44.1458,Armenia,AM,ARM,Armavir,Armavir,AM-AV,region,,102.9,1362,1362,3,Asia/Yerevan,FALSE,1051178620
Saramej,Saramej,Chotur|Saramech,40.7725,44.2192,Armenia,AM,ARM,Lorri,Lorri,AM-LO,region,,56.6,1344,1344,3,Asia/Yerevan,FALSE,1051264131
Teghut,Teghut,,40.7778,44.9350,Armenia,AM,ARM,Tavush,Tavush,AM-TV,region,,81.6,1342,1342,3,Asia/Yerevan,FALSE,1051232958
Kamo,Kamo,"Gadzhi Nazar",40.8281,43.9483,Armenia,AM,ARM,Shirak,Shirak,AM-SH,region,,48.4,1340,1340,3,Asia/Yerevan,FALSE,1051656230
Doghs,Doghs,Dokhs,40.2228,44.2717,Armenia,AM,ARM,Armavir,Armavir,AM-AV,region,,350.5,1339,1339,3,Asia/Yerevan,FALSE,1051522588
Zarr,Zarr,,40.2611,44.7361,Armenia,AM,ARM,Kotayk’,Kotayk',AM-KT,region,,54.9,1337,1337,3,Asia/Yerevan,FALSE,1051587022
Bardzrashen,Bardzrashen,Bardzrashen|Bartsrashen,40.0853,44.5786,Armenia,AM,ARM,Ararat,Ararat,AM-AR,region,,72.1,1335,1335,3,Asia/Yerevan,FALSE,1051809719
Nizami,Nizami,,40.0914,44.4042,Armenia,AM,ARM,Ararat,Ararat,AM-AR,region,,480.8,1327,1327,3,Asia/Yerevan,FALSE,1051888336
Fioletovo,Fioletovo,Nikitino,40.7247,44.7139,Armenia,AM,ARM,Lorri,Lorri,AM-LO,region,,38.5,1325,1325,3,Asia/Yerevan,FALSE,1051429136
Saratak,Saratak,Imrkhan,40.6700,43.8664,Armenia,AM,ARM,Shirak,Shirak,AM-SH,region,,145.7,1321,1321,3,Asia/Yerevan,FALSE,1051170401
Yerazgavors,Yerazgavors,,40.7000,43.7667,Armenia,AM,ARM,Shirak,Shirak,AM-SH,region,,134.9,1309,1309,3,Asia/Yerevan,FALSE,1051037431
Dzithankov,Dzithankov,Bazirkhana|Dzitkhankov|Dzitankov,40.5156,43.8133,Armenia,AM,ARM,Shirak,Shirak,AM-SH,region,,28.3,1308,1308,3,Asia/Yerevan,FALSE,1051948390
Lerrnhovit,Lerrnhovit,Lernovit|Lernhovit|Sisavan|Karakilisa,41.1703,44.3100,Armenia,AM,ARM,Lorri,Lorri,AM-LO,region,,29.5,1302,1302,3,Asia/Yerevan,FALSE,1051752884
Agarakadzor,Agarakadzor,Ayar,39.7364,45.3456,Armenia,AM,ARM,"Vayots’ Dzor","Vayots' Dzor",AM-VD,region,,16.3,1301,1301,3,Asia/Yerevan,FALSE,1051904617
Aygepat,Aygepat,"Dargalu Verkhniy|Masumlu|Verkhniy Dargalu",39.9500,44.6000,Armenia,AM,ARM,Ararat,Ararat,AM-AR,region,,149.0,1287,1287,3,Asia/Yerevan,FALSE,1051931661
Tsaghkalanj,Tsaghkalanj,Tsakhkaladzh|Agdzhakala,40.2000,44.2275,Armenia,AM,ARM,Armavir,Armavir,AM-AV,region,,220.8,1283,1283,3,Asia/Yerevan,FALSE,1051780739
Katnaghbyur,Katnaghbyur,Katnaghpyur|Katnakhpyur|Megriban,40.3772,43.9383,Armenia,AM,ARM,Aragatsotn,Aragatsotn,AM-AG,region,,68.2,1274,1274,3,Asia/Yerevan,FALSE,1051347196
"Nor Kesaria","Nor Kesaria",,40.0667,43.9000,Armenia,AM,ARM,Armavir,Armavir,AM-AV,region,,122.9,1269,1269,3,Asia/Yerevan,FALSE,1051056729
Voskevan,Voskevan,Koshkotan,41.1192,45.0653,Armenia,AM,ARM,Tavush,Tavush,AM-TV,region,,58.4,1256,1256,3,Asia/Yerevan,FALSE,1051730200
Margara,Margara,Markara,40.0336,44.1739,Armenia,AM,ARM,Armavir,Armavir,AM-AV,region,,102.0,1256,1256,3,Asia/Yerevan,FALSE,1051191613
Vardablur,Vardablur,Verdablur,40.9708,44.5089,Armenia,AM,ARM,Lorri,Lorri,AM-LO,region,,92.3,1245,1245,3,Asia/Yerevan,FALSE,1051367653
Akhurik,Akhurik,"Karakilisa Turki",40.7500,43.7833,Armenia,AM,ARM,Shirak,Shirak,AM-SH,region,,103.6,1243,1243,3,Asia/Yerevan,FALSE,1051253222
Zoravan,Zoravan,Kargavank|Pokravan,40.3569,44.5231,Armenia,AM,ARM,Kotayk’,Kotayk',AM-KT,region,,42.1,1241,1241,3,Asia/Yerevan,FALSE,1051325548
Aghavnadzor,Aghavnadzor,Babakishi|Agavnadzor|Akhavnadzor,40.5842,44.6914,Armenia,AM,ARM,Kotayk’,Kotayk',AM-KT,region,,58.7,1232,1232,3,Asia/Yerevan,FALSE,1051945627
Geghanist,Geghanist,Geghadir|Gekhadir|Gekhanist|Golgat,40.6847,44.0239,Armenia,AM,ARM,Shirak,Shirak,AM-SH,region,,100.3,1229,1229,3,Asia/Yerevan,FALSE,1051209580
Sarigyugh,Sarigyugh,Srygekh|Srigekh|Sarigyukh|Sarıgüh,41.0564,45.1458,Armenia,AM,ARM,Tavush,Tavush,AM-TV,region,,85.8,1226,1226,3,Asia/Yerevan,FALSE,1051788917
"Nor Artagers","Nor Artagers",,40.0689,44.0056,Armenia,AM,ARM,Armavir,Armavir,AM-AV,region,,182.0,1224,1224,3,Asia/Yerevan,FALSE,1051300508
Geghadzor,Geghadzor,"Gezaldara|Gekhadzor|Verkhnyaya Gezaldara",40.6328,44.1731,Armenia,AM,ARM,Aragatsotn,Aragatsotn,AM-AG,region,,9.1,1223,1223,3,Asia/Yerevan,FALSE,1051253009
Lerrnagyugh,Lerrnagyugh,Chorlu|Chorlit|Lernantsk,40.9500,43.9167,Armenia,AM,ARM,Shirak,Shirak,AM-SH,region,,1.3,1221,1221,3,Asia/Yerevan,FALSE,1051524805
Artashar,Artashar,,40.1092,44.1811,Armenia,AM,ARM,Armavir,Armavir,AM-AV,region,,166.8,1218,1218,3,Asia/Yerevan,FALSE,1051707951
Darbnik,Darbnik,"Demurchi|Malyye Demurchi|Pokr Shorlu Demurchi",40.1069,44.3764,Armenia,AM,ARM,Ararat,Ararat,AM-AR,region,,332.6,1214,1214,3,Asia/Yerevan,FALSE,1051958663
Sarahart,Sarahart,Gyullidzha|Saraart,40.8739,44.2100,Armenia,AM,ARM,Lorri,Lorri,AM-LO,region,,45.4,1211,1211,3,Asia/Yerevan,FALSE,1051863238
Kaputan,Kaputan,Gëykilisa,40.3244,44.6939,Armenia,AM,ARM,Kotayk’,Kotayk',AM-KT,region,,37.2,1210,1210,3,Asia/Yerevan,FALSE,1051502905
Yelpin,Yelpin,Elpin,39.8058,45.1103,Armenia,AM,ARM,"Vayots’ Dzor","Vayots' Dzor",AM-VD,region,,22.4,1209,1209,3,Asia/Yerevan,FALSE,1051395556
Sis,Sis,"Uliya Sarvanlar|Sarvanlar",40.0586,44.3864,Armenia,AM,ARM,Ararat,Ararat,AM-AR,region,,193.7,1201,1201,3,Asia/Yerevan,FALSE,1051086540
Norashen,Norashen,Bogdanovka,41.1881,44.3272,Armenia,AM,ARM,Lorri,Lorri,AM-LO,region,,45.8,1201,1201,3,Asia/Yerevan,FALSE,1051148532
Tsaghkadzor,Tsaghkadzor,Darachichag|Tsakhkadzor,40.5314,44.7250,Armenia,AM,ARM,Kotayk’,Kotayk',AM-KT,region,,300.0,1200,1200,3,Asia/Yerevan,FALSE,1051447737
Shaki,Shaki,,39.5642,45.9975,Armenia,AM,ARM,Syunik’,Syunik',AM-SU,region,,19.7,1197,1197,3,Asia/Yerevan,FALSE,1051530383
Shaki,Shaki,Shaki,39.5642,45.9975,Armenia,AM,ARM,Syunik’,Syunik',AM-SU,region,,19.7,1197,1197,4,Asia/Yerevan,TRUE,1051120087
Tsaghkaber,Tsaghkaber,Tsakhkashen|Avdibek|Tzaghkaber|Tsakhkaber,40.7986,44.1072,Armenia,AM,ARM,Lorri,Lorri,AM-LO,region,,24.0,1195,1195,3,Asia/Yerevan,FALSE,1051690756
Byuravan,Byuravan,"Bambakavan|Verin Kuylasar|Verkhniy Kuylasar",40.0161,44.5186,Armenia,AM,ARM,Ararat,Ararat,AM-AR,region,,425.7,1191,1191,3,Asia/Yerevan,FALSE,1051075458
Mrgashen,Mrgashen,,40.2850,44.5422,Armenia,AM,ARM,Kotayk’,Kotayk',AM-KT,region,,108.6,1191,1191,3,Asia/Yerevan,FALSE,1051210651
Saralanj,Saralanj,Bashgyukh|Saralandzh,40.6253,44.0203,Armenia,AM,ARM,Shirak,Shirak,AM-SH,region,,75.4,1181,1181,3,Asia/Yerevan,FALSE,1051582931
Metsamor,Metsamor,Kamarlu,40.0714,44.2892,Armenia,AM,ARM,Armavir,Armavir,AM-AV,region,,327.6,1174,1174,3,Asia/Yerevan,TRUE,1051885533
Haghtanak,Haghtanak,Akhtanak,41.2239,44.9378,Armenia,AM,ARM,Tavush,Tavush,AM-TV,region,,53.3,1161,1161,3,Asia/Yerevan,FALSE,1051886288
Jrarrat,Jrarrat,Chrakhli|Dzhrarat|Jrarat,40.7461,44.0883,Armenia,AM,ARM,Lorri,Lorri,AM-LO,region,,23.5,1156,1156,3,Asia/Yerevan,FALSE,1051312117
Agarak,Agarak,,41.0106,44.4675,Armenia,AM,ARM,Lorri,Lorri,AM-LO,region,,59.8,1155,1155,3,Asia/Yerevan,FALSE,1051602926
Shirak,Shirak,Kunakhkran|Konakhkran,40.8481,43.9214,Armenia,AM,ARM,Shirak,Shirak,AM-SH,region,,66.2,1153,1153,3,Asia/Yerevan,FALSE,1051641326
Arpi,Arpi,Arpa,39.7392,45.2617,Armenia,AM,ARM,"Vayots’ Dzor","Vayots' Dzor",AM-VD,region,,87.3,1149,1149,3,Asia/Yerevan,FALSE,1051909580
Tsaghkunk,Tsaghkunk,"Verin Aylanlu|Tsakhkunk|Verkhnyaya Aylanlu",40.1794,44.2700,Armenia,AM,ARM,Armavir,Armavir,AM-AV,region,,291.4,1144,1144,3,Asia/Yerevan,FALSE,1051962041
Geghamasar,Geghamasar,Gukarrich|Shishkaya|Şişqaya,40.3106,45.6792,Armenia,AM,ARM,Geghark’unik’,Geghark'unik',AM-GR,region,,44.0,1132,1132,3,Asia/Yerevan,FALSE,1051411335
Vahan,Vahan,Ordzhonikidze|Orconikidze,40.5756,45.3989,Armenia,AM,ARM,Geghark’unik’,Geghark'unik',AM-GR,region,,41.5,1127,1127,3,Asia/Yerevan,FALSE,1051771008
Archis,Archis,,41.1642,44.8725,Armenia,AM,ARM,Tavush,Tavush,AM-TV,region,,82.0,1125,1125,3,Asia/Yerevan,FALSE,1051627138
Bazum,Bazum,Bzovdal,40.8681,44.4456,Armenia,AM,ARM,Lorri,Lorri,AM-LO,region,,31.7,1116,1116,3,Asia/Yerevan,FALSE,1051051812
Gosh,Gosh,,40.7292,44.9972,Armenia,AM,ARM,Tavush,Tavush,AM-TV,region,,47.9,1115,1115,3,Asia/Yerevan,FALSE,1051241009
Haykashen,Haykashen,Aykashen,40.0728,44.3069,Armenia,AM,ARM,Armavir,Armavir,AM-AV,region,,194.5,1115,1115,3,Asia/Yerevan,FALSE,1051394600
Vernashen,Vernashen,Bashkend,39.7939,45.3633,Armenia,AM,ARM,"Vayots’ Dzor","Vayots' Dzor",AM-VD,region,,18.0,1113,1113,3,Asia/Yerevan,FALSE,1051863904
Madina,Madina,,40.0803,45.2511,Armenia,AM,ARM,Geghark’unik’,Geghark'unik',AM-GR,region,,157.7,1111,1111,3,Asia/Yerevan,FALSE,1051811264
Haykavan,Haykavan,Aykavan|Badzhogli,40.7558,43.7700,Armenia,AM,ARM,Shirak,Shirak,AM-SH,region,,61.7,1107,1107,3,Asia/Yerevan,FALSE,1051938525
Vanand,Vanand,,40.1333,43.8167,Armenia,AM,ARM,Armavir,Armavir,AM-AV,region,,34.7,1102,1102,3,Asia/Yerevan,FALSE,1051329755
"Nor Kyurin","Nor Kyurin",,40.0906,44.4639,Armenia,AM,ARM,Ararat,Ararat,AM-AR,region,,298.4,1101,1101,3,Asia/Yerevan,FALSE,1051855708
Mrganush,Mrganush,Zograblu,40.0286,44.5586,Armenia,AM,ARM,Ararat,Ararat,AM-AR,region,,418.6,1101,1101,3,Asia/Yerevan,FALSE,1051072467
Korrnidzor,Korrnidzor,Kornidzor,39.5481,46.5311,Armenia,AM,ARM,Syunik’,Syunik',AM-SU,region,,45.5,1100,1100,3,Asia/Yerevan,FALSE,1051636363
Jrahovit,Jrahovit,Dzhraovit|Dzhabachalu,40.0453,44.4736,Armenia,AM,ARM,Ararat,Ararat,AM-AR,region,,285.9,1072,1072,3,Asia/Yerevan,FALSE,1051415954
Vahagni,Vahagni,Shagali|Vaagni,40.9081,44.6069,Armenia,AM,ARM,Lorri,Lorri,AM-LO,region,,30.3,1070,1070,3,Asia/Yerevan,FALSE,1051742590
Navur,Navur,,40.8614,45.3175,Armenia,AM,ARM,Tavush,Tavush,AM-TV,region,,66.0,1065,1065,3,Asia/Yerevan,FALSE,1051971869
Gogaran,Gogaran,Gëran,40.8956,44.1992,Armenia,AM,ARM,Lorri,Lorri,AM-LO,region,,24.5,1065,1065,3,Asia/Yerevan,FALSE,1051709628
Khachaghbyur,Khachaghbyur,,40.1722,45.6886,Armenia,AM,ARM,Geghark’unik’,Geghark'unik',AM-GR,region,,93.8,1064,1064,3,Asia/Yerevan,FALSE,1051752828
Khachaghbyur,Khachaghbyur,Chakhrlu|Khachagbyur|Sovetakert|Chakhyrlu,40.1722,45.6886,Armenia,AM,ARM,Geghark’unik’,Geghark'unik',AM-GR,region,,60.3,1064,1064,4,Asia/Yerevan,TRUE,1051533818
Tsiatsan,Tsiatsan,Grampa,40.1869,44.2667,Armenia,AM,ARM,Armavir,Armavir,AM-AV,region,,307.9,1056,1056,3,Asia/Yerevan,FALSE,1051992353
Gharibjanyan,Gharibjanyan,Gharibjanian|Aleksandrovka|Karibdzhanyan|Garibdzhanyan,40.7461,43.7969,Armenia,AM,ARM,Shirak,Shirak,AM-SH,region,,125.2,1055,1055,3,Asia/Yerevan,FALSE,1051563147
Baghramyan,Baghramyan,,40.1908,43.8494,Armenia,AM,ARM,Armavir,Armavir,AM-AV,region,,42.1,1053,1053,4,Asia/Yerevan,TRUE,1051533068
Norashen,Norashen,,40.6581,44.0725,Armenia,AM,ARM,Aragatsotn,Aragatsotn,AM-AG,region,,61.9,1046,1046,3,Asia/Yerevan,FALSE,1051606882
Hovtamej,Hovtamej,Ovtamech|Mugan,40.1836,44.2572,Armenia,AM,ARM,Armavir,Armavir,AM-AV,region,,341.6,1044,1044,3,Asia/Yerevan,FALSE,1051185854
Zangakatun,Zangakatun,"Chanakhchi|Sovetashen|Nizhniye Chanakhchi",39.8094,45.0511,Armenia,AM,ARM,Ararat,Ararat,AM-AR,region,,20.9,1042,1042,3,Asia/Yerevan,FALSE,1051491591
Nahapetavan,Nahapetavan,Paros|Khachakilisa|Nagapetavan,40.6000,44.0167,Armenia,AM,ARM,Shirak,Shirak,AM-SH,region,,157.1,1040,1040,3,Asia/Yerevan,FALSE,1051361867
Hartagyugh,Hartagyugh,Kaltakhchi|Artagyukh,40.8356,44.0467,Armenia,AM,ARM,Lorri,Lorri,AM-LO,region,,35.0,1035,1035,3,Asia/Yerevan,FALSE,1051346460
Hovtashen,Hovtashen,Ovtashen,40.0244,44.4500,Armenia,AM,ARM,Ararat,Ararat,AM-AR,region,,253.4,1034,1034,3,Asia/Yerevan,FALSE,1051066987
Sverdlov,Sverdlov,Aydarbek,41.0972,44.4008,Armenia,AM,ARM,Lorri,Lorri,AM-LO,region,,0.4,1033,1033,3,Asia/Yerevan,FALSE,1051381985
Ashnak,Ashnak,,40.3275,43.9167,Armenia,AM,ARM,Aragatsotn,Aragatsotn,AM-AG,region,,40.1,1031,1031,3,Asia/Yerevan,FALSE,1051989869
Kanachut,Kanachut,Dokhkuz,40.0089,44.5444,Armenia,AM,ARM,Ararat,Ararat,AM-AR,region,,383.6,1028,1028,3,Asia/Yerevan,FALSE,1051758176
Deghdzut,Deghdzut,Deghtsut|Dekhtsut,40.0264,44.5489,Armenia,AM,ARM,Ararat,Ararat,AM-AR,region,,390.5,1027,1027,3,Asia/Yerevan,FALSE,1051003006
Arevabuyr,Arevabuyr,,40.0361,44.4689,Armenia,AM,ARM,Ararat,Ararat,AM-AR,region,,382.5,1026,1026,3,Asia/Yerevan,FALSE,1051663894
Urrut,Urrut,Urut,41.0711,44.3969,Armenia,AM,ARM,Lorri,Lorri,AM-LO,region,,29.2,1020,1020,3,Asia/Yerevan,FALSE,1051216502
Norakert,Norakert,,40.2669,45.6833,Armenia,AM,ARM,Geghark’unik’,Geghark'unik',AM-GR,region,,50.4,1015,1015,3,Asia/Yerevan,FALSE,1051649888
Aragatsotn,Aragatsotn,Aragatzotn,40.2583,44.1828,Armenia,AM,ARM,Aragatsotn,Aragatsotn,AM-AG,region,,52.6,1015,1015,3,Asia/Yerevan,FALSE,1051702499
Aruch,Aruch,Arum,40.2875,44.0783,Armenia,AM,ARM,Aragatsotn,Aragatsotn,AM-AG,region,,44.8,1014,1014,3,Asia/Yerevan,FALSE,1051167194
Lusagyugh,Lusagyugh,"Lusagyukh|Lusagekh|Nerk’in Turkmenlu",40.0889,44.2700,Armenia,AM,ARM,Armavir,Armavir,AM-AV,region,,350.3,1007,1007,3,Asia/Yerevan,FALSE,1051462897
Narek,Narek,,40.0167,44.6167,Armenia,AM,ARM,Ararat,Ararat,AM-AR,region,,57.3,1001,1001,3,Asia/Yerevan,FALSE,1051017220
Melikgyugh,Melikgyugh,Melikgyukh|Melikkend,40.6694,44.3575,Armenia,AM,ARM,Aragatsotn,Aragatsotn,AM-AG,region,,34.5,999,999,3,Asia/Yerevan,FALSE,1051904911
Khnatsakh,Khnatsakh,Xnatsax,39.6036,46.3928,Armenia,AM,ARM,Syunik’,Syunik',AM-SU,region,,33.9,998,998,3,Asia/Yerevan,FALSE,1051867463
Aragyugh,Aragyugh,Aragyukh|Karadzhoran,40.4025,44.5436,Armenia,AM,ARM,Kotayk’,Kotayk',AM-KT,region,,37.3,994,994,3,Asia/Yerevan,FALSE,1051023981
Keti,Keti,"Nizhniye Keti|Mets Keti",40.8842,43.8489,Armenia,AM,ARM,Shirak,Shirak,AM-SH,region,,42.2,993,993,3,Asia/Yerevan,FALSE,1051001242
Arjut,Arjut,Archut,40.8631,44.3822,Armenia,AM,ARM,Lorri,Lorri,AM-LO,region,,36.7,990,990,3,Asia/Yerevan,FALSE,1051822800
Azatavan,Azatavan,Chikdamlu|Chigdamlu,39.9833,44.5000,Armenia,AM,ARM,Ararat,Ararat,AM-AR,region,,179.8,989,989,3,Asia/Yerevan,FALSE,1051159481
Artabuynk,Artabuynk,Erdapin|Yeghegis,39.8650,45.3256,Armenia,AM,ARM,"Vayots’ Dzor","Vayots' Dzor",AM-VD,region,,11.8,984,984,3,Asia/Yerevan,FALSE,1051928038
Lchap,Lchap,Lehap|Agzibir,40.4611,45.0650,Armenia,AM,ARM,Geghark’unik’,Geghark'unik',AM-GR,region,,42.4,982,982,3,Asia/Yerevan,FALSE,1051061228
Kakavadzor,Kakavadzor,Yeshil|Kak’avadzor,40.3436,44.0119,Armenia,AM,ARM,Aragatsotn,Aragatsotn,AM-AG,region,,74.5,981,981,3,Asia/Yerevan,FALSE,1051723362
Shenik,Shenik,,40.2000,43.7667,Armenia,AM,ARM,Armavir,Armavir,AM-AV,region,,20.4,975,975,3,Asia/Yerevan,FALSE,1051305577
Voskehat,Voskehat,Voskeat|Patrindzh|Patridzh,40.2764,44.2744,Armenia,AM,ARM,Aragatsotn,Aragatsotn,AM-AG,region,,323.6,974,974,3,Asia/Yerevan,FALSE,1051901497
Shaghat,Shaghat,Shagat,39.5617,45.9122,Armenia,AM,ARM,Syunik’,Syunik',AM-SU,region,,20.1,969,969,3,Asia/Yerevan,FALSE,1051499272
Mrgastan,Mrgastan,Gadzhilar,40.2008,44.2772,Armenia,AM,ARM,Armavir,Armavir,AM-AV,region,,314.0,957,957,3,Asia/Yerevan,FALSE,1051434910
Dzorakap,Dzorakap,Bogazkyasan,40.5667,43.8667,Armenia,AM,ARM,Shirak,Shirak,AM-SH,region,,59.8,948,948,3,Asia/Yerevan,FALSE,1051717668
Kechut,Kechut,Kushchi|Kush-Bilyak,39.7994,45.6625,Armenia,AM,ARM,"Vayots’ Dzor","Vayots' Dzor",AM-VD,region,,74.0,944,944,4,Asia/Yerevan,FALSE,1051592270
Khot,Khot,Khotavan|Khovt|Xot,39.4400,46.3361,Armenia,AM,ARM,Syunik’,Syunik',AM-SU,region,,52.4,942,942,3,Asia/Yerevan,FALSE,1051370399
Ttujur,Ttujur,Ttudzhur|Qoturbulaq|Ttucur|Tudzhur|Tytudzhur|Tucur,40.6472,45.3111,Armenia,AM,ARM,Geghark’unik’,Geghark'unik',AM-GR,region,,41.4,942,942,3,Asia/Yerevan,FALSE,1051956015
Hatsik,Hatsik,Toparli|Topar|Atsik,40.8475,43.8742,Armenia,AM,ARM,Shirak,Shirak,AM-SH,region,,72.0,937,937,3,Asia/Yerevan,FALSE,1051354481
Gusanagyugh,Gusanagyugh,Gusanagyukh|Kapuli,40.6692,43.7883,Armenia,AM,ARM,Shirak,Shirak,AM-SH,region,,34.7,937,937,3,Asia/Yerevan,FALSE,1051631147
Karaberd,Karaberd,Dashkala,40.5436,43.8278,Armenia,AM,ARM,Shirak,Shirak,AM-SH,region,,29.0,931,931,3,Asia/Yerevan,FALSE,1051809914
Hartavan,Hartavan,Karakilisa|Artavan,40.4781,44.4006,Armenia,AM,ARM,Aragatsotn,Aragatsotn,AM-AG,region,,73.6,930,930,3,Asia/Yerevan,FALSE,1051724510
Fantan,Fantan,Fontan,40.3942,44.6850,Armenia,AM,ARM,Kotayk’,Kotayk',AM-KT,region,,34.3,930,930,3,Asia/Yerevan,FALSE,1051652994
Lusaghbyur,Lusaghbyur,Agbulakh|Agbulag|Lusakhpyur,40.8653,44.0306,Armenia,AM,ARM,Shirak,Shirak,AM-SH,region,,26.0,917,917,3,Asia/Yerevan,FALSE,1051447040
Geghasar,Geghasar,Tapan|Tapanli,40.8492,44.1839,Armenia,AM,ARM,Lorri,Lorri,AM-LO,region,,91.2,916,916,3,Asia/Yerevan,FALSE,1051962989
Shaghap,Shaghap,Shagaplu|Shagab|Shaghap|Shagap’,39.8667,44.9000,Armenia,AM,ARM,Ararat,Ararat,AM-AR,region,,14.2,913,913,3,Asia/Yerevan,FALSE,1051308167
Lermontovo,Lermontovo,Lermontov|Voskresenovka,40.7650,44.6300,Armenia,AM,ARM,Lorri,Lorri,AM-LO,region,,33.0,912,912,3,Asia/Yerevan,FALSE,1051793620
Aygut,Aygut,Gëlkend|Gölkənd,40.6844,45.1736,Armenia,AM,ARM,Geghark’unik’,Geghark'unik',AM-GR,region,,10.2,911,911,3,Asia/Yerevan,FALSE,1051843303
Drakhtik,Drakhtik,Tokhludzha,40.5650,45.2378,Armenia,AM,ARM,Geghark’unik’,Geghark'unik',AM-GR,region,,16.2,909,909,3,Asia/Yerevan,FALSE,1051228326
"Nerk’in Sasunashen","Nerk'in Sasunashen","Karakoymaz|Nizhniy Karakoymaz|Nerkin Karakoymaz",40.3564,43.9919,Armenia,AM,ARM,Aragatsotn,Aragatsotn,AM-AG,region,,78.7,904,904,3,Asia/Yerevan,FALSE,1051026802
"Nerk’in Karmiraghbyur","Nerk'in Karmiraghbyur","Nerkin Karmirakhpyur|Nerki-Karmirakhpyur|Nerkin Kamiraxpyur|Nerkin Karmiraghpyur|Nizhniy Karmragbyur|Gergin Karmiraxpür|Nerkin Karmiraxpür",40.9481,45.4331,Armenia,AM,ARM,Tavush,Tavush,AM-TV,region,,27.2,904,904,3,Asia/Yerevan,FALSE,1051041695
Tsaghkunk,Tsaghkunk,Tsakhkunk|Tzaghkunk,40.5831,44.8694,Armenia,AM,ARM,Geghark’unik’,Geghark'unik',AM-GR,region,,20.6,901,901,3,Asia/Yerevan,FALSE,1051521668
Zovk,Zovk,Kyulludzha,40.2061,44.6936,Armenia,AM,ARM,Kotayk’,Kotayk',AM-KT,region,,37.8,901,901,3,Asia/Yerevan,FALSE,1051132135
Choratan,Choratan,,40.8611,45.4800,Armenia,AM,ARM,Tavush,Tavush,AM-TV,region,,29.7,898,898,3,Asia/Yerevan,FALSE,1051753132
Choratan,Choratan,Choratan|Çoratan,40.8611,45.4800,Armenia,AM,ARM,Tavush,Tavush,AM-TV,region,,29.6,898,898,4,Asia/Yerevan,TRUE,1051785267
Vardenut,Vardenut,Shirakala,40.4706,44.3653,Armenia,AM,ARM,Aragatsotn,Aragatsotn,AM-AG,region,,48.1,895,895,3,Asia/Yerevan,FALSE,1051584115
Yeghegnut,Yeghegnut,Yegegnut|Kamyshkut|Yekhegnut|Yekheknut,40.9042,44.6325,Armenia,AM,ARM,Lorri,Lorri,AM-LO,region,,72.8,893,893,3,Asia/Yerevan,FALSE,1051137816
"Verin Ptghni","Verin Ptghni","Kerin Ptghni",40.2703,44.6011,Armenia,AM,ARM,Kotayk’,Kotayk',AM-KT,region,,346.2,893,893,3,Asia/Yerevan,FALSE,1051833425
Baghanis,Baghanis,Baganis,41.1167,45.0667,Armenia,AM,ARM,Tavush,Tavush,AM-TV,region,,70.9,893,893,3,Asia/Yerevan,FALSE,1051379127
Zorakan,Zorakan,"Kerpilu|Verin Kerpilu|Yukhary-Kerpilu",41.2167,44.9333,Armenia,AM,ARM,Tavush,Tavush,AM-TV,region,,33.4,891,891,3,Asia/Yerevan,FALSE,1051151334
Bazmaghbyur,Bazmaghbyur,Bazmaghbiar|Bazmakhpyur|Takiya,40.3353,44.3139,Armenia,AM,ARM,Aragatsotn,Aragatsotn,AM-AG,region,,97.0,888,888,3,Asia/Yerevan,FALSE,1051245750
Chinari,Chinari,Chinari|Çinari,40.8497,45.5719,Armenia,AM,ARM,Tavush,Tavush,AM-TV,region,,111.1,887,887,3,Asia/Yerevan,FALSE,1051589647
Tsaghkavan,Tsaghkavan,Tzaghkavan|Veligekh|Veli|Tsakhkavan|Tsaxkavan|Saxkavan,40.9419,45.3311,Armenia,AM,ARM,Tavush,Tavush,AM-TV,region,,12.7,887,887,3,Asia/Yerevan,FALSE,1051214729
Agarakavan,Agarakavan,Agarak,40.3333,44.0667,Armenia,AM,ARM,Aragatsotn,Aragatsotn,AM-AG,region,,153.5,881,881,3,Asia/Yerevan,FALSE,1051063998
Kat’narrat,Kat'narrat,"Lorplemsovkhoz|Loriyskiy Sovkhoz|Katnarat",41.0883,44.1794,Armenia,AM,ARM,Lorri,Lorri,AM-LO,region,,15.9,880,880,3,Asia/Yerevan,FALSE,1051223833
Harzhis,Harzhis,Harzhis|Arzhis|Hardzis|Garzhis,39.4333,46.2217,Armenia,AM,ARM,Syunik’,Syunik',AM-SU,region,,26.0,879,879,3,Asia/Yerevan,FALSE,1051436943
Lerrnadzor,Lerrnadzor,Kyurdikend|Lernadzor,39.1572,46.1997,Armenia,AM,ARM,Syunik’,Syunik',AM-SU,region,,2.3,866,866,3,Asia/Yerevan,FALSE,1051417543
Tatev,Tatev,Taten|Tatev,39.3817,46.2400,Armenia,AM,ARM,Syunik’,Syunik',AM-SU,region,,13.1,864,864,3,Asia/Yerevan,FALSE,1051158207
Hayrenyats,Hayrenyats,Songyur|Ayrenyats|Songyurlu,40.6328,43.8706,Armenia,AM,ARM,Shirak,Shirak,AM-SH,region,,66.3,856,856,3,Asia/Yerevan,FALSE,1051267086
Hushakert,Hushakert,,40.0811,43.9264,Armenia,AM,ARM,Armavir,Armavir,AM-AV,region,,104.7,855,855,3,Asia/Yerevan,FALSE,1051711749
Lanjik,Lanjik,Landzhik|Muslugli,40.5094,43.8564,Armenia,AM,ARM,Shirak,Shirak,AM-SH,region,,44.8,853,853,3,Asia/Yerevan,FALSE,1051754460
Karrnut,Karrnut,Karnut|Diraklar|Dirak,40.7836,43.9542,Armenia,AM,ARM,Shirak,Shirak,AM-SH,region,,37.1,851,851,3,Asia/Yerevan,FALSE,1051900536
Amasia,Amasia,Amasiya,40.0833,43.9667,Armenia,AM,ARM,Armavir,Armavir,AM-AV,region,,212.5,850,850,3,Asia/Yerevan,FALSE,1051326132
"Nor Artamet","Nor Artamet","Nor Artanet",40.2989,44.5542,Armenia,AM,ARM,Kotayk’,Kotayk',AM-KT,region,,232.1,844,844,3,Asia/Yerevan,FALSE,1051049773
"Mets Sepasar","Mets Sepasar","Shishtapa|Bol’shaya Shishtapa|Mets Shishtapa",41.0492,43.8233,Armenia,AM,ARM,Shirak,Shirak,AM-SH,region,,33.5,841,841,3,Asia/Yerevan,FALSE,1051821753
Voghjaberd,Voghjaberd,Vokhchaberd|Oghjaberd,40.1664,44.6483,Armenia,AM,ARM,Kotayk’,Kotayk',AM-KT,region,,67.8,838,838,3,Asia/Yerevan,FALSE,1051778348
Lejan,Lejan,Ledzhan,41.0303,44.4419,Armenia,AM,ARM,Lorri,Lorri,AM-LO,region,,40.0,837,837,3,Asia/Yerevan,FALSE,1051630215
Kaps,Kaps,,40.8667,43.7167,Armenia,AM,ARM,Shirak,Shirak,AM-SH,region,,86.4,834,834,3,Asia/Yerevan,FALSE,1051866618
Ptghavan,Ptghavan,Pkhtavan,41.2167,44.9167,Armenia,AM,ARM,Tavush,Tavush,AM-TV,region,,83.1,831,831,3,Asia/Yerevan,FALSE,1051291358
Jajurr,Jajurr,Jajur|Dzhadzhur,40.8506,43.9481,Armenia,AM,ARM,Shirak,Shirak,AM-SH,region,,29.2,830,830,3,Asia/Yerevan,FALSE,1051554304
Gndevaz,Gndevaz,,39.7592,45.6181,Armenia,AM,ARM,"Vayots’ Dzor","Vayots' Dzor",AM-VD,region,,17.1,829,829,3,Asia/Yerevan,FALSE,1051574463
Isahakyan,Isahakyan,Isaakyan|Isahakian|Kazarapat|Khazarapat,40.6167,43.7253,Armenia,AM,ARM,Shirak,Shirak,AM-SH,region,,35.7,824,824,3,Asia/Yerevan,FALSE,1051539898
Vardanashen,Vardanashen,Chibukhchi,40.0517,44.1906,Armenia,AM,ARM,Armavir,Armavir,AM-AV,region,,86.5,824,824,3,Asia/Yerevan,FALSE,1051943102
Sotk,Sotk,Sodk’|Zod|Zod,40.2031,45.8647,Armenia,AM,ARM,Geghark’unik’,Geghark'unik',AM-GR,region,,20.1,824,824,3,Asia/Yerevan,FALSE,1051061369
Tatul,Tatul,Areg|Pirmalak,40.3892,43.8142,Armenia,AM,ARM,Aragatsotn,Aragatsotn,AM-AG,region,,25.2,822,822,3,Asia/Yerevan,FALSE,1051209023
Arevatsag,Arevatsag,Kachagan,40.9739,44.6106,Armenia,AM,ARM,Lorri,Lorri,AM-LO,region,,64.0,821,821,3,Asia/Yerevan,FALSE,1051178476
Debet,Debet,Khachigyukh|Debed,40.9175,44.6492,Armenia,AM,ARM,Lorri,Lorri,AM-LO,region,,61.9,821,821,3,Asia/Yerevan,FALSE,1051388995
Yeghipatrush,Yeghipatrush,Tamdzhirlu|Mravyan|Mrravyan,40.5386,44.4744,Armenia,AM,ARM,Aragatsotn,Aragatsotn,AM-AG,region,,33.5,819,819,3,Asia/Yerevan,FALSE,1051540423
Voskepar,Voskepar,Akhsibara|Aksibara,41.0647,45.0575,Armenia,AM,ARM,Tavush,Tavush,AM-TV,region,,70.7,818,818,3,Asia/Yerevan,FALSE,1051132924
Garrni,Garrni,"Bash Gyarni|Garni",40.1194,44.7231,Armenia,AM,ARM,Kotayk’,Kotayk',AM-KT,region,,24.2,809,809,3,Asia/Yerevan,FALSE,1051275333
Privolnoye,Privolnoye,,41.1461,44.4425,Armenia,AM,ARM,Lorri,Lorri,AM-LO,region,,0.1,805,805,3,Asia/Yerevan,FALSE,1051481051
Getap,Getap,Kasmali|Getapi,40.6500,44.0000,Armenia,AM,ARM,Shirak,Shirak,AM-SH,region,,110.1,797,797,3,Asia/Yerevan,FALSE,1051621038
"Davit’ Bek","Davit' Bek","Zeyva|David-Bek|Ashaya-Zeyva|Ashaga Zeyva|David Bəy",39.3181,46.4953,Armenia,AM,ARM,Syunik’,Syunik',AM-SU,region,,46.4,796,796,3,Asia/Yerevan,FALSE,1051280706
Berk’arrat,Berk'arrat,Akhula|Berkarat,40.6814,44.1689,Armenia,AM,ARM,Lorri,Lorri,AM-LO,region,,43.6,795,795,3,Asia/Yerevan,FALSE,1051930808
Bagravan,Bagravan,Bugdashen,40.4803,43.6708,Armenia,AM,ARM,Shirak,Shirak,AM-SH,region,,13.0,792,792,4,Asia/Yerevan,FALSE,1051630644
Syunik,Syunik,Siznak|Syznak|Siznak,39.2036,46.4681,Armenia,AM,ARM,Syunik’,Syunik',AM-SU,region,,41.5,791,791,3,Asia/Yerevan,FALSE,1051633390
Mughni,Mughni,Mugni,40.3156,44.3717,Armenia,AM,ARM,Aragatsotn,Aragatsotn,AM-AG,region,,420.0,781,781,3,Asia/Yerevan,FALSE,1051058411
Dasht,Dasht,,40.2281,44.3011,Armenia,AM,ARM,Armavir,Armavir,AM-AV,region,,225.1,780,780,3,Asia/Yerevan,FALSE,1051203185
Jrapi,Jrapi,"Chirpili|Dzhrapi|Nerkin Dzhrapi",40.5569,43.6828,Armenia,AM,ARM,Shirak,Shirak,AM-SH,region,,23.4,776,776,3,Asia/Yerevan,FALSE,1051019628
Berdik,Berdik,"Akhund Bzovan|Bzovan",40.0000,44.5667,Armenia,AM,ARM,Ararat,Ararat,AM-AR,region,,322.0,776,776,3,Asia/Yerevan,FALSE,1051700894
Katnaghbyur,Katnaghbyur,Katnagbyur|Katnakhpyur|Katnaghpyur|Koturbulag,41.0375,44.2203,Armenia,AM,ARM,Lorri,Lorri,AM-LO,region,,21.6,767,767,3,Asia/Yerevan,FALSE,1051944575
Vazashen,Vazashen,Laligokh|Laligekh|Laligyukh|Vazaşen|Laligüh,40.9922,45.2842,Armenia,AM,ARM,Tavush,Tavush,AM-TV,region,,39.4,765,765,3,Asia/Yerevan,FALSE,1051789613
"Nor Ughi","Nor Ughi","Nor Ugi",39.9256,44.6364,Armenia,AM,ARM,Ararat,Ararat,AM-AR,region,,260.6,761,761,3,Asia/Yerevan,FALSE,1051220654
Jrashen,Jrashen,Dzhrashen,40.0833,44.0167,Armenia,AM,ARM,Armavir,Armavir,AM-AV,region,,261.3,760,760,3,Asia/Yerevan,FALSE,1051934559
Artanish,Artanish,,40.4972,45.3644,Armenia,AM,ARM,Geghark’unik’,Geghark'unik',AM-GR,region,,17.7,756,756,3,Asia/Yerevan,FALSE,1051213061
Lusakert,Lusakert,Talibogly|Talib,40.6667,43.8667,Armenia,AM,ARM,Shirak,Shirak,AM-SH,region,,120.1,754,754,3,Asia/Yerevan,FALSE,1051031290
Getargel,Getargel,,40.2425,44.5961,Armenia,AM,ARM,Kotayk’,Kotayk',AM-KT,region,,1127.5,748,748,3,Asia/Yerevan,FALSE,1051269135
Karaglukh,Karaglukh,,39.8956,45.2689,Armenia,AM,ARM,"Vayots’ Dzor","Vayots' Dzor",AM-VD,region,,29.5,743,743,3,Asia/Yerevan,FALSE,1051814411
Byurakn,Byurakn,,40.8686,43.7072,Armenia,AM,ARM,Shirak,Shirak,AM-SH,region,,17.2,739,739,3,Asia/Yerevan,FALSE,1051715346
Geghadir,Geghadir,Kyarpichlu|Gekhadir,40.1564,44.6511,Armenia,AM,ARM,Kotayk’,Kotayk',AM-KT,region,,59.9,738,738,3,Asia/Yerevan,FALSE,1051837783
Hobardzi,Hobardzi,Oparts|Opartsy|Opartsi,40.9603,44.4942,Armenia,AM,ARM,Lorri,Lorri,AM-LO,region,,93.4,736,736,3,Asia/Yerevan,FALSE,1051345342
Ditak,Ditak,,40.0453,44.5186,Armenia,AM,ARM,Ararat,Ararat,AM-AR,region,,303.9,734,734,3,Asia/Yerevan,FALSE,1051074801
Azatashen,Azatashen,,40.1350,44.4150,Armenia,AM,ARM,Ararat,Ararat,AM-AR,region,,1211.1,732,732,3,Asia/Yerevan,FALSE,1051873776
Araksavan,Araksavan,,40.0011,44.4700,Armenia,AM,ARM,Ararat,Ararat,AM-AR,region,,271.1,732,732,3,Asia/Yerevan,FALSE,1051519851
Beniamin,Beniamin,Chlokhan,40.6833,43.8500,Armenia,AM,ARM,Shirak,Shirak,AM-SH,region,,76.4,724,724,3,Asia/Yerevan,FALSE,1051936553
Dzorashen,Dzorashen,"Alikulik’yand|Last|Alighulashen|Alighuli Ashaghy|Artashe|Aigedzor|Azatashen-Alighuli|Këru|At’ghunk’|Dzoraşen|Hart’ashen|Artashen",39.4858,46.4197,Armenia,AM,ARM,Syunik’,Syunik',AM-SU,region,,23.1,717,717,3,Asia/Yerevan,FALSE,1051232273
Avan,Avan,,40.3353,44.1683,Armenia,AM,ARM,Aragatsotn,Aragatsotn,AM-AG,region,,23.8,715,715,3,Asia/Yerevan,FALSE,1051465409
Mikhayelovka,Mikhayelovka,Mikhaylovka,41.1653,44.2775,Armenia,AM,ARM,Lorri,Lorri,AM-LO,region,,26.4,713,713,3,Asia/Yerevan,FALSE,1051327576
Irind,Irind,,40.3833,43.9833,Armenia,AM,ARM,Aragatsotn,Aragatsotn,AM-AG,region,,53.8,712,712,3,Asia/Yerevan,FALSE,1051232574
Lusagyugh,Lusagyugh,Karanlug|Lusagyukh,40.6088,44.3822,Armenia,AM,ARM,Aragatsotn,Aragatsotn,AM-AG,region,,42.9,710,710,3,Asia/Yerevan,FALSE,1051107164
"Karmir Gyukh","Karmir Gyukh",Kulali|Gyukh|Karmir|Karmirgyugh,40.3306,45.1839,Armenia,AM,ARM,Geghark’unik’,Geghark'unik',AM-GR,region,,141.8,709,709,3,Asia/Yerevan,FALSE,1051008108
Vardakar,Vardakar,Vardakar|Tomartash,40.6667,43.9167,Armenia,AM,ARM,Shirak,Shirak,AM-SH,region,,77.7,709,709,3,Asia/Yerevan,FALSE,1051909507
Herher,Herher,Gerger|Gerger,39.7733,45.5386,Armenia,AM,ARM,"Vayots’ Dzor","Vayots' Dzor",AM-VD,region,,12.9,706,706,3,Asia/Yerevan,FALSE,1051207612
Davtashen,Davtashen,Aynali|Davdashen,40.3667,43.9667,Armenia,AM,ARM,Aragatsotn,Aragatsotn,AM-AG,region,,64.5,704,704,3,Asia/Yerevan,FALSE,1051968216
Aygabats,Aygabats,Aygabats|Ilkhiabi,40.7000,43.9000,Armenia,AM,ARM,Shirak,Shirak,AM-SH,region,,31.0,701,701,3,Asia/Yerevan,FALSE,1051078539
Vardenis,Vardenis,Gyullidzha,40.5717,44.4028,Armenia,AM,ARM,Aragatsotn,Aragatsotn,AM-AG,region,,48.8,700,700,3,Asia/Yerevan,FALSE,1051725694
Shamlugh,Shamlugh,Shamlug,41.1681,44.7075,Armenia,AM,ARM,Lorri,Lorri,AM-LO,region,,194.4,700,700,3,Asia/Yerevan,FALSE,1051161298
Getamej,Getamej,Ketran|Getamech,40.2750,44.5850,Armenia,AM,ARM,Kotayk’,Kotayk',AM-KT,region,,125.4,698,698,3,Asia/Yerevan,FALSE,1051814683
Chiva,Chiva,,39.7672,45.1408,Armenia,AM,ARM,"Vayots’ Dzor","Vayots' Dzor",AM-VD,region,,24.4,698,698,3,Asia/Yerevan,FALSE,1051729266
Shirakavan,Shirakavan,Tavshankishlag,40.6592,43.7386,Armenia,AM,ARM,Shirak,Shirak,AM-SH,region,,37.3,698,698,3,Asia/Yerevan,FALSE,1051608629
Yervandashat,Yervandashat,Kherbeklu,40.1147,43.6708,Armenia,AM,ARM,Armavir,Armavir,AM-AV,region,,13.6,695,695,3,Asia/Yerevan,FALSE,1051830112
Teghut,Teghut,Tekhut,41.1181,44.8458,Armenia,AM,ARM,Lorri,Lorri,AM-LO,region,,65.7,684,684,3,Asia/Yerevan,FALSE,1051794914
Hayravank,Hayravank,Ayravank’|Ayrivan,40.4344,45.0969,Armenia,AM,ARM,Geghark’unik’,Geghark'unik',AM-GR,region,,36.9,680,680,3,Asia/Yerevan,FALSE,1051250713
Lusadzor,Lusadzor,Karanlukhdara|Khavaradzor,40.9333,45.1333,Armenia,AM,ARM,Tavush,Tavush,AM-TV,region,,87.7,671,671,3,Asia/Yerevan,FALSE,1051897506
Debetavan,Debetavan,Lalvar,41.2333,44.8500,Armenia,AM,ARM,Tavush,Tavush,AM-TV,region,,102.5,669,669,3,Asia/Yerevan,FALSE,1051765878
Haghpat,Haghpat,Akhpat|Hakhpat,41.0950,44.7103,Armenia,AM,ARM,Lorri,Lorri,AM-LO,region,,34.4,668,668,3,Asia/Yerevan,FALSE,1051602275
Karenis,Karenis,Gyumush|Glamuzh,40.3917,44.6072,Armenia,AM,ARM,Kotayk’,Kotayk',AM-KT,region,,59.8,663,663,3,Asia/Yerevan,FALSE,1051159932
Tsaghkashen,Tsaghkashen,Takyarlu|Tsakhkashen,40.5081,44.3497,Armenia,AM,ARM,Aragatsotn,Aragatsotn,AM-AG,region,,66.7,644,644,3,Asia/Yerevan,FALSE,1051848907
Karinj,Karinj,Karindzh,40.9733,44.6886,Armenia,AM,ARM,Lorri,Lorri,AM-LO,region,,23.4,643,643,3,Asia/Yerevan,FALSE,1051417552
Yeraskh,Yeraskh,Yeraskhavan,39.7414,44.8289,Armenia,AM,ARM,Ararat,Ararat,AM-AR,region,,36.0,635,635,3,Asia/Yerevan,FALSE,1051266386
Bayandur,Bayandur,,40.7008,43.7731,Armenia,AM,ARM,Shirak,Shirak,AM-SH,region,,52.8,634,634,3,Asia/Yerevan,FALSE,1051629376
Karmrashen,Karmrashen,Kirmizlu,40.4361,43.9453,Armenia,AM,ARM,Aragatsotn,Aragatsotn,AM-AG,region,,38.5,632,632,3,Asia/Yerevan,FALSE,1051448334
"Nor Khach’akap","Nor Khach'akap",Saral,40.8425,44.3625,Armenia,AM,ARM,Lorri,Lorri,AM-LO,region,,17.0,631,631,3,Asia/Yerevan,FALSE,1051071725
Varagavan,Varagavan,Akhum|Varaqavan|Axum,40.9625,45.3514,Armenia,AM,ARM,Tavush,Tavush,AM-TV,region,,43.5,630,630,3,Asia/Yerevan,FALSE,1051175731
Apnagyugh,Apnagyugh,Apnagyukh,40.4394,44.3961,Armenia,AM,ARM,Aragatsotn,Aragatsotn,AM-AG,region,,45.4,630,630,3,Asia/Yerevan,FALSE,1051528694
"Nor Amanos","Nor Amanos","Nor Yedesia",40.2342,44.0672,Armenia,AM,ARM,Aragatsotn,Aragatsotn,AM-AG,region,,42.6,630,630,3,Asia/Yerevan,FALSE,1051821377
"P’ok’r Masrik","P'ok'r Masrik","Malaya Mazra|Pokr-Mazra",40.2581,45.7225,Armenia,AM,ARM,Geghark’unik’,Geghark'unik',AM-GR,region,,34.7,626,626,3,Asia/Yerevan,FALSE,1051694615
Artsvanik,Artsvanik,"Artsevanik’|Yerets’|Yerets’-Yerets’vanik|Yerts’u Vank’|Yerets’vanik|Yerits’vanik|Yerits’vank’|Karmir Vank’|Artzvanik|Artsvenik|Artsvanik",39.2617,46.4736,Armenia,AM,ARM,Syunik’,Syunik',AM-SU,region,,31.2,625,625,3,Asia/Yerevan,FALSE,1051916708
Bagaran,Bagaran,,40.1494,43.6928,Armenia,AM,ARM,Armavir,Armavir,AM-AV,region,,17.0,622,622,3,Asia/Yerevan,FALSE,1051198441
Lorut,Lorut,,40.9389,44.7725,Armenia,AM,ARM,Lorri,Lorri,AM-LO,region,,15.9,621,621,3,Asia/Yerevan,FALSE,1051968223
Hovuni,Hovuni,Yesaul|Yasaul|Ovuni,40.8667,43.8000,Armenia,AM,ARM,Shirak,Shirak,AM-SH,region,,48.5,620,620,3,Asia/Yerevan,FALSE,1051952753
Arayi,Arayi,,40.4572,44.3742,Armenia,AM,ARM,Aragatsotn,Aragatsotn,AM-AG,region,,54.4,617,617,3,Asia/Yerevan,FALSE,1051405105
Jil,Jil,Dzhil|Cil,40.4544,45.4536,Armenia,AM,ARM,Geghark’unik’,Geghark'unik',AM-GR,region,,12.6,615,615,3,Asia/Yerevan,FALSE,1051000006
Shatvan,Shatvan,"Guseyn Kuli|Agalu|Narimanlu|Qayabaşı|Nərimanlı",40.1831,45.8256,Armenia,AM,ARM,Geghark’unik’,Geghark'unik',AM-GR,region,,45.6,612,612,3,Asia/Yerevan,FALSE,1051892423
Yernjatap,Yernjatap,Yerindzhatap|Karabulag|Yerndzhatap|Yerinjatap,40.4531,44.4642,Armenia,AM,ARM,Aragatsotn,Aragatsotn,AM-AG,region,,34.3,611,611,3,Asia/Yerevan,FALSE,1051348647
Oshakan,Oshakan,,40.2633,44.3147,Armenia,AM,ARM,Aragatsotn,Aragatsotn,AM-AG,region,,269.3,611,611,3,Asia/Yerevan,FALSE,1051317578
Hnaberd,Hnaberd,Gnaberd|Khnaberd|Torpakhkala,40.0058,44.5744,Armenia,AM,ARM,Ararat,Ararat,AM-AR,region,,281.6,611,611,3,Asia/Yerevan,FALSE,1051279067
"Nor Gyugh","Nor Gyugh","Nor Gyukh|Tazagyukh",40.2667,44.6564,Armenia,AM,ARM,Kotayk’,Kotayk',AM-KT,region,,103.9,610,610,3,Asia/Yerevan,FALSE,1051404097
Katnaghbyur,Katnaghbyur,Katnakhpyur|Agadzor,40.2561,44.6767,Armenia,AM,ARM,Kotayk’,Kotayk',AM-KT,region,,129.4,609,609,3,Asia/Yerevan,FALSE,1051013689
Hatsavan,Hatsavan,Atsavan|Avdalar,40.1378,44.6522,Armenia,AM,ARM,Kotayk’,Kotayk',AM-KT,region,,29.1,608,608,3,Asia/Yerevan,FALSE,1051064637
Karashamb,Karashamb,,40.4050,44.5764,Armenia,AM,ARM,Kotayk’,Kotayk',AM-KT,region,,59.3,607,607,3,Asia/Yerevan,FALSE,1051974741
Azatek,Azatek,,39.6500,45.4383,Armenia,AM,ARM,"Vayots’ Dzor","Vayots' Dzor",AM-VD,region,,10.3,603,603,3,Asia/Yerevan,FALSE,1051545932
Akunk,Akunk,Akunk|Gezlu,40.4269,43.9067,Armenia,AM,ARM,Aragatsotn,Aragatsotn,AM-AG,region,,31.5,601,601,3,Asia/Yerevan,FALSE,1051539550
Martiros,Martiros,,39.5967,45.5078,Armenia,AM,ARM,"Vayots’ Dzor","Vayots' Dzor",AM-VD,region,,9.2,601,601,3,Asia/Yerevan,FALSE,1051914271
Vaghatin,Vaghatin,Vagudy|Vagudi,39.5053,46.1181,Armenia,AM,ARM,Syunik’,Syunik',AM-SU,region,,14.5,593,593,3,Asia/Yerevan,FALSE,1051661465
Geghadir,Geghadir,"Gekhadir|Nizhnyaya Gezaldara",40.6589,44.1072,Armenia,AM,ARM,Shirak,Shirak,AM-SH,region,,0.5,590,590,3,Asia/Yerevan,FALSE,1051090173
Artashavan,Artashavan,Ilanchalan,40.3936,44.3814,Armenia,AM,ARM,Aragatsotn,Aragatsotn,AM-AG,region,,35.9,589,589,3,Asia/Yerevan,FALSE,1051279772
Ashotavan,Ashotavan,Kirakosik|Aghk’end|T’azak’end|Khnok,39.4764,45.9978,Armenia,AM,ARM,Syunik’,Syunik',AM-SU,region,,34.3,589,589,3,Asia/Yerevan,FALSE,1051219189
Zarinja,Zarinja,Zarndzha|Zarindzha,40.4667,43.7833,Armenia,AM,ARM,Aragatsotn,Aragatsotn,AM-AG,region,,33.5,585,585,3,Asia/Yerevan,FALSE,1051512530
"Mets Ayrum","Mets Ayrum","Ayrum|Nizhniy Ayrum",41.1717,44.8192,Armenia,AM,ARM,Tavush,Tavush,AM-TV,region,,59.4,581,581,3,Asia/Yerevan,FALSE,1051985152
Lehvaz,Lehvaz,Legvaz,38.9447,46.2103,Armenia,AM,ARM,Syunik’,Syunik',AM-SU,region,,33.8,571,571,3,Asia/Yerevan,FALSE,1051966660
Ginevet,Ginevet,"Ginu Gortzaran",39.9331,44.6242,Armenia,AM,ARM,Ararat,Ararat,AM-AR,region,,210.0,569,569,3,Asia/Yerevan,FALSE,1051467873
Arpunk,Arpunk,Bagar,40.2892,45.7375,Armenia,AM,ARM,Geghark’unik’,Geghark'unik',AM-GR,region,,31.6,568,568,3,Asia/Yerevan,FALSE,1051066145
Hovit,Hovit,"Ovit|Malyy Kyapanak|Pokr Kyapanak",40.7667,44.0000,Armenia,AM,ARM,Shirak,Shirak,AM-SH,region,,31.9,566,566,3,Asia/Yerevan,FALSE,1051010462
Tsoghamarg,Tsoghamarg,Chizikhlar|Tsokhamarg,40.9481,43.8561,Armenia,AM,ARM,Shirak,Shirak,AM-SH,region,,24.0,566,566,3,Asia/Yerevan,FALSE,1051953894
Chinchin,Chinchin,Chinchin|Çinçin,40.9117,45.3542,Armenia,AM,ARM,Tavush,Tavush,AM-TV,region,,38.8,558,558,3,Asia/Yerevan,FALSE,1051944986
Darbas,Darbas,Darapas|Darabaz|Darabas,39.4400,46.1222,Armenia,AM,ARM,Syunik’,Syunik',AM-SU,region,,19.8,556,556,3,Asia/Yerevan,FALSE,1051386730
Tsilkar,Tsilkar,Tzilkar|Mundzhukhli,40.7206,44.2083,Armenia,AM,ARM,Aragatsotn,Aragatsotn,AM-AG,region,,39.0,554,554,3,Asia/Yerevan,FALSE,1051262867
Halidzor,Halidzor,Qalidzor|Galidzor,39.4103,46.2953,Armenia,AM,ARM,Syunik’,Syunik',AM-SU,region,,23.7,551,551,3,Asia/Yerevan,FALSE,1051365003
Karashen,Karashen,Karashen|Qaraşen,39.5400,46.4081,Armenia,AM,ARM,Syunik’,Syunik',AM-SU,region,,39.8,550,550,3,Asia/Yerevan,FALSE,1051540162
Oghji,Oghji,Okhchogli|Voghji|Oghch’oghli,40.8094,43.7528,Armenia,AM,ARM,Shirak,Shirak,AM-SH,region,,18.0,548,548,3,Asia/Yerevan,FALSE,1051896362
Lchavan,Lchavan,Yariuzlu,40.1519,45.6144,Armenia,AM,ARM,Geghark’unik’,Geghark'unik',AM-GR,region,,33.4,548,548,4,Asia/Yerevan,FALSE,1051628035
Pambak,Pambak,,40.3861,45.5319,Armenia,AM,ARM,Geghark’unik’,Geghark'unik',AM-GR,region,,27.9,548,548,3,Asia/Yerevan,FALSE,1051106224
Getk,Getk,Getk|Dagarli,40.7333,43.7833,Armenia,AM,ARM,Shirak,Shirak,AM-SH,region,,53.3,545,545,3,Asia/Yerevan,FALSE,1051783557
Yenokavan,Yenokavan,Krdevan|Yenokavan,40.9136,45.0994,Armenia,AM,ARM,Tavush,Tavush,AM-TV,region,,14.3,537,537,3,Asia/Yerevan,FALSE,1051162095
Lusaghbyur,Lusaghbyur,Lusakhpyur|Svan|Svanverdi,40.6456,43.7494,Armenia,AM,ARM,Shirak,Shirak,AM-SH,region,,21.2,536,536,3,Asia/Yerevan,TRUE,1051974924
Lerrnapar,Lerrnapar,"Lernapar|Pamb Armyanskiy",40.7486,44.1606,Armenia,AM,ARM,Lorri,Lorri,AM-LO,region,,28.2,536,536,3,Asia/Yerevan,FALSE,1051022602
Akhlatyan,Akhlatyan,Akhlatian|Alkhat’yan|Akhlatyan,39.4422,46.0353,Armenia,AM,ARM,Syunik’,Syunik',AM-SU,region,,15.8,535,535,3,Asia/Yerevan,FALSE,1051459842
Argina,Argina,,40.2500,43.7000,Armenia,AM,ARM,Armavir,Armavir,AM-AV,region,,19.8,534,534,3,Asia/Yerevan,FALSE,1051273266
Dovegh,Dovegh,Balakend|Duvakh|Dovekh|Dovex,41.1833,45.0333,Armenia,AM,ARM,Tavush,Tavush,AM-TV,region,,38.9,534,534,3,Asia/Yerevan,FALSE,1051637136
Vosketas,Vosketas,Vosketas|Kuldarvish,40.4500,43.9500,Armenia,AM,ARM,Aragatsotn,Aragatsotn,AM-AG,region,,45.5,533,533,3,Asia/Yerevan,FALSE,1051908649
Tsaghkavan,Tsaghkavan,Milikgekh|Melikgyukh|Melikgekh|Tzaghkavan|Tsakhkavan|Tsaxkavan,41.0342,45.1181,Armenia,AM,ARM,Tavush,Tavush,AM-TV,region,,76.1,532,532,4,Asia/Yerevan,TRUE,1051059789
Nurrnus,Nurrnus,Nurnus,40.3575,44.6058,Armenia,AM,ARM,Kotayk’,Kotayk',AM-KT,region,,110.3,532,532,3,Asia/Yerevan,FALSE,1051401308
"Rrya T’aza","Rrya T'aza",Kondagsaz|Kondakhsaz|Rya-Taza,40.6578,44.3000,Armenia,AM,ARM,Aragatsotn,Aragatsotn,AM-AG,region,,54.9,531,531,3,Asia/Yerevan,FALSE,1051097181
Amrakits,Amrakits,Amrakits’|Kirov|Nikolayevka,40.9972,44.4272,Armenia,AM,ARM,Lorri,Lorri,AM-LO,region,,42.8,522,522,3,Asia/Yerevan,FALSE,1051055090
Jrarrat,Jrarrat,Randomal|Dzhrarat|Randamal|Randa|Dzhararat|Rndamal|Rantamah,40.5533,44.7575,Armenia,AM,ARM,Kotayk’,Kotayk',AM-KT,region,,5.6,521,521,3,Asia/Yerevan,FALSE,1051750458
Berkashat,Berkashat,Berkashat,40.0500,43.9167,Armenia,AM,ARM,Armavir,Armavir,AM-AV,region,,130.9,520,520,3,Asia/Yerevan,FALSE,1051330927
Sarakap,Sarakap,Bozdogan,40.5561,43.7208,Armenia,AM,ARM,Shirak,Shirak,AM-SH,region,,17.2,517,517,3,Asia/Yerevan,FALSE,1051537492
Chkalovka,Chkalovka,Aleksandrovka,40.5083,44.9789,Armenia,AM,ARM,Geghark’unik’,Geghark'unik',AM-GR,region,,4.5,516,516,3,Asia/Yerevan,FALSE,1051098341
Jujevan,Jujevan,Dzhudzhevan,41.1322,45.0111,Armenia,AM,ARM,Tavush,Tavush,AM-TV,region,,43.6,514,514,3,Asia/Yerevan,FALSE,1051809140
Akner,Akner,,41.0831,44.6900,Armenia,AM,ARM,Lorri,Lorri,AM-LO,region,,185.2,512,512,3,Asia/Yerevan,FALSE,1051295071
Aknaghbyur,Aknaghbyur,"Nizhniy Agdan|Nerkin Agdan",40.9583,45.1564,Armenia,AM,ARM,Tavush,Tavush,AM-TV,region,,87.8,509,509,3,Asia/Yerevan,FALSE,1051555321
Ghazanchi,Ghazanchi,Kaikuli-Kazanchi|Kazanchi,41.0789,43.8217,Armenia,AM,ARM,Shirak,Shirak,AM-SH,region,,14.6,502,502,3,Asia/Yerevan,FALSE,1051237996
Martuni,Martuni,,40.6669,45.2544,Armenia,AM,ARM,Geghark’unik’,Geghark'unik',AM-GR,region,,28.4,500,500,3,Asia/Yerevan,TRUE,1051154204
Khndzorut,Khndzorut,Elmalu|Almalu,39.5661,45.3769,Armenia,AM,ARM,"Vayots’ Dzor","Vayots' Dzor",AM-VD,region,,7.3,500,500,3,Asia/Yerevan,FALSE,1051346487
Agagchi,Agagchi,Zovasar,40.4744,43.9500,Armenia,AM,ARM,Aragatsotn,Aragatsotn,AM-AG,region,,25.9,497,497,3,Asia/Yerevan,FALSE,1051202152
Marts,Marts,,40.9569,44.7044,Armenia,AM,ARM,Lorri,Lorri,AM-LO,region,,11.1,496,496,3,Asia/Yerevan,FALSE,1051642540
Arjovit,Arjovit,,40.8272,44.3436,Armenia,AM,ARM,Lorri,Lorri,AM-LO,region,,18.0,496,496,4,Asia/Yerevan,FALSE,1051807361
Hoghmik,Hoghmik,"Illi|Illi Karakilisa",40.9167,43.8167,Armenia,AM,ARM,Shirak,Shirak,AM-SH,region,,25.3,490,490,3,Asia/Yerevan,FALSE,1051378197
Bavra,Bavra,Titoy-Kharabase,41.1194,43.8086,Armenia,AM,ARM,Shirak,Shirak,AM-SH,region,,17.2,490,490,3,Asia/Yerevan,FALSE,1051016205
Torfavan,Torfavan,,40.1833,45.6333,Armenia,AM,ARM,Geghark’unik’,Geghark'unik',AM-GR,region,,145.9,490,490,3,Asia/Yerevan,FALSE,1051000001
Gegharot,Gegharot,Gekharot|Keshishkend,40.7058,44.2194,Armenia,AM,ARM,Aragatsotn,Aragatsotn,AM-AG,region,,3.3,490,490,3,Asia/Yerevan,FALSE,1051281253
Dprabak,Dprabak,Chaykend|Çaykənd,40.6864,45.1264,Armenia,AM,ARM,Geghark’unik’,Geghark'unik',AM-GR,region,,16.9,489,489,3,Asia/Yerevan,FALSE,1051642129
Tsater,Tsater,,40.9606,44.6294,Armenia,AM,ARM,Lorri,Lorri,AM-LO,region,,44.2,489,489,4,Asia/Yerevan,TRUE,1051880319
Dashtakar,Dashtakar,Dashlu|Dashtakar,39.9167,44.7500,Armenia,AM,ARM,Ararat,Ararat,AM-AR,region,,125.3,485,485,3,Asia/Yerevan,FALSE,1051919334
Aygepar,Aygepar,Aytəpər,40.9419,45.4622,Armenia,AM,ARM,Tavush,Tavush,AM-TV,region,,255.3,485,485,3,Asia/Yerevan,FALSE,1051244373
Noravan,Noravan,,39.5194,46.1006,Armenia,AM,ARM,Syunik’,Syunik',AM-SU,region,,14.2,485,485,3,Asia/Yerevan,FALSE,1051768784
Tufashen,Tufashen,Armutlu,40.6000,43.9000,Armenia,AM,ARM,Shirak,Shirak,AM-SH,region,,37.2,483,483,3,Asia/Yerevan,FALSE,1051250989
Lusashogh,Lusashogh,Karakhach|Lusashokh,39.8503,44.9831,Armenia,AM,ARM,Ararat,Ararat,AM-AR,region,,11.4,478,478,3,Asia/Yerevan,FALSE,1051814831
"Nor Art’ik","Nor Art'ik","Nor Artik",40.4500,43.7000,Armenia,AM,ARM,Aragatsotn,Aragatsotn,AM-AG,region,,20.0,478,478,3,Asia/Yerevan,FALSE,1051423474
Norashen,Norashen,Efendi,40.5044,45.0228,Armenia,AM,ARM,Geghark’unik’,Geghark'unik',AM-GR,region,,32.5,475,475,3,Asia/Yerevan,FALSE,1051803639
Sarrnakunk’,Sarrnakunk',Sarnakunk|Saybalu,39.6481,45.8850,Armenia,AM,ARM,Syunik’,Syunik',AM-SU,region,,11.4,474,474,3,Asia/Yerevan,FALSE,1051225643
Shgharshik,Shgharshik,Shgarshik|Shkhadzhi,40.4167,43.9667,Armenia,AM,ARM,Aragatsotn,Aragatsotn,AM-AG,region,,43.4,473,473,3,Asia/Yerevan,FALSE,1051465010
Vardashen,Vardashen,Megrablu,40.0336,44.5558,Armenia,AM,ARM,Ararat,Ararat,AM-AR,region,,342.7,473,473,3,Asia/Yerevan,FALSE,1051115146
Teghenik,Teghenik,Tgit|Tkhit,40.4239,44.5756,Armenia,AM,ARM,Kotayk’,Kotayk',AM-KT,region,,47.6,471,471,3,Asia/Yerevan,FALSE,1051268112
Tsaghkashen,Tsaghkashen,Kyarimkend|Tsakhkashen,40.3047,45.0553,Armenia,AM,ARM,Geghark’unik’,Geghark'unik',AM-GR,region,,42.6,470,470,3,Asia/Yerevan,FALSE,1051895673
Sipanik,Sipanik,,40.1069,44.3522,Armenia,AM,ARM,Ararat,Ararat,AM-AR,region,,89.5,468,468,3,Asia/Yerevan,FALSE,1051003947
Artavaz,Artavaz,Tyakyalu|Takyalu|T’ak’yarrlu|Takyarlu,40.6192,44.5747,Armenia,AM,ARM,Kotayk’,Kotayk',AM-KT,region,,15.7,467,467,3,Asia/Yerevan,FALSE,1051753444
Krasar,Krasar,Kurdbulakh|Kurdbulak|Kurdbulag,41.0178,43.8233,Armenia,AM,ARM,Shirak,Shirak,AM-SH,region,,23.1,466,466,3,Asia/Yerevan,FALSE,1051416165
Vardablur,Vardablur,Vardaolur|Vartablur|Dzhangi,40.6961,44.2300,Armenia,AM,ARM,Aragatsotn,Aragatsotn,AM-AG,region,,37.1,466,466,3,Asia/Yerevan,FALSE,1051382177
Berkaber,Berkaber,Pipis|Berkaber|Dzhogaz,41.0667,45.1500,Armenia,AM,ARM,Tavush,Tavush,AM-TV,region,,45.7,465,465,3,Asia/Yerevan,FALSE,1051422826
Ghursali,Ghursali,Kursali,40.8272,44.3436,Armenia,AM,ARM,Lorri,Lorri,AM-LO,region,,18.6,464,464,3,Asia/Yerevan,FALSE,1051276812
Karadzor,Karadzor,Efendi|Karadzor,40.8475,44.3167,Armenia,AM,ARM,Lorri,Lorri,AM-LO,region,,16.2,461,461,4,Asia/Yerevan,TRUE,1051380596
Akhuryan,Akhuryan,"Duzk’yand|Duzk’end|Duzk’end Mets",40.7814,43.8964,Armenia,AM,ARM,Shirak,Shirak,AM-SH,region,,32.6,456,456,3,Asia/Yerevan,FALSE,1051730865
"Verin Bazmaberd","Verin Bazmaberd","Verin Agdzhakala|Verkhnyaya Agdzhakala",40.3667,44.0167,Armenia,AM,ARM,Aragatsotn,Aragatsotn,AM-AG,region,,29.2,452,452,3,Asia/Yerevan,FALSE,1051979674
Ghazaravan,Ghazaravan,Nezrvan|Nazyrvan|Nazrvan,40.3478,44.3417,Armenia,AM,ARM,Aragatsotn,Aragatsotn,AM-AG,region,,42.3,450,450,3,Asia/Yerevan,FALSE,1051241979
T’arrat’umb,T'arrat'umb,Taratumb,39.8914,45.2508,Armenia,AM,ARM,"Vayots’ Dzor","Vayots' Dzor",AM-VD,region,,17.8,448,448,3,Asia/Yerevan,FALSE,1051993047
Charchakis,Charchakis,,40.7006,44.3244,Armenia,AM,ARM,Aragatsotn,Aragatsotn,AM-AG,region,,16.6,443,443,3,Asia/Yerevan,FALSE,1051780397
Kayk,Kayk,Mulk’i,40.5817,44.3747,Armenia,AM,ARM,Aragatsotn,Aragatsotn,AM-AG,region,,69.2,441,441,3,Asia/Yerevan,FALSE,1051924360
Alagyaz,Alagyaz,"Dzhamushli|Mets Jamyshlu|Dzhamushlu Bol’shoy|Alagëz|Mets Dzhamshlu|Bol’shoy Dzhamushli",40.6814,44.2903,Armenia,AM,ARM,Aragatsotn,Aragatsotn,AM-AG,region,,52.1,439,439,3,Asia/Yerevan,FALSE,1051969509
Aghitu,Aghitu,Aghudi|Agudi,39.5153,46.0808,Armenia,AM,ARM,Syunik’,Syunik',AM-SU,region,,22.4,436,436,3,Asia/Yerevan,FALSE,1051261325
Hovk’,Hovk',Akhkikhlu|Akhkikhli,40.7878,45.0506,Armenia,AM,ARM,Tavush,Tavush,AM-TV,region,,32.4,435,435,3,Asia/Yerevan,FALSE,1051264041
Gorayk,Gorayk,Bazarchay,39.6828,45.7614,Armenia,AM,ARM,Syunik’,Syunik',AM-SU,region,,6.4,435,435,3,Asia/Yerevan,FALSE,1051076341
Lchkadzor,Lchkadzor,Lichadzar|Lichkadzor,41.1667,44.9167,Armenia,AM,ARM,Tavush,Tavush,AM-TV,region,,85.3,433,433,3,Asia/Yerevan,FALSE,1051684239
Tsamakasar,Tsamakasar,Susuz,40.4664,43.7561,Armenia,AM,ARM,Aragatsotn,Aragatsotn,AM-AG,region,,23.9,430,430,3,Asia/Yerevan,FALSE,1051659437
Mghart,Mghart,Mgart,40.9981,44.5825,Armenia,AM,ARM,Lorri,Lorri,AM-LO,region,,25.6,429,429,3,Asia/Yerevan,FALSE,1051695183
Karin,Karin,,40.2500,44.3333,Armenia,AM,ARM,Aragatsotn,Aragatsotn,AM-AG,region,,286.2,428,428,3,Asia/Yerevan,FALSE,1051638906
Saratovka,Saratovka,,41.0781,44.3164,Armenia,AM,ARM,Lorri,Lorri,AM-LO,region,,4.3,424,424,3,Asia/Yerevan,FALSE,1051879179
Tsghuk,Tsghuk,Borisovka|Murkuz,39.6678,45.8550,Armenia,AM,ARM,Syunik’,Syunik',AM-SU,region,,8.3,422,422,3,Asia/Yerevan,FALSE,1051534455
Orgov,Orgov,,40.3478,44.2525,Armenia,AM,ARM,Aragatsotn,Aragatsotn,AM-AG,region,,35.4,418,418,3,Asia/Yerevan,FALSE,1051591531
Shamb,Shamb,,39.4675,46.1500,Armenia,AM,ARM,Syunik’,Syunik',AM-SU,region,,28.1,416,416,3,Asia/Yerevan,FALSE,1051416693
Aghnjadzor,Aghnjadzor,Aghkend|Akhkend|Agndzhadzor,39.9022,45.2475,Armenia,AM,ARM,"Vayots’ Dzor","Vayots' Dzor",AM-VD,region,,11.4,412,412,4,Asia/Yerevan,FALSE,1051527981
Zuygaghbyur,Zuygaghbyur,Chiftali|Zuygaghpyur|Zuygakhpyur,41.0211,43.9036,Armenia,AM,ARM,Shirak,Shirak,AM-SH,region,,20.2,411,411,3,Asia/Yerevan,FALSE,1051902526
Makenis,Makenis,Chichakli|Kizilvank,40.1239,45.6108,Armenia,AM,ARM,Geghark’unik’,Geghark'unik',AM-GR,region,,23.7,405,405,3,Asia/Yerevan,FALSE,1051994900
"Lorri Berd","Lorri Berd","Lori Berd",41.0128,44.4125,Armenia,AM,ARM,Lorri,Lorri,AM-LO,region,,71.7,405,405,3,Asia/Yerevan,FALSE,1051893303
Hagvi,Hagvi,Agvi,41.0667,44.5833,Armenia,AM,ARM,Lorri,Lorri,AM-LO,region,,28.6,402,402,3,Asia/Yerevan,FALSE,1051376410
Shenavan,Shenavan,Kyzloran|Kzloran,40.8667,44.2333,Armenia,AM,ARM,Lorri,Lorri,AM-LO,region,,23.5,402,402,3,Asia/Yerevan,FALSE,1051809352
"Paruyr Sevak","Paruyr Sevak",,39.7667,44.9333,Armenia,AM,ARM,Ararat,Ararat,AM-AR,region,,4.6,398,398,3,Asia/Yerevan,FALSE,1051170383
Khoznavar,Khoznavar,,39.6214,46.3558,Armenia,AM,ARM,Syunik’,Syunik',AM-SU,region,,24.4,396,396,3,Asia/Yerevan,FALSE,1051195876
Uyts,Uyts,Uits|Uz,39.5167,46.0500,Armenia,AM,ARM,Syunik’,Syunik',AM-SU,region,,11.8,396,396,3,Asia/Yerevan,FALSE,1051972161
Kachachkut,Kachachkut,,41.1167,44.6000,Armenia,AM,ARM,Lorri,Lorri,AM-LO,region,,29.7,393,393,3,Asia/Yerevan,FALSE,1051871872
Goghovit,Goghovit,Taknali,40.9333,43.8333,Armenia,AM,ARM,Shirak,Shirak,AM-SH,region,,30.8,390,390,3,Asia/Yerevan,FALSE,1051451408
Shenatagh,Shenatagh,Lerrnashen|Shenatag|Shinagat|Lernashen,39.3800,46.1322,Armenia,AM,ARM,Syunik’,Syunik',AM-SU,region,,8.9,389,389,3,Asia/Yerevan,FALSE,1051851824
Aregnadem,Aregnadem,Azizbekov|Karachanta,40.9286,43.7492,Armenia,AM,ARM,Shirak,Shirak,AM-SH,region,,11.8,388,388,3,Asia/Yerevan,FALSE,1051655398
Musayelyan,Musayelyan,Bozekhush|Musayelian,40.9928,43.9389,Armenia,AM,ARM,Shirak,Shirak,AM-SH,region,,27.8,388,388,3,Asia/Yerevan,FALSE,1051971166
Lerrnamerdz,Lerrnamerdz,Ayarlu|Lernamerts,40.2633,44.2636,Armenia,AM,ARM,Ararat,Ararat,AM-AR,region,,214.9,384,384,3,Asia/Yerevan,FALSE,1051545149
Aghin,Aghin,Agin,40.5900,43.6983,Armenia,AM,ARM,Shirak,Shirak,AM-SH,region,,19.2,382,382,3,Asia/Yerevan,FALSE,1051809609
Koghes,Koghes,"Karmir Agek|Koges|Kogos",40.9875,44.5347,Armenia,AM,ARM,Lorri,Lorri,AM-LO,region,,21.3,381,381,3,Asia/Yerevan,FALSE,1051999024
Haykadzor,Haykadzor,Koshavank|Aykadzor,40.5378,43.6608,Armenia,AM,ARM,Shirak,Shirak,AM-SH,region,,10.3,380,380,3,Asia/Yerevan,FALSE,1051049509
Aznvadzor,Aznvadzor,Gezaldara|Khandzhugaz,40.8769,44.4169,Armenia,AM,ARM,Lorri,Lorri,AM-LO,region,,20.6,380,380,3,Asia/Yerevan,FALSE,1051228680
Jraber,Jraber,Dzhraber|Nikolayevka,40.3519,44.6450,Armenia,AM,ARM,Kotayk’,Kotayk',AM-KT,region,,62.6,377,377,3,Asia/Yerevan,FALSE,1051001456
Tsater,Tsater,,40.9713,44.6278,Armenia,AM,ARM,Lorri,Lorri,AM-LO,region,,1.9,377,377,3,Asia/Yerevan,FALSE,1051151226
Kakhakn,Kakhakn,Bahar,40.2833,45.7833,Armenia,AM,ARM,Geghark’unik’,Geghark'unik',AM-GR,region,,19.0,375,375,3,Asia/Yerevan,FALSE,1051227073
Spandaryan,Spandaryan,Meliklar|Kalachik|Maliklar|Meliklu,39.6217,45.9047,Armenia,AM,ARM,Syunik’,Syunik',AM-SU,region,,15.6,371,371,3,Asia/Yerevan,FALSE,1051392426
Tavshut,Tavshut,Tazagyukh|Tazakend,41.0833,43.8000,Armenia,AM,ARM,Shirak,Shirak,AM-SH,region,,22.3,370,370,3,Asia/Yerevan,FALSE,1051435605
Getik,Getik,"Nor Bashgyukh",40.6622,45.2667,Armenia,AM,ARM,Geghark’unik’,Geghark'unik',AM-GR,region,,22.5,370,370,3,Asia/Yerevan,FALSE,1051496886
Yeghegis,Yeghegis,Alagyaz|Yekhegis|Erdapin|Alayaz,39.8722,45.3597,Armenia,AM,ARM,"Vayots’ Dzor","Vayots' Dzor",AM-VD,region,,53.8,369,369,3,Asia/Yerevan,FALSE,1051828497
Vahagnadzor,Vahagnadzor,,40.8853,44.5933,Armenia,AM,ARM,Lorri,Lorri,AM-LO,region,,70.3,368,368,4,Asia/Yerevan,FALSE,1051412578
Vanevan,Vanevan,"Kyarkibash|Shafak|Şəfəq (Kərkibaş)",40.1914,45.6750,Armenia,AM,ARM,Geghark’unik’,Geghark'unik',AM-GR,region,,50.4,367,367,3,Asia/Yerevan,FALSE,1051842996
Lor,Lor,,39.4125,46.1264,Armenia,AM,ARM,Syunik’,Syunik',AM-SU,region,,20.3,365,365,3,Asia/Yerevan,FALSE,1051052879
Lusahovit,Lusahovit,Tsrrvis|Tsrviz|Lusaovit,40.9500,45.1833,Armenia,AM,ARM,Tavush,Tavush,AM-TV,region,,69.4,364,364,3,Asia/Yerevan,FALSE,1051097307
Geghard,Geghard,Artiz|Gekhard,40.1589,44.7967,Armenia,AM,ARM,Kotayk’,Kotayk',AM-KT,region,,63.5,363,363,3,Asia/Yerevan,FALSE,1051962461
Bardzruni,Bardzruni,Sultanbek|Bartsruni,39.5208,45.4822,Armenia,AM,ARM,"Vayots’ Dzor","Vayots' Dzor",AM-VD,region,,14.1,361,361,3,Asia/Yerevan,FALSE,1051972108
Tsapatagh,Tsapatagh,Kzylk’end|Kizilkend,40.4075,45.4739,Armenia,AM,ARM,Geghark’unik’,Geghark'unik',AM-GR,region,,13.9,360,360,3,Asia/Yerevan,FALSE,1051174509
Antarrut,Antarrut,Antarut|Inaklu,40.3500,44.2667,Armenia,AM,ARM,Aragatsotn,Aragatsotn,AM-AG,region,,153.3,357,357,3,Asia/Yerevan,FALSE,1051763979
Armanis,Armanis,,41.0081,44.3292,Armenia,AM,ARM,Lorri,Lorri,AM-LO,region,,215.8,357,357,3,Asia/Yerevan,FALSE,1051191088
Ttujur,Ttujur,Imrlu|Ttudzhur,40.5747,44.4547,Armenia,AM,ARM,Aragatsotn,Aragatsotn,AM-AG,region,,30.3,356,356,4,Asia/Yerevan,TRUE,1051629037
