city,city_ascii,city_alt,lat,lng,country,iso2,iso3,admin_name,admin_name_ascii,admin_code,admin_type,capital,density,population,population_proper,ranking,timezone,same_name,id
"Belize City","Belize City",Belize|Belice,17.4986,-88.1886,Belize,BZ,BLZ,Belize,Belize,BZ-BZ,district,admin,49.2,57169,57169,2,America/Belize,FALSE,1084150679
"San Ignacio","San Ignacio","Cayo|Cayo Town|El Cayo|El Cayo de San Ignacio",17.1588,-89.0696,Belize,BZ,BLZ,Cayo,Cayo,BZ-CY,district,admin,18.3,26151,26151,2,America/Belize,FALSE,1084924884
Belmopan,Belmopan,Hattieville|Mopan,17.2514,-88.7669,Belize,BZ,BLZ,Cayo,Cayo,BZ-CY,district,primary,18.3,17222,17222,1,America/Belize,FALSE,1084586375
"Orange Walk","Orange Walk","Orange Walk Town",18.0750,-88.5583,Belize,BZ,BLZ,"Orange Walk","Orange Walk",BZ-OW,district,admin,11.3,13750,13750,2,America/Belize,FALSE,1084547220
Corozal,Corozal,"Corosal|Corazal|Corasal|Corozal Town",18.4000,-88.4000,Belize,BZ,BLZ,Corozal,Corozal,BZ-CZL,district,admin,29.9,13502,13502,2,America/Belize,FALSE,1084938400
"San Pedro","San Pedro",,17.9214,-87.9611,Belize,BZ,BLZ,Belize,Belize,BZ-BZ,district,,29.9,11767,11767,3,America/Belize,FALSE,1084929106
Dangriga,Dangriga,"Stann Creek Town|Stann Creek|Stanncrek|Dangriga Town|Stann Creek Village",16.9667,-88.2167,Belize,BZ,BLZ,"Stann Creek","Stann Creek",BZ-SC,district,admin,21.0,10217,10217,2,America/Belize,FALSE,1084718311
"Benque Viejo el Carmen","Benque Viejo el Carmen","Cayo|Benque Viejo|Benique Viejo del Carmen|Bengue Viejo|Benque Viejo del Carmen",17.0667,-89.1333,Belize,BZ,BLZ,Cayo,Cayo,BZ-CY,district,,18.3,6684,6684,3,America/Belize,FALSE,1084912496
"Roaring Creek","Roaring Creek",,17.2667,-88.8000,Belize,BZ,BLZ,Cayo,Cayo,BZ-CY,district,,18.3,6000,6000,4,America/Belize,FALSE,1084399407
Ladyville,Ladyville,,17.5494,-88.2919,Belize,BZ,BLZ,Belize,Belize,BZ-BZ,district,,49.2,5458,5458,3,America/Belize,FALSE,1084569054
"Punta Gorda","Punta Gorda",,16.1005,-88.8074,Belize,BZ,BLZ,Toledo,Toledo,BZ-TOL,district,admin,7.7,5026,5026,2,America/Belize,FALSE,1084536442
"Trial Farm","Trial Farm",,18.0833,-88.5500,Belize,BZ,BLZ,"Orange Walk","Orange Walk",BZ-OW,district,,11.3,4264,4264,3,America/Belize,FALSE,1084840388
Shipyard,Shipyard,,17.8833,-88.6167,Belize,BZ,BLZ,"Orange Walk","Orange Walk",BZ-OW,district,,11.3,3805,3805,4,America/Belize,FALSE,1084208668
"Guinea Grass","Guinea Grass",,17.9681,-88.5956,Belize,BZ,BLZ,"Orange Walk","Orange Walk",BZ-OW,district,,11.3,3563,3563,3,America/Belize,FALSE,1084660119
Sarteneja,Sarteneja,Santeneja,18.3533,-88.1461,Belize,BZ,BLZ,Corozal,Corozal,BZ-CZL,district,,39.3,3550,3550,4,America/Belize,FALSE,1084204699
"San Jose","San Jose",,18.1667,-88.5667,Belize,BZ,BLZ,"Orange Walk","Orange Walk",BZ-OW,district,,11.3,2862,2862,4,America/Belize,TRUE,1084893384
"Little Belize","Little Belize",,18.2000,-88.4000,Belize,BZ,BLZ,Corozal,Corozal,BZ-CZL,district,,11.3,2830,2830,4,America/Belize,FALSE,1084413719
Camelote,Camelote,,17.2472,-88.8176,Belize,BZ,BLZ,Cayo,Cayo,BZ-CY,district,,18.3,2562,2562,3,America/Belize,FALSE,1084238075
"San Narciso","San Narciso",,18.3056,-88.5167,Belize,BZ,BLZ,Corozal,Corozal,BZ-CZL,district,,11.3,2423,2423,4,America/Belize,FALSE,1084112724
"San Jose Soccoths","San Jose Soccoths","Tzokotz|Socotz|Soccotz|Jocote|Succotz|Succoths|San Jose Succotz",17.0849,-89.1299,Belize,BZ,BLZ,Cayo,Cayo,BZ-CY,district,,18.3,2322,2322,4,America/Belize,FALSE,1084911681
"Spanish Lookout","Spanish Lookout",,17.2504,-88.9974,Belize,BZ,BLZ,Cayo,Cayo,BZ-CY,district,,18.3,2253,2253,4,America/Belize,FALSE,1084489024
"Bullet Tree Falls","Bullet Tree Falls",,17.1680,-89.1110,Belize,BZ,BLZ,Cayo,Cayo,BZ-CY,district,,18.3,2124,2124,3,America/Belize,FALSE,1084877098
"San Antonio","San Antonio",,17.1000,-88.9667,Belize,BZ,BLZ,Cayo,Cayo,BZ-CY,district,,18.3,2124,2124,4,America/Belize,FALSE,1084411585
"Valley of Peace","Valley of Peace",,17.3333,-88.8333,Belize,BZ,BLZ,Cayo,Cayo,BZ-CY,district,,18.3,2108,2108,4,America/Belize,FALSE,1084000000
"San Joaquin","San Joaquin",,18.3333,-88.4333,Belize,BZ,BLZ,Corozal,Corozal,BZ-CZL,district,,29.9,2010,2010,4,America/Belize,FALSE,1084959174
"Caye Corker","Caye Corker",,17.7425,-88.0250,Belize,BZ,BLZ,Belize,Belize,BZ-BZ,district,,49.2,2000,2000,4,America/Belize,FALSE,1084993946
"Teakettle Village","Teakettle Village","Teakettle Bank|Teakettle",17.2247,-88.8526,Belize,BZ,BLZ,Cayo,Cayo,BZ-CY,district,,18.3,1747,1747,4,America/Belize,FALSE,1084517096
"Santa Familia","Santa Familia",,17.1850,-89.0740,Belize,BZ,BLZ,Cayo,Cayo,BZ-CY,district,,18.3,1598,1598,3,America/Belize,FALSE,1084009955
Xaibe,Xaibe,,18.3833,-88.4333,Belize,BZ,BLZ,Corozal,Corozal,BZ-CZL,district,,29.9,1575,1575,4,America/Belize,FALSE,1084002080
"San Estevan","San Estevan","San Esteban",18.1550,-88.5106,Belize,BZ,BLZ,"Orange Walk","Orange Walk",BZ-OW,district,,11.3,1573,1573,3,America/Belize,FALSE,1084765641
"San Felipe","San Felipe",,17.8667,-88.7667,Belize,BZ,BLZ,"Orange Walk","Orange Walk",BZ-OW,district,,11.3,1499,1499,4,America/Belize,FALSE,1084336739
Patchchacan,Patchchacan,"Pachacan|Patch Chakan",18.4006,-88.4725,Belize,BZ,BLZ,Corozal,Corozal,BZ-CZL,district,,29.9,1374,1374,4,America/Belize,FALSE,1084217993
Progresso,Progresso,Progreso,18.2167,-88.4000,Belize,BZ,BLZ,Corozal,Corozal,BZ-CZL,district,,19.9,1356,1356,4,America/Belize,FALSE,1084157730
"Silver Creek","Silver Creek",,16.2667,-88.8833,Belize,BZ,BLZ,Toledo,Toledo,BZ-TOL,district,,7.7,1326,1326,4,America/Belize,FALSE,1084200815
Hattieville,Hattieville,,17.4500,-88.3833,Belize,BZ,BLZ,Belize,Belize,BZ-BZ,district,,49.2,1300,1300,4,America/Belize,FALSE,1084869645
Esperanza,Esperanza,,17.1785,-89.0409,Belize,BZ,BLZ,Cayo,Cayo,BZ-CY,district,,18.3,1262,1262,3,America/Belize,FALSE,1084244823
"San Antonio","San Antonio",,16.2444,-89.0236,Belize,BZ,BLZ,Toledo,Toledo,BZ-TOL,district,,7.7,1204,1204,4,America/Belize,FALSE,1084474367
Chunox,Chunox,,18.2968,-88.3585,Belize,BZ,BLZ,Corozal,Corozal,BZ-CZL,district,,29.9,1143,1143,4,America/Belize,FALSE,1084175721
"San Pablo","San Pablo",,18.2097,-88.5617,Belize,BZ,BLZ,"Orange Walk","Orange Walk",BZ-OW,district,,11.3,926,926,3,America/Belize,FALSE,1084429602
"Placentia Village","Placentia Village","Point Placentia|Punta Placencia|Plasencia|Placentia|Placencia",16.5139,-88.3667,Belize,BZ,BLZ,"Stann Creek","Stann Creek",BZ-SC,district,,21.0,750,750,4,America/Belize,FALSE,1084010881
"San Pedro","San Pedro","San Pedro Columbia|Columbia",16.2667,-88.9500,Belize,BZ,BLZ,Toledo,Toledo,BZ-TOL,district,,7.7,700,700,4,America/Belize,FALSE,1084073053
"Black Man Eddy","Black Man Eddy",,17.2167,-88.9167,Belize,BZ,BLZ,Cayo,Cayo,BZ-CY,district,,18.3,504,504,4,America/Belize,FALSE,1084834550
"Blue Creek Village","Blue Creek Village","Blue Creek",17.9000,-88.9000,Belize,BZ,BLZ,"Orange Walk","Orange Walk",BZ-OW,district,,11.3,407,407,4,America/Belize,FALSE,1084073610
"Gales Point","Gales Point",,17.1833,-88.3333,Belize,BZ,BLZ,Belize,Belize,BZ-BZ,district,,49.2,296,296,4,America/Belize,FALSE,1084125845
"Indian Church","Indian Church",,17.7667,-88.6500,Belize,BZ,BLZ,"Orange Walk","Orange Walk",BZ-OW,district,,11.3,267,267,4,America/Belize,FALSE,1084689260
"Monkey River Town","Monkey River Town","Monkey|Monkey River",16.3633,-88.4853,Belize,BZ,BLZ,Toledo,Toledo,BZ-TOL,district,,7.7,200,200,4,America/Belize,FALSE,1084186193
"Mullins River","Mullins River","Mullins River Town|Mullins",17.1000,-88.3000,Belize,BZ,BLZ,"Stann Creek","Stann Creek",BZ-SC,district,,21.0,198,198,4,America/Belize,FALSE,1084173960
"More Tomorrow","More Tomorrow",,17.3475,-88.6939,Belize,BZ,BLZ,Cayo,Cayo,BZ-CY,district,,18.3,154,154,4,America/Belize,FALSE,1084310218
"Pilgrimage Valley","Pilgrimage Valley",,17.1500,-89.0333,Belize,BZ,BLZ,Cayo,Cayo,BZ-CY,district,,18.3,21,21,4,America/Belize,FALSE,1084361312
"Salt Creek","Salt Creek",,17.6631,-88.3288,Belize,BZ,BLZ,Belize,Belize,BZ-BZ,district,,49.2,,,4,America/Belize,FALSE,1084472895
"Bacalar Chico","Bacalar Chico",,18.1866,-87.8604,Belize,BZ,BLZ,Belize,Belize,BZ-BZ,district,,29.9,,,4,America/Belize,FALSE,1084842113
"Nago Bank","Nago Bank",,17.8803,-88.2913,Belize,BZ,BLZ,Belize,Belize,BZ-BZ,district,,49.2,,,4,America/Belize,FALSE,1084057414
"Tu-Tu Camp","Tu-Tu Camp","Campamento Tu-Tu",17.3230,-89.1378,Belize,BZ,BLZ,Cayo,Cayo,BZ-CY,district,,18.3,,,4,America/Belize,FALSE,1084946967
"Maya Beach","Maya Beach",,16.6152,-88.3542,Belize,BZ,BLZ,"Stann Creek","Stann Creek",BZ-SC,district,,21.0,,,3,America/Belize,FALSE,1084219301
"San Jose","San Jose",,17.4833,-88.9333,Belize,BZ,BLZ,"Orange Walk","Orange Walk",BZ-OW,district,,18.3,,,4,America/Belize,FALSE,1084295233
"Ontario Village","Ontario Village",,17.2212,-88.8919,Belize,BZ,BLZ,Cayo,Cayo,BZ-CY,district,,18.3,,,4,America/Belize,FALSE,1084380401
"Seine Bight Village","Seine Bight Village","Seine Bight",16.5667,-88.3667,Belize,BZ,BLZ,"Stann Creek","Stann Creek",BZ-SC,district,,21.0,,,4,America/Belize,FALSE,1084286557
"Chan Pine Ridge","Chan Pine Ridge",,18.0369,-88.5825,Belize,BZ,BLZ,"Orange Walk","Orange Walk",BZ-OW,district,,11.3,,,4,America/Belize,FALSE,1084691486
Esporanza,Esporanza,,16.2492,-88.8992,Belize,BZ,BLZ,Toledo,Toledo,BZ-TOL,district,,7.7,,,5,America/Belize,FALSE,1084293174
"Monkey Fall","Monkey Fall",,17.1375,-89.0503,Belize,BZ,BLZ,Cayo,Cayo,BZ-CY,district,,18.3,,,4,America/Belize,FALSE,1084868567
Blancaneau,Blancaneau,Blancaneaux|Blancancaux,17.0464,-88.9642,Belize,BZ,BLZ,Cayo,Cayo,BZ-CY,district,,18.3,,,4,America/Belize,FALSE,1084869459
"Sayab Camp","Sayab Camp",,17.1107,-88.9697,Belize,BZ,BLZ,Cayo,Cayo,BZ-CY,district,,18.3,,,4,America/Belize,FALSE,1084695400
"Mountain Cow","Mountain Cow",,16.7875,-89.0489,Belize,BZ,BLZ,Cayo,Cayo,BZ-CY,district,,18.3,,,4,America/Belize,FALSE,1084543285
"San Antonio","San Antonio",,18.4018,-88.3998,Belize,BZ,BLZ,Corozal,Corozal,BZ-CZL,district,,29.9,,,4,America/Belize,FALSE,1084491139
"San Roman","San Roman",,18.2972,-88.5078,Belize,BZ,BLZ,Corozal,Corozal,BZ-CZL,district,,15.5,,,4,America/Belize,FALSE,1084985936
Cabro,Cabro,Cabra,16.4111,-89.0647,Belize,BZ,BLZ,Toledo,Toledo,BZ-TOL,district,,7.7,,,5,America/Belize,FALSE,1084245429
Estrella,Estrella,,18.2911,-88.4523,Belize,BZ,BLZ,Corozal,Corozal,BZ-CZL,district,,29.9,,,4,America/Belize,FALSE,1084649641
"Santa Theresa","Santa Theresa",Hinchasones,16.1333,-89.0500,Belize,BZ,BLZ,Toledo,Toledo,BZ-TOL,district,,7.7,,,5,America/Belize,FALSE,1084477055
"Big Eddy","Big Eddy",,17.0917,-89.0684,Belize,BZ,BLZ,Cayo,Cayo,BZ-CY,district,,18.3,,,4,America/Belize,FALSE,1084616780
"Pueblo Nuevo","Pueblo Nuevo",,18.3098,-88.4129,Belize,BZ,BLZ,Corozal,Corozal,BZ-CZL,district,,29.9,,,4,America/Belize,FALSE,1084323373
"Resumadero Camp","Resumadero Camp","Campamento Resumidero",16.6314,-89.0682,Belize,BZ,BLZ,Cayo,Cayo,BZ-CY,district,,7.7,,,5,America/Belize,FALSE,1084407721
"South View Point","South View Point",,16.9000,-88.9833,Belize,BZ,BLZ,Cayo,Cayo,BZ-CY,district,,18.3,,,4,America/Belize,FALSE,1084961024
Carmelita,Carmelita,,18.0142,-88.5424,Belize,BZ,BLZ,"Orange Walk","Orange Walk",BZ-OW,district,,11.3,,,4,America/Belize,FALSE,1084162046
Chunch,Chunch,,18.3000,-88.3833,Belize,BZ,BLZ,Corozal,Corozal,BZ-CZL,district,,29.9,,,4,America/Belize,FALSE,1084945478
Norland,Norland,,17.1816,-89.0090,Belize,BZ,BLZ,Cayo,Cayo,BZ-CY,district,,18.3,,,4,America/Belize,FALSE,1084829051
"Melvin’s Bank","Melvin's Bank",,16.4430,-88.6367,Belize,BZ,BLZ,Toledo,Toledo,BZ-TOL,district,,7.7,,,5,America/Belize,FALSE,1084488012
"Privassion Camp","Privassion Camp",,17.0358,-88.9465,Belize,BZ,BLZ,Cayo,Cayo,BZ-CY,district,,18.3,,,4,America/Belize,FALSE,1084779882
"White Hill","White Hill",,17.2500,-88.4833,Belize,BZ,BLZ,Belize,Belize,BZ-BZ,district,,49.2,,,4,America/Belize,FALSE,1084656312
Vaqueros,Vaqueros,Vaquaros,17.9797,-88.7832,Belize,BZ,BLZ,"Orange Walk","Orange Walk",BZ-OW,district,,11.0,,,4,America/Belize,FALSE,1084468110
London,London,,17.9833,-88.4333,Belize,BZ,BLZ,"Orange Walk","Orange Walk",BZ-OW,district,,11.3,,,4,America/Belize,FALSE,1084577961
Isabella,Isabella,,17.5833,-88.5333,Belize,BZ,BLZ,Belize,Belize,BZ-BZ,district,,49.2,,,4,America/Belize,FALSE,1084682542
Carolina,Carolina,,18.3655,-88.4283,Belize,BZ,BLZ,Corozal,Corozal,BZ-CZL,district,,29.9,,,4,America/Belize,FALSE,1084273044
"Calera Camp","Calera Camp",,16.5318,-88.7810,Belize,BZ,BLZ,Toledo,Toledo,BZ-TOL,district,,7.7,,,5,America/Belize,FALSE,1084336530
"San Lucas","San Lucas",,16.0768,-89.0985,Belize,BZ,BLZ,Toledo,Toledo,BZ-TOL,district,,7.7,,,5,America/Belize,FALSE,1084775740
"Rock Dondo","Rock Dondo","Rock Donda",17.3500,-88.7333,Belize,BZ,BLZ,Cayo,Cayo,BZ-CY,district,,18.3,,,4,America/Belize,FALSE,1084583501
"Willows Bank","Willows Bank",,17.5167,-88.5667,Belize,BZ,BLZ,Belize,Belize,BZ-BZ,district,,11.3,,,4,America/Belize,FALSE,1084787626
Ramonal,Ramonal,,17.4118,-89.1324,Belize,BZ,BLZ,"Orange Walk","Orange Walk",BZ-OW,district,,18.3,,,4,America/Belize,FALSE,1084839833
Panama,Panama,,17.3546,-88.6918,Belize,BZ,BLZ,Cayo,Cayo,BZ-CY,district,,18.3,,,4,America/Belize,FALSE,1084368536
"Benque Viejo","Benque Viejo",,18.2766,-88.4559,Belize,BZ,BLZ,Corozal,Corozal,BZ-CZL,district,,29.9,,,4,America/Belize,FALSE,1084914287
"Forest Home","Forest Home",,16.1387,-88.8330,Belize,BZ,BLZ,Toledo,Toledo,BZ-TOL,district,,7.7,,,5,America/Belize,FALSE,1084263006
"Chan Sapote","Chan Sapote",,18.3268,-88.5626,Belize,BZ,BLZ,Corozal,Corozal,BZ-CZL,district,,11.3,,,4,America/Belize,FALSE,1084475273
"San Vincente","San Vincente",,16.2389,-89.1997,Belize,BZ,BLZ,Toledo,Toledo,BZ-TOL,district,,7.7,,,5,America/Belize,FALSE,1084986726
Nuendorf,Nuendorf,Neuendorf,17.8978,-88.9014,Belize,BZ,BLZ,"Orange Walk","Orange Walk",BZ-OW,district,,11.3,,,4,America/Belize,FALSE,1084917419
"Flowers Bank","Flowers Bank",,17.6000,-88.4833,Belize,BZ,BLZ,Belize,Belize,BZ-BZ,district,,49.2,,,4,America/Belize,FALSE,1084843136
"Xaxe Venic","Xaxe Venic","Casigüinic|Xaxe Venice|Kaxil Unic|Caxigüinic",17.5333,-89.1333,Belize,BZ,BLZ,"Orange Walk","Orange Walk",BZ-OW,district,,11.3,,,4,America/Belize,FALSE,1084614381
Georgeville,Georgeville,,17.1933,-88.9797,Belize,BZ,BLZ,Cayo,Cayo,BZ-CY,district,,18.3,,,4,America/Belize,FALSE,1084604155
"San Felipe","San Felipe",,17.1468,-89.0668,Belize,BZ,BLZ,Cayo,Cayo,BZ-CY,district,,18.3,,,4,America/Belize,FALSE,1084506390
"Santa Rosa","Santa Rosa",,17.1361,-89.1372,Belize,BZ,BLZ,Cayo,Cayo,BZ-CY,district,,18.3,,,4,America/Belize,FALSE,1084493546
"Campa Pita","Campa Pita","Campa Rita",18.0783,-88.2995,Belize,BZ,BLZ,Corozal,Corozal,BZ-CZL,district,,29.9,,,4,America/Belize,FALSE,1084291368
"Middle Bank","Middle Bank",,16.8284,-88.3087,Belize,BZ,BLZ,"Stann Creek","Stann Creek",BZ-SC,district,,21.0,,,4,America/Belize,FALSE,1084925254
Churchyard,Churchyard,,17.3053,-88.5553,Belize,BZ,BLZ,Belize,Belize,BZ-BZ,district,,18.3,,,4,America/Belize,FALSE,1084630622
"Rio Blanco","Rio Blanco","Santa Elena",16.2297,-89.1086,Belize,BZ,BLZ,Toledo,Toledo,BZ-TOL,district,,7.7,,,5,America/Belize,FALSE,1084943028
"Waha Leaf Camp","Waha Leaf Camp",,16.5940,-88.6471,Belize,BZ,BLZ,Toledo,Toledo,BZ-TOL,district,,7.7,,,5,America/Belize,FALSE,1084114285
"Mango Creek","Mango Creek",,16.5444,-88.4097,Belize,BZ,BLZ,"Stann Creek","Stann Creek",BZ-SC,district,,21.0,,,4,America/Belize,FALSE,1084288129
"Humming Bird Community","Humming Bird Community",,17.0404,-88.5308,Belize,BZ,BLZ,"Stann Creek","Stann Creek",BZ-SC,district,,21.0,,,4,America/Belize,FALSE,1084451024
"Blue Creek Village","Blue Creek Village","Blue Creek",16.1988,-89.0452,Belize,BZ,BLZ,Toledo,Toledo,BZ-TOL,district,,7.7,,,3,America/Belize,FALSE,1084825193
Central,Central,,16.4522,-89.0808,Belize,BZ,BLZ,Toledo,Toledo,BZ-TOL,district,,7.7,,,5,America/Belize,FALSE,1084530500
Georgetown,Georgetown,,16.6532,-88.5078,Belize,BZ,BLZ,"Stann Creek","Stann Creek",BZ-SC,district,,21.0,,,4,America/Belize,FALSE,1084641954
Augustine,Augustine,,16.9671,-88.9972,Belize,BZ,BLZ,Cayo,Cayo,BZ-CY,district,,18.3,,,4,America/Belize,FALSE,1084567307
"Chan Pond","Chan Pond",,17.4000,-89.1000,Belize,BZ,BLZ,"Orange Walk","Orange Walk",BZ-OW,district,,18.3,,,4,America/Belize,FALSE,1084730668
"San Lazaro","San Lazaro",,18.0385,-88.6632,Belize,BZ,BLZ,"Orange Walk","Orange Walk",BZ-OW,district,,11.3,,,4,America/Belize,FALSE,1084947656
"Trio Camp","Trio Camp",,16.5852,-88.6704,Belize,BZ,BLZ,Toledo,Toledo,BZ-TOL,district,,7.7,,,5,America/Belize,FALSE,1084356477
"Lime Walk","Lime Walk",,17.6309,-88.4918,Belize,BZ,BLZ,Belize,Belize,BZ-BZ,district,,49.2,,,4,America/Belize,FALSE,1084551417
Listowel,Listowel,,17.2022,-89.0211,Belize,BZ,BLZ,Cayo,Cayo,BZ-CY,district,,18.3,,,4,America/Belize,FALSE,1084477199
Shipstern,Shipstern,,18.1862,-88.1685,Belize,BZ,BLZ,Corozal,Corozal,BZ-CZL,district,,29.9,,,4,America/Belize,FALSE,1084354900
"Long Bridge","Long Bridge",,17.3140,-89.0854,Belize,BZ,BLZ,Cayo,Cayo,BZ-CY,district,,18.3,,,4,America/Belize,FALSE,1084427701
"Drill Camp","Drill Camp",,17.3582,-88.9139,Belize,BZ,BLZ,Cayo,Cayo,BZ-CY,district,,18.3,,,4,America/Belize,FALSE,1084691304
"Cohune Ridge","Cohune Ridge","Cojune Ridge",16.8194,-89.0842,Belize,BZ,BLZ,Cayo,Cayo,BZ-CY,district,,18.3,,,4,America/Belize,FALSE,1084399866
"Freetown Area","Freetown Area",,16.8256,-88.2910,Belize,BZ,BLZ,"Stann Creek","Stann Creek",BZ-SC,district,,21.0,,,4,America/Belize,FALSE,1084736719
"Yo Chen","Yo Chen",,18.3548,-88.4977,Belize,BZ,BLZ,Corozal,Corozal,BZ-CZL,district,,29.9,,,4,America/Belize,FALSE,1084842000
"Saint Vincent Block","Saint Vincent Block",,16.1144,-88.8265,Belize,BZ,BLZ,Toledo,Toledo,BZ-TOL,district,,7.7,,,5,America/Belize,FALSE,1084949878
"Dos Bocas","Dos Bocas",,17.9059,-88.8532,Belize,BZ,BLZ,"Orange Walk","Orange Walk",BZ-OW,district,,4.8,,,5,America/Belize,FALSE,1084759549
"Teakettle Camp","Teakettle Camp",,16.5144,-88.8313,Belize,BZ,BLZ,Toledo,Toledo,BZ-TOL,district,,7.7,,,5,America/Belize,FALSE,1084988758
"Fowlers Work","Fowlers Work",,17.2642,-89.1382,Belize,BZ,BLZ,Cayo,Cayo,BZ-CY,district,,18.3,,,4,America/Belize,FALSE,1084944613
"Cebada Camp","Cebada Camp",,16.6571,-89.1642,Belize,BZ,BLZ,Cayo,Cayo,BZ-CY,district,,7.7,,,5,America/Belize,FALSE,1084935870
"Santa Cruz","Santa Cruz",,18.2543,-88.4553,Belize,BZ,BLZ,Corozal,Corozal,BZ-CZL,district,,23.3,,,4,America/Belize,FALSE,1084991791
"San Antonio","San Antonio","San Antonia",18.1311,-88.6742,Belize,BZ,BLZ,"Orange Walk","Orange Walk",BZ-OW,district,,10.8,,,4,America/Belize,FALSE,1084704176
"Maya Mopan","Maya Mopan",,16.6602,-88.5254,Belize,BZ,BLZ,"Stann Creek","Stann Creek",BZ-SC,district,,21.0,,,4,America/Belize,FALSE,1084480943
Cowpen,Cowpen,,18.2222,-88.2266,Belize,BZ,BLZ,Corozal,Corozal,BZ-CZL,district,,29.9,,,4,America/Belize,FALSE,1084317035
Cowpen,Cowpen,,18.1080,-88.4468,Belize,BZ,BLZ,Corozal,Corozal,BZ-CZL,district,,11.3,,,4,America/Belize,TRUE,1084494812
"Chan Quebrada","Chan Quebrada",,16.5166,-88.6850,Belize,BZ,BLZ,Toledo,Toledo,BZ-TOL,district,,7.7,,,5,America/Belize,FALSE,1084075994
"Sand Hill","Sand Hill",,17.6333,-88.3667,Belize,BZ,BLZ,Belize,Belize,BZ-BZ,district,,49.2,,,4,America/Belize,FALSE,1084248966
Negroman,Negroman,,17.0784,-89.0833,Belize,BZ,BLZ,Cayo,Cayo,BZ-CY,district,,18.3,,,4,America/Belize,FALSE,1084974877
"Macaw Bank","Macaw Bank",,16.9833,-89.0667,Belize,BZ,BLZ,Cayo,Cayo,BZ-CY,district,,18.3,,,4,America/Belize,FALSE,1084268926
"El Brazo","El Brazo",,18.2000,-88.6167,Belize,BZ,BLZ,"Orange Walk","Orange Walk",BZ-OW,district,,11.3,,,4,America/Belize,FALSE,1084121725
Egypt,Egypt,"New Egypt",17.4253,-88.3914,Belize,BZ,BLZ,Belize,Belize,BZ-BZ,district,,49.2,,,4,America/Belize,FALSE,1084832492
"Yo Creek","Yo Creek",,18.0920,-88.6400,Belize,BZ,BLZ,"Orange Walk","Orange Walk",BZ-OW,district,,11.3,,,4,America/Belize,FALSE,1084012509
"San Roman Village","San Roman Village",,16.6123,-88.5791,Belize,BZ,BLZ,"Stann Creek","Stann Creek",BZ-SC,district,,21.0,,,3,America/Belize,FALSE,1084967963
"Cotton Tree Bank","Cotton Tree Bank",,17.3333,-88.7333,Belize,BZ,BLZ,Cayo,Cayo,BZ-CY,district,,18.3,,,4,America/Belize,FALSE,1084357157
"Caves Branch","Caves Branch",,17.1500,-88.7118,Belize,BZ,BLZ,Cayo,Cayo,BZ-CY,district,,18.3,,,4,America/Belize,FALSE,1084121889
"Rancho Grande","Rancho Grande",,16.7195,-88.5997,Belize,BZ,BLZ,"Stann Creek","Stann Creek",BZ-SC,district,,21.0,,,4,America/Belize,FALSE,1084524224
"Beattie Pen","Beattie Pen",,16.4085,-88.7134,Belize,BZ,BLZ,Toledo,Toledo,BZ-TOL,district,,7.7,,,5,America/Belize,FALSE,1084776116
"San Benito Poite","San Benito Poite",,16.1125,-89.1860,Belize,BZ,BLZ,Toledo,Toledo,BZ-TOL,district,,7.7,,,5,America/Belize,FALSE,1084990524
"Bermudian Landing","Bermudian Landing",,17.5500,-88.5167,Belize,BZ,BLZ,Belize,Belize,BZ-BZ,district,,49.2,,,4,America/Belize,FALSE,1084634491
Cocos,Cocos,,18.2514,-88.3734,Belize,BZ,BLZ,Corozal,Corozal,BZ-CZL,district,,29.9,,,4,America/Belize,FALSE,1084455320
"San Victor","San Victor",,18.2586,-88.5760,Belize,BZ,BLZ,Corozal,Corozal,BZ-CZL,district,,11.3,,,4,America/Belize,FALSE,1084786210
Esperanza,Esperanza,,17.3780,-89.1308,Belize,BZ,BLZ,"Orange Walk","Orange Walk",BZ-OW,district,,18.3,,,4,America/Belize,FALSE,1084898335
Cubetas,Cubetas,"Cubeta Camp",16.7847,-89.0100,Belize,BZ,BLZ,Cayo,Cayo,BZ-CY,district,,18.3,,,4,America/Belize,FALSE,1084505382
"Alta Vista","Alta Vista",,16.9937,-88.4052,Belize,BZ,BLZ,"Stann Creek","Stann Creek",BZ-SC,district,,21.0,,,4,America/Belize,FALSE,1084032418
"Guana Church Bank","Guana Church Bank",,16.8518,-88.4756,Belize,BZ,BLZ,"Stann Creek","Stann Creek",BZ-SC,district,,21.0,,,4,America/Belize,FALSE,1084738197
"Otoxha Village","Otoxha Village",Otoxha,16.0213,-89.1759,Belize,BZ,BLZ,Toledo,Toledo,BZ-TOL,district,,7.7,,,5,America/Belize,FALSE,1084183866
Toro,Toro,Torro,17.3036,-89.1420,Belize,BZ,BLZ,Cayo,Cayo,BZ-CY,district,,14.9,,,4,America/Belize,FALSE,1084694833
"Burnt Ground","Burnt Ground",,17.3849,-89.1211,Belize,BZ,BLZ,"Orange Walk","Orange Walk",BZ-OW,district,,18.3,,,4,America/Belize,FALSE,1084020612
Ramonal,Ramonal,,17.1566,-89.1309,Belize,BZ,BLZ,Cayo,Cayo,BZ-CY,district,,18.3,,,4,America/Belize,FALSE,1084149198
"Los Lirios Camp","Los Lirios Camp",,16.7042,-89.0093,Belize,BZ,BLZ,Cayo,Cayo,BZ-CY,district,,18.3,,,4,America/Belize,FALSE,1084287761
"Cristo Rey","Cristo Rey",,18.3490,-88.4975,Belize,BZ,BLZ,Corozal,Corozal,BZ-CZL,district,,29.9,,,3,America/Belize,FALSE,1084745897
"Saturday Creek","Saturday Creek",,17.3167,-88.7667,Belize,BZ,BLZ,Cayo,Cayo,BZ-CY,district,,18.3,,,4,America/Belize,FALSE,1084989359
"Nasario Perez","Nasario Perez",,16.4314,-89.1373,Belize,BZ,BLZ,Toledo,Toledo,BZ-TOL,district,,7.7,,,5,America/Belize,FALSE,1084942241
Scotland,Scotland,,17.5667,-88.5167,Belize,BZ,BLZ,Belize,Belize,BZ-BZ,district,,49.2,,,4,America/Belize,FALSE,1084274380
"Benque Ceiba","Benque Ceiba","Benque Geiba|Benque Cieba",17.1854,-89.0335,Belize,BZ,BLZ,Cayo,Cayo,BZ-CY,district,,18.3,,,4,America/Belize,FALSE,1084759022
"Crique Sarco","Crique Sarco","Grique Sarco|Crique Sarco Village",15.9833,-89.1000,Belize,BZ,BLZ,Toledo,Toledo,BZ-TOL,district,,7.7,,,5,America/Belize,FALSE,1084454154
"Cool Shade","Cool Shade",,17.1714,-88.9679,Belize,BZ,BLZ,Cayo,Cayo,BZ-CY,district,,18.3,,,4,America/Belize,FALSE,1084481589
"Saint Paul’s","Saint Paul's",Cockloft,17.5116,-88.5907,Belize,BZ,BLZ,Belize,Belize,BZ-BZ,district,,14.2,,,4,America/Belize,FALSE,1084845249
Trapiche,Trapiche,,17.1695,-89.0650,Belize,BZ,BLZ,Cayo,Cayo,BZ-CY,district,,18.3,,,4,America/Belize,FALSE,1084455082
"Santa Rita","Santa Rita",,18.3897,-88.3891,Belize,BZ,BLZ,Corozal,Corozal,BZ-CZL,district,,29.9,,,4,America/Belize,FALSE,1084721347
"Black Rock","Black Rock",,17.0489,-89.0592,Belize,BZ,BLZ,Cayo,Cayo,BZ-CY,district,,18.3,,,4,America/Belize,FALSE,1084023943
"San Juan","San Juan",,18.1833,-88.6167,Belize,BZ,BLZ,"Orange Walk","Orange Walk",BZ-OW,district,,11.3,,,4,America/Belize,FALSE,1084107306
"Medina Bank","Medina Bank",,16.4445,-88.7423,Belize,BZ,BLZ,Toledo,Toledo,BZ-TOL,district,,7.7,,,5,America/Belize,FALSE,1084276787
"Locust Bank","Locust Bank","Anthony’s Bank",16.7780,-88.4893,Belize,BZ,BLZ,"Stann Creek","Stann Creek",BZ-SC,district,,21.0,,,4,America/Belize,FALSE,1084538017
Metchekin,Metchekin,,15.9719,-89.1451,Belize,BZ,BLZ,Toledo,Toledo,BZ-TOL,district,,7.7,,,5,America/Belize,FALSE,1084549196
Conejo,Conejo,,16.0410,-89.0018,Belize,BZ,BLZ,Toledo,Toledo,BZ-TOL,district,,7.7,,,5,America/Belize,FALSE,1084381986
Corozalito,Corozalito,,17.8390,-88.2739,Belize,BZ,BLZ,Belize,Belize,BZ-BZ,district,,49.2,,,4,America/Belize,FALSE,1084266667
"San Pedro","San Pedro",,17.3500,-88.9833,Belize,BZ,BLZ,Cayo,Cayo,BZ-CY,district,,18.3,,,4,America/Belize,FALSE,1084879357
"Medway City Main Village","Medway City Main Village",,16.0599,-88.9509,Belize,BZ,BLZ,Toledo,Toledo,BZ-TOL,district,,7.7,,,5,America/Belize,FALSE,1084495159
"Encalada Potrero","Encalada Potrero",,17.9080,-89.1043,Belize,BZ,BLZ,"Orange Walk","Orange Walk",BZ-OW,district,,11.3,,,4,America/Belize,FALSE,1084000004
"Flour Camp","Flour Camp","Flour Landing",17.0447,-89.0633,Belize,BZ,BLZ,Cayo,Cayo,BZ-CY,district,,18.3,,,4,America/Belize,FALSE,1084255161
Maskall,Maskall,"Maskalls Bank|Maskalla|Maskalls",17.8667,-88.3000,Belize,BZ,BLZ,Belize,Belize,BZ-BZ,district,,49.2,,,4,America/Belize,FALSE,1084168082
"Yalbac Camp","Yalbac Camp",Yalback|Yalbac,17.3833,-88.9500,Belize,BZ,BLZ,"Orange Walk","Orange Walk",BZ-OW,district,,18.3,,,4,America/Belize,FALSE,1084334413
"Saint Thomas","Saint Thomas",,17.1500,-88.6333,Belize,BZ,BLZ,Cayo,Cayo,BZ-CY,district,,18.3,,,4,America/Belize,FALSE,1084613703
Hopkins,Hopkins,,16.8667,-88.2833,Belize,BZ,BLZ,"Stann Creek","Stann Creek",BZ-SC,district,,21.0,,,4,America/Belize,FALSE,1084446771
"Machaca Camp","Machaca Camp",,16.1990,-88.8885,Belize,BZ,BLZ,Toledo,Toledo,BZ-TOL,district,,7.7,,,5,America/Belize,FALSE,1084664372
Remate,Remate,,18.4531,-88.4134,Belize,BZ,BLZ,Corozal,Corozal,BZ-CZL,district,,29.9,,,4,America/Belize,FALSE,1084656114
Biscayne,Biscayne,,17.7170,-88.4572,Belize,BZ,BLZ,Belize,Belize,BZ-BZ,district,,49.2,,,4,America/Belize,FALSE,1084177691
Esperino,Esperino,,16.2910,-89.1985,Belize,BZ,BLZ,Toledo,Toledo,BZ-TOL,district,,23.6,,,4,America/Belize,FALSE,1084669125
"Butcher Burns","Butcher Burns","Butcher Burn",17.4109,-88.4453,Belize,BZ,BLZ,Belize,Belize,BZ-BZ,district,,49.2,,,4,America/Belize,FALSE,1084135749
"Warrie Camp","Warrie Camp","Warree Camp",18.0008,-88.3197,Belize,BZ,BLZ,"Orange Walk","Orange Walk",BZ-OW,district,,11.3,,,4,America/Belize,FALSE,1084932673
"Chan Chen","Chan Chen",,18.4360,-88.4280,Belize,BZ,BLZ,Corozal,Corozal,BZ-CZL,district,,29.9,,,4,America/Belize,FALSE,1084726359
Tacistal,Tacistal,,18.3840,-88.4427,Belize,BZ,BLZ,Corozal,Corozal,BZ-CZL,district,,29.9,,,4,America/Belize,FALSE,1084130067
"Sunday Wood Creek Village","Sunday Wood Creek Village",,16.0391,-89.0287,Belize,BZ,BLZ,Toledo,Toledo,BZ-TOL,district,,7.7,,,5,America/Belize,FALSE,1084966147
Esperanza,Esperanza,"Esperanza Bank",16.4981,-88.8714,Belize,BZ,BLZ,Toledo,Toledo,BZ-TOL,district,,7.7,,,5,America/Belize,FALSE,1084568374
"San Francisco","San Francisco",,18.3239,-88.4582,Belize,BZ,BLZ,Corozal,Corozal,BZ-CZL,district,,29.9,,,4,America/Belize,FALSE,1084884169
"Tres Brazos","Tres Brazos",,18.0532,-88.5405,Belize,BZ,BLZ,"Orange Walk","Orange Walk",BZ-OW,district,,11.3,,,4,America/Belize,FALSE,1084806624
"Puebla Nueva","Puebla Nueva",,18.3106,-88.4123,Belize,BZ,BLZ,Corozal,Corozal,BZ-CZL,district,,29.9,,,4,America/Belize,FALSE,1084444186
"Mitchell’s Run","Mitchell's Run",,16.8497,-88.4672,Belize,BZ,BLZ,"Stann Creek","Stann Creek",BZ-SC,district,,21.0,,,4,America/Belize,FALSE,1084671584
"Callac Creek","Callac Creek","Callar Creek",17.1219,-89.1336,Belize,BZ,BLZ,Cayo,Cayo,BZ-CY,district,,18.3,,,4,America/Belize,FALSE,1084931751
Sarawina,Sarawina,,16.9715,-88.2738,Belize,BZ,BLZ,"Stann Creek","Stann Creek",BZ-SC,district,,21.0,,,4,America/Belize,FALSE,1084382475
"San Antonia","San Antonia","San Antonio",16.1000,-88.9333,Belize,BZ,BLZ,Toledo,Toledo,BZ-TOL,district,,7.7,,,5,America/Belize,FALSE,1084446819
Independence,Independence,,16.5266,-88.4091,Belize,BZ,BLZ,"Stann Creek","Stann Creek",BZ-SC,district,,7.8,,,5,America/Belize,FALSE,1084353985
"Barquedier Sierra","Barquedier Sierra",,18.1767,-88.4797,Belize,BZ,BLZ,"Orange Walk","Orange Walk",BZ-OW,district,,11.3,,,4,America/Belize,FALSE,1084829091
"Spring Camp","Spring Camp",,17.4083,-89.0736,Belize,BZ,BLZ,"Orange Walk","Orange Walk",BZ-OW,district,,18.3,,,4,America/Belize,FALSE,1084521831
Lagoona,Lagoona,Laguna,16.1691,-88.9379,Belize,BZ,BLZ,Toledo,Toledo,BZ-TOL,district,,7.7,,,5,America/Belize,FALSE,1084679075
"Narrows Landing","Narrows Landing",,18.1692,-88.5061,Belize,BZ,BLZ,"Orange Walk","Orange Walk",BZ-OW,district,,11.3,,,4,America/Belize,FALSE,1084821983
"Ranger Camp","Ranger Camp",,16.4788,-88.8050,Belize,BZ,BLZ,Toledo,Toledo,BZ-TOL,district,,7.7,,,5,America/Belize,FALSE,1084551068
"Canal Bank","Canal Bank",,17.6818,-88.8648,Belize,BZ,BLZ,"Orange Walk","Orange Walk",BZ-OW,district,,11.3,,,4,America/Belize,FALSE,1084667417
Dolores,Dolores,"Delores Village|Dolores Village",15.9890,-89.2109,Belize,BZ,BLZ,Toledo,Toledo,BZ-TOL,district,,7.7,,,5,America/Belize,FALSE,1084949165
Revenge,Revenge,,17.8625,-88.5516,Belize,BZ,BLZ,Belize,Belize,BZ-BZ,district,,11.3,,,4,America/Belize,FALSE,1084557912
Piedregal,Piedregal,,17.3790,-89.1434,Belize,BZ,BLZ,"Orange Walk","Orange Walk",BZ-OW,district,,15.1,,,4,America/Belize,FALSE,1084426567
Middlesex,Middlesex,Middlesey,17.0228,-88.5145,Belize,BZ,BLZ,"Stann Creek","Stann Creek",BZ-SC,district,,21.0,,,4,America/Belize,FALSE,1084816117
"Orange Walk","Orange Walk",,17.2700,-88.7891,Belize,BZ,BLZ,Cayo,Cayo,BZ-CY,district,,18.3,,,4,America/Belize,FALSE,1084975259
"Santa Anna","Santa Anna",,16.1042,-88.9544,Belize,BZ,BLZ,Toledo,Toledo,BZ-TOL,district,,7.7,,,5,America/Belize,FALSE,1084456473
Caledonia,Caledonia,,18.2279,-88.4749,Belize,BZ,BLZ,Corozal,Corozal,BZ-CZL,district,,11.3,,,4,America/Belize,FALSE,1084039074
"Santa Elena","Santa Elena",,17.1578,-89.0590,Belize,BZ,BLZ,Cayo,Cayo,BZ-CY,district,,18.3,,,4,America/Belize,FALSE,1084329933
"New Town","New Town",,16.9000,-88.2667,Belize,BZ,BLZ,"Stann Creek","Stann Creek",BZ-SC,district,,21.0,,,4,America/Belize,FALSE,1084690064
"Hill Bank","Hill Bank",,17.6033,-88.6925,Belize,BZ,BLZ,"Orange Walk","Orange Walk",BZ-OW,district,,11.3,,,4,America/Belize,FALSE,1084358420
"Edwards Central","Edwards Central","Central Edwards",16.3405,-89.1604,Belize,BZ,BLZ,Toledo,Toledo,BZ-TOL,district,,7.7,,,5,America/Belize,FALSE,1084067729
"August Pine Ridge","August Pine Ridge",August,17.9725,-88.7249,Belize,BZ,BLZ,"Orange Walk","Orange Walk",BZ-OW,district,,11.3,,,4,America/Belize,FALSE,1084626310
"Banana Bank","Banana Bank",,17.3187,-88.7814,Belize,BZ,BLZ,Cayo,Cayo,BZ-CY,district,,18.3,,,4,America/Belize,FALSE,1084940509
"San Juan Bank","San Juan Bank",,17.9860,-88.3001,Belize,BZ,BLZ,"Orange Walk","Orange Walk",BZ-OW,district,,11.3,,,4,America/Belize,FALSE,1084838308
"Campamento Unión","Campamento Union","Union Camp",16.3964,-89.1419,Belize,BZ,BLZ,Toledo,Toledo,BZ-TOL,district,,7.7,,,5,America/Belize,FALSE,1084221387
"Esperanza Camp","Esperanza Camp","Campamento Esperanza|Esperanza",16.4172,-89.0231,Belize,BZ,BLZ,Toledo,Toledo,BZ-TOL,district,,7.7,,,5,America/Belize,FALSE,1084935270
"Silver Creek Camp","Silver Creek Camp","Silver Creek Bank",16.7000,-88.4667,Belize,BZ,BLZ,"Stann Creek","Stann Creek",BZ-SC,district,,21.0,,,4,America/Belize,FALSE,1084749235
"Chan Bank","Chan Bank","Chun Bank",16.5385,-88.7022,Belize,BZ,BLZ,Toledo,Toledo,BZ-TOL,district,,7.7,,,5,America/Belize,FALSE,1084849172
Bakers,Bakers,,17.5500,-88.3833,Belize,BZ,BLZ,Belize,Belize,BZ-BZ,district,,49.2,,,4,America/Belize,FALSE,1084676969
"Burnham Hall","Burnham Hall",,17.7000,-88.6667,Belize,BZ,BLZ,"Orange Walk","Orange Walk",BZ-OW,district,,11.3,,,4,America/Belize,FALSE,1084653921
Corozalito,Corozalito,Corosalito|Gorosalito,17.9614,-88.8034,Belize,BZ,BLZ,"Orange Walk","Orange Walk",BZ-OW,district,,7.4,,,5,America/Belize,FALSE,1084910214
"Blossom Bank","Blossom Bank",,18.1625,-88.4927,Belize,BZ,BLZ,"Orange Walk","Orange Walk",BZ-OW,district,,11.3,,,4,America/Belize,FALSE,1084014983
"New Mahbilla","New Mahbilla",,16.1054,-89.0801,Belize,BZ,BLZ,Toledo,Toledo,BZ-TOL,district,,7.7,,,5,America/Belize,FALSE,1084272909
"Big Falls","Big Falls",,17.4947,-88.5846,Belize,BZ,BLZ,Belize,Belize,BZ-BZ,district,,18.3,,,4,America/Belize,FALSE,1084267417
"Santa Cruz","Santa Cruz",,16.1841,-89.2053,Belize,BZ,BLZ,Toledo,Toledo,BZ-TOL,district,,21.5,,,4,America/Belize,FALSE,1084069775
"San Pedro","San Pedro",,18.3381,-88.4956,Belize,BZ,BLZ,Corozal,Corozal,BZ-CZL,district,,29.9,,,3,America/Belize,FALSE,1084188982
Carmelita,Carmelita,,17.1875,-89.0686,Belize,BZ,BLZ,Cayo,Cayo,BZ-CY,district,,18.3,,,4,America/Belize,FALSE,1084532457
Wamil,Wamil,,17.5445,-88.9349,Belize,BZ,BLZ,"Orange Walk","Orange Walk",BZ-OW,district,,11.3,,,4,America/Belize,FALSE,1084785977
Campechito,Campechito,,18.1574,-88.6805,Belize,BZ,BLZ,"Orange Walk","Orange Walk",BZ-OW,district,,7.3,,,5,America/Belize,FALSE,1084356210
"El Arenal","El Arenal",Arenal,17.0231,-89.1508,Belize,BZ,BLZ,Cayo,Cayo,BZ-CY,district,,9.7,,,5,America/Guatemala,FALSE,1084000006
Unitedville,Unitedville,,17.2128,-88.9367,Belize,BZ,BLZ,Cayo,Cayo,BZ-CY,district,,18.3,,,4,America/Belize,FALSE,1084995408
"Baldy Sibun","Baldy Sibun",,16.9936,-88.7408,Belize,BZ,BLZ,Cayo,Cayo,BZ-CY,district,,18.3,,,4,America/Belize,FALSE,1084911423
"Cedar Bank","Cedar Bank",,17.3858,-88.4387,Belize,BZ,BLZ,Belize,Belize,BZ-BZ,district,,49.2,,,4,America/Belize,FALSE,1084124089
"Barton Ramie","Barton Ramie",,17.2098,-88.9739,Belize,BZ,BLZ,Cayo,Cayo,BZ-CY,district,,18.3,,,4,America/Belize,FALSE,1084099103
"San Jose","San Jose",Hawiia,16.2661,-89.0950,Belize,BZ,BLZ,Toledo,Toledo,BZ-TOL,district,,7.7,,,5,America/Belize,FALSE,1084801801
"Cotton Tree","Cotton Tree",,17.2758,-88.7133,Belize,BZ,BLZ,Cayo,Cayo,BZ-CY,district,,18.3,,,4,America/Belize,FALSE,1084740772
"Davis Bank","Davis Bank",,17.6446,-88.3959,Belize,BZ,BLZ,Belize,Belize,BZ-BZ,district,,49.2,,,4,America/Belize,FALSE,1084027336
"Red Bank Village","Red Bank Village",,16.6164,-88.5591,Belize,BZ,BLZ,"Stann Creek","Stann Creek",BZ-SC,district,,7.7,,,5,America/Belize,FALSE,1084943776
Coquericot,Coquericot,Cocquericot,17.4227,-88.6224,Belize,BZ,BLZ,Cayo,Cayo,BZ-CY,district,,18.3,,,4,America/Belize,FALSE,1084472580
"Aguacate Camp","Aguacate Camp",,16.7071,-89.0502,Belize,BZ,BLZ,Cayo,Cayo,BZ-CY,district,,18.3,,,4,America/Belize,FALSE,1084650334
Rancho,Rancho,,17.9594,-88.3725,Belize,BZ,BLZ,"Orange Walk","Orange Walk",BZ-OW,district,,33.2,,,4,America/Belize,FALSE,1084793501
Santana,Santana,"Santa Ana|Santana Village",17.8000,-88.2833,Belize,BZ,BLZ,Belize,Belize,BZ-BZ,district,,49.2,,,4,America/Belize,FALSE,1084923831
"Rancho Corozal","Rancho Corozal",,18.2560,-88.4073,Belize,BZ,BLZ,Corozal,Corozal,BZ-CZL,district,,29.9,,,4,America/Belize,FALSE,1084571342
"Red Bank","Red Bank",,16.7630,-88.4927,Belize,BZ,BLZ,"Stann Creek","Stann Creek",BZ-SC,district,,21.0,,,4,America/Belize,FALSE,1084970261
"Solomon Camp","Solomon Camp",,16.5578,-88.7565,Belize,BZ,BLZ,Toledo,Toledo,BZ-TOL,district,,7.7,,,5,America/Belize,FALSE,1084430960
"Big Fall","Big Fall",,16.2569,-88.8910,Belize,BZ,BLZ,Toledo,Toledo,BZ-TOL,district,,7.7,,,5,America/Belize,FALSE,1084636718
"Dry Creek Bank","Dry Creek Bank",,17.1706,-88.5962,Belize,BZ,BLZ,Cayo,Cayo,BZ-CY,district,,18.3,,,4,America/Belize,FALSE,1084524659
Pettville,Pettville,,18.0782,-88.5394,Belize,BZ,BLZ,"Orange Walk","Orange Walk",BZ-OW,district,,11.3,,,4,America/Belize,FALSE,1084046809
"Garbutt’s Falls","Garbutt's Falls",,17.0551,-89.1452,Belize,BZ,BLZ,Cayo,Cayo,BZ-CY,district,,14.4,,,4,America/Belize,FALSE,1084504821
"Buena Vista","Buena Vista",,18.2369,-88.5266,Belize,BZ,BLZ,Corozal,Corozal,BZ-CZL,district,,11.3,,,4,America/Belize,FALSE,1084933883
"Santa Clara","Santa Clara",,18.2941,-88.5122,Belize,BZ,BLZ,Corozal,Corozal,BZ-CZL,district,,11.3,,,4,America/Belize,FALSE,1084650104
"Villa Alfonso","Villa Alfonso",,18.2833,-88.4500,Belize,BZ,BLZ,Corozal,Corozal,BZ-CZL,district,,29.9,,,4,America/Belize,FALSE,1084085481
Bomba,Bomba,,17.8833,-88.2667,Belize,BZ,BLZ,Belize,Belize,BZ-BZ,district,,49.2,,,4,America/Belize,FALSE,1084376789
Corozalito,Corozalito,,18.1024,-88.3764,Belize,BZ,BLZ,Corozal,Corozal,BZ-CZL,district,,11.3,,,4,America/Belize,FALSE,1084719803
"Buena Vista","Buena Vista",,17.1167,-89.1167,Belize,BZ,BLZ,Cayo,Cayo,BZ-CY,district,,18.3,,,4,America/Belize,FALSE,1084654292
"New Haven","New Haven",,16.2542,-88.5905,Belize,BZ,BLZ,Toledo,Toledo,BZ-TOL,district,,7.7,,,5,America/Belize,FALSE,1084477492
"Andersons Camp","Andersons Camp",,17.7167,-89.0167,Belize,BZ,BLZ,"Orange Walk","Orange Walk",BZ-OW,district,,11.3,,,4,America/Belize,FALSE,1084544483
"San Miguel","San Miguel",,17.1825,-89.0235,Belize,BZ,BLZ,Cayo,Cayo,BZ-CY,district,,18.3,,,4,America/Belize,FALSE,1084118454
"Burrell Boom","Burrell Boom","Boon Town|Boom Town|Burrell’s Town|Boom",17.5667,-88.4000,Belize,BZ,BLZ,Belize,Belize,BZ-BZ,district,,49.2,,,4,America/Belize,FALSE,1084021387
Hopital,Hopital,,16.4667,-88.9667,Belize,BZ,BLZ,Toledo,Toledo,BZ-TOL,district,,7.7,,,5,America/Belize,FALSE,1084494020
"Old Mabilha","Old Mabilha",,16.1074,-89.0956,Belize,BZ,BLZ,Toledo,Toledo,BZ-TOL,district,,7.7,,,5,America/Belize,FALSE,1084117647
"Dancing Pool","Dancing Pool",,16.8312,-88.4374,Belize,BZ,BLZ,"Stann Creek","Stann Creek",BZ-SC,district,,21.0,,,4,America/Belize,FALSE,1084875026
"Lucky Strike","Lucky Strike","Lucky Strike Camp",17.7667,-88.3167,Belize,BZ,BLZ,Belize,Belize,BZ-BZ,district,,49.2,,,4,America/Belize,FALSE,1084209207
"More Force","More Force",,17.8426,-88.3690,Belize,BZ,BLZ,Belize,Belize,BZ-BZ,district,,49.2,,,4,America/Belize,FALSE,1084807542
Pomona,Pomona,,16.9951,-88.3742,Belize,BZ,BLZ,"Stann Creek","Stann Creek",BZ-SC,district,,21.0,,,4,America/Belize,FALSE,1084179466
Aventura,Aventura,,18.3301,-88.4488,Belize,BZ,BLZ,Corozal,Corozal,BZ-CZL,district,,29.9,,,4,America/Belize,FALSE,1084211988
"Pescado Camp","Pescado Camp",Pescado,17.3576,-89.1068,Belize,BZ,BLZ,"Orange Walk","Orange Walk",BZ-OW,district,,18.3,,,4,America/Belize,FALSE,1084505797
Pucte,Pucte,,18.1364,-88.4382,Belize,BZ,BLZ,Corozal,Corozal,BZ-CZL,district,,11.3,,,4,America/Belize,FALSE,1084809489
"San Felipe","San Felipe",,16.1326,-88.9050,Belize,BZ,BLZ,Toledo,Toledo,BZ-TOL,district,,7.7,,,5,America/Belize,FALSE,1084894010
"Logan’s Bank","Logan's Bank",,16.4894,-88.5428,Belize,BZ,BLZ,Toledo,Toledo,BZ-TOL,district,,7.7,,,5,America/Belize,FALSE,1084579521
"Mammee Camp","Mammee Camp",,17.3971,-88.9967,Belize,BZ,BLZ,"Orange Walk","Orange Walk",BZ-OW,district,,18.3,,,4,America/Belize,FALSE,1084010314
"Little Bermudian Landing","Little Bermudian Landing",,17.5753,-88.5419,Belize,BZ,BLZ,Belize,Belize,BZ-BZ,district,,49.2,,,4,America/Belize,FALSE,1084502571
"La Democracia","La Democracia",,17.3333,-88.5500,Belize,BZ,BLZ,Belize,Belize,BZ-BZ,district,,18.3,,,4,America/Belize,FALSE,1084465654
"Santa Cruz","Santa Cruz",,18.1000,-88.7333,Belize,BZ,BLZ,"Orange Walk","Orange Walk",BZ-OW,district,,9.2,,,5,America/Cancun,FALSE,1084436192
Providencien,Providencien,,17.1431,-89.1362,Belize,BZ,BLZ,Cayo,Cayo,BZ-CY,district,,18.3,,,4,America/Belize,FALSE,1084052787
"Tres Leguas","Tres Leguas",,17.8876,-88.9571,Belize,BZ,BLZ,"Orange Walk","Orange Walk",BZ-OW,district,,11.3,,,4,America/Belize,FALSE,1084096411
"San Pastor Camp","San Pastor Camp","San Pastor",16.7162,-88.9901,Belize,BZ,BLZ,Cayo,Cayo,BZ-CY,district,,18.3,,,4,America/Belize,FALSE,1084169663
"Washing Tree","Washing Tree","Washing Tree Work",17.6853,-88.4604,Belize,BZ,BLZ,Belize,Belize,BZ-BZ,district,,49.2,,,4,America/Belize,FALSE,1084358063
"Trio Village","Trio Village",,16.5208,-88.6537,Belize,BZ,BLZ,Toledo,Toledo,BZ-TOL,district,,7.7,,,5,America/Belize,FALSE,1084491230
"Pascua Camp","Pascua Camp","Pascua Camp Two",17.4038,-89.0441,Belize,BZ,BLZ,"Orange Walk","Orange Walk",BZ-OW,district,,18.3,,,4,America/Belize,FALSE,1084169030
Kendal,Kendal,"Plaza Grande",16.8113,-88.3821,Belize,BZ,BLZ,"Stann Creek","Stann Creek",BZ-SC,district,,21.0,,,4,America/Belize,FALSE,1084474551
Neustadt,Neustadt,,17.9075,-89.0420,Belize,BZ,BLZ,"Orange Walk","Orange Walk",BZ-OW,district,,11.3,,,4,America/Belize,FALSE,1084265846
Corozon,Corozon,,16.0553,-89.1242,Belize,BZ,BLZ,Toledo,Toledo,BZ-TOL,district,,7.7,,,5,America/Belize,FALSE,1084205502
"Sierra de Agua","Sierra de Agua",,17.5436,-88.8784,Belize,BZ,BLZ,"Orange Walk","Orange Walk",BZ-OW,district,,11.3,,,4,America/Belize,FALSE,1084317285
Concepcion,Concepcion,,18.3231,-88.4742,Belize,BZ,BLZ,Corozal,Corozal,BZ-CZL,district,,29.9,,,4,America/Belize,FALSE,1084528393
Tacistal,Tacistal,Tasital|Tacital,17.8976,-88.7576,Belize,BZ,BLZ,"Orange Walk","Orange Walk",BZ-OW,district,,11.3,,,4,America/Belize,FALSE,1084483789
"Duck Run","Duck Run",,17.2189,-89.0197,Belize,BZ,BLZ,Cayo,Cayo,BZ-CY,district,,18.3,,,4,America/Belize,FALSE,1084109676
"Never Delay","Never Delay",,17.3205,-88.7606,Belize,BZ,BLZ,Cayo,Cayo,BZ-CY,district,,18.3,,,4,America/Belize,FALSE,1084779908
Libertad,Libertad,"Pembroke Hall",18.3079,-88.4544,Belize,BZ,BLZ,Corozal,Corozal,BZ-CZL,district,,29.9,,,4,America/Belize,FALSE,1084459776
"Chacan Chac Mol","Chacan Chac Mol","Chakan Chak Mol",18.2738,-88.2574,Belize,BZ,BLZ,Corozal,Corozal,BZ-CZL,district,,29.9,,,4,America/Belize,FALSE,1084017238
Joventud,Joventud,,16.1151,-89.1673,Belize,BZ,BLZ,Toledo,Toledo,BZ-TOL,district,,7.7,,,5,America/Belize,FALSE,1084054069
"Chan Bank","Chan Bank",,18.2167,-88.5000,Belize,BZ,BLZ,Corozal,Corozal,BZ-CZL,district,,11.3,,,4,America/Belize,FALSE,1084627007
"San Juan","San Juan",,16.5679,-88.5402,Belize,BZ,BLZ,Toledo,Toledo,BZ-TOL,district,,7.7,,,5,America/Belize,FALSE,1084792363
"New Home","New Home",,16.7412,-88.6343,Belize,BZ,BLZ,"Stann Creek","Stann Creek",BZ-SC,district,,21.0,,,4,America/Belize,FALSE,1084228558
"San Jose Palmar","San Jose Palmar","San Jose Palmer",18.0650,-88.5619,Belize,BZ,BLZ,"Orange Walk","Orange Walk",BZ-OW,district,,11.3,,,4,America/Belize,FALSE,1084543068
Calcutta,Calcutta,,18.3500,-88.4333,Belize,BZ,BLZ,Corozal,Corozal,BZ-CZL,district,,29.9,,,4,America/Belize,FALSE,1084581095
Douglas,Douglas,,18.2375,-88.6017,Belize,BZ,BLZ,"Orange Walk","Orange Walk",BZ-OW,district,,10.1,,,4,America/Belize,FALSE,1084090589
"San Miguel","San Miguel",,16.2930,-88.9320,Belize,BZ,BLZ,Toledo,Toledo,BZ-TOL,district,,7.7,,,5,America/Belize,FALSE,1084500153
Cowpen,Cowpen,,16.5667,-88.5333,Belize,BZ,BLZ,"Stann Creek","Stann Creek",BZ-SC,district,,7.7,,,5,America/Belize,FALSE,1084081814
"Round Hole Bank","Round Hole Bank",,16.7003,-89.1131,Belize,BZ,BLZ,Cayo,Cayo,BZ-CY,district,,18.3,,,4,America/Belize,FALSE,1084881283
"Shipstern Landing","Shipstern Landing",,18.2333,-88.1844,Belize,BZ,BLZ,Corozal,Corozal,BZ-CZL,district,,29.9,,,4,America/Belize,FALSE,1084026003
"New Home","New Home",,18.1154,-88.4445,Belize,BZ,BLZ,Corozal,Corozal,BZ-CZL,district,,11.3,,,4,America/Belize,FALSE,1084746191
"Gallon Jug","Gallon Jug",,17.5620,-89.0467,Belize,BZ,BLZ,"Orange Walk","Orange Walk",BZ-OW,district,,11.3,,,4,America/Belize,FALSE,1084810553
Lagarto,Lagarto,Logarto,17.3973,-89.1404,Belize,BZ,BLZ,"Orange Walk","Orange Walk",BZ-OW,district,,18.3,,,4,America/Belize,FALSE,1084398190
"Duffy Bank","Duffy Bank",,17.1197,-89.0631,Belize,BZ,BLZ,Cayo,Cayo,BZ-CY,district,,18.3,,,4,America/Belize,FALSE,1084255153
"Ferguson Bank","Ferguson Bank",,17.4419,-88.2953,Belize,BZ,BLZ,Belize,Belize,BZ-BZ,district,,49.2,,,4,America/Belize,FALSE,1084093482
Corozal,Corozal,,17.4053,-89.0811,Belize,BZ,BLZ,"Orange Walk","Orange Walk",BZ-OW,district,,18.3,,,4,America/Belize,FALSE,1084399994
"Grace Bank","Grace Bank",,17.6511,-88.3997,Belize,BZ,BLZ,Belize,Belize,BZ-BZ,district,,49.2,,,4,America/Belize,FALSE,1084071157
Chapayal,Chapayal,,16.7817,-89.1392,Belize,BZ,BLZ,Cayo,Cayo,BZ-CY,district,,18.3,,,4,America/Belize,FALSE,1084161995
"Water Bank","Water Bank",,17.7891,-88.6407,Belize,BZ,BLZ,"Orange Walk","Orange Walk",BZ-OW,district,,11.3,,,4,America/Belize,FALSE,1084599940
"Fermin Reyes","Fermin Reyes",,17.2589,-89.0536,Belize,BZ,BLZ,Cayo,Cayo,BZ-CY,district,,18.3,,,4,America/Belize,FALSE,1084990287
"Hill Bank","Hill Bank",,18.2456,-88.3945,Belize,BZ,BLZ,Corozal,Corozal,BZ-CZL,district,,29.9,,,4,America/Belize,FALSE,1084911152
"Cedar Crossing","Cedar Crossing",,17.6911,-89.0280,Belize,BZ,BLZ,"Orange Walk","Orange Walk",BZ-OW,district,,11.3,,,4,America/Belize,FALSE,1084962973
Louisville,Louisville,,18.3195,-88.5098,Belize,BZ,BLZ,Corozal,Corozal,BZ-CZL,district,,29.9,,,4,America/Belize,FALSE,1084206113
"San Andres","San Andres",,18.3892,-88.4094,Belize,BZ,BLZ,Corozal,Corozal,BZ-CZL,district,,29.9,,,4,America/Belize,FALSE,1084294561
"Tres Leguas Mennonite Settlement","Tres Leguas Mennonite Settlement","Tres Leguas Menonite Settlement",17.8843,-88.9170,Belize,BZ,BLZ,"Orange Walk","Orange Walk",BZ-OW,district,,11.3,,,4,America/Belize,FALSE,1084649041
Edenthal,Edenthal,"Campamento Tintal|Tintal",17.9271,-88.9820,Belize,BZ,BLZ,"Orange Walk","Orange Walk",BZ-OW,district,,11.3,,,4,America/Belize,FALSE,1084413203
Esparasca,Esparasca,,16.4391,-88.5237,Belize,BZ,BLZ,Toledo,Toledo,BZ-TOL,district,,7.7,,,5,America/Belize,FALSE,1084946006
"La Flor Camp","La Flor Camp","Campamento La Flor",16.6227,-89.0092,Belize,BZ,BLZ,Cayo,Cayo,BZ-CY,district,,7.7,,,5,America/Belize,FALSE,1084177033
"Canada Hill","Canada Hill",,16.9852,-88.3266,Belize,BZ,BLZ,"Stann Creek","Stann Creek",BZ-SC,district,,21.0,,,4,America/Belize,FALSE,1084027743
Sittee,Sittee,,16.8333,-88.2833,Belize,BZ,BLZ,"Stann Creek","Stann Creek",BZ-SC,district,,21.0,,,4,America/Belize,FALSE,1084452945
"Jacinto Landing","Jacinto Landing","Jacinto Lodge",16.1667,-88.8500,Belize,BZ,BLZ,Toledo,Toledo,BZ-TOL,district,,7.7,,,5,America/Belize,FALSE,1084025240
"Cadena Creek Camp","Cadena Creek Camp","Cadena Camp",17.2833,-89.1000,Belize,BZ,BLZ,Cayo,Cayo,BZ-CY,district,,18.3,,,4,America/Belize,FALSE,1084718627
Meditation,Meditation,,17.3866,-88.7268,Belize,BZ,BLZ,Cayo,Cayo,BZ-CY,district,,18.3,,,4,America/Belize,FALSE,1084196895
"Good Living Camp","Good Living Camp",,17.1176,-88.6573,Belize,BZ,BLZ,Cayo,Cayo,BZ-CY,district,,18.3,,,4,America/Belize,FALSE,1084772750
"Driving Camp","Driving Camp",,17.8167,-88.8167,Belize,BZ,BLZ,"Orange Walk","Orange Walk",BZ-OW,district,,11.3,,,4,America/Belize,FALSE,1084282632
"Big Creek","Big Creek",Hercules,16.5142,-88.4044,Belize,BZ,BLZ,"Stann Creek","Stann Creek",BZ-SC,district,,7.7,,,5,America/Belize,FALSE,1084664570
"Watters Bank","Watters Bank",,17.3120,-88.3561,Belize,BZ,BLZ,Belize,Belize,BZ-BZ,district,,49.2,,,4,America/Belize,FALSE,1084474513
"Quarry Hill","Quarry Hill",,16.9968,-88.3593,Belize,BZ,BLZ,"Stann Creek","Stann Creek",BZ-SC,district,,21.0,,,4,America/Belize,FALSE,1084532533
"Boom Creek","Boom Creek",,16.0731,-88.9068,Belize,BZ,BLZ,Toledo,Toledo,BZ-TOL,district,,7.7,,,5,America/Belize,FALSE,1084819656
"Rito Bonillo","Rito Bonillo",,16.4275,-89.1144,Belize,BZ,BLZ,Toledo,Toledo,BZ-TOL,district,,7.7,,,5,America/Belize,FALSE,1084058777
"Swasey Branch Barquedier","Swasey Branch Barquedier",,18.1876,-88.4717,Belize,BZ,BLZ,Corozal,Corozal,BZ-CZL,district,,11.3,,,4,America/Belize,FALSE,1084166611
"Commerce Bight Village","Commerce Bight Village",,16.8681,-88.3099,Belize,BZ,BLZ,"Stann Creek","Stann Creek",BZ-SC,district,,21.0,,,4,America/Belize,FALSE,1084410223
Rejolla,Rejolla,,17.4195,-89.1213,Belize,BZ,BLZ,"Orange Walk","Orange Walk",BZ-OW,district,,18.3,,,4,America/Belize,FALSE,1084650662
"San Lorenzo","San Lorenzo",,17.0998,-89.1275,Belize,BZ,BLZ,Cayo,Cayo,BZ-CY,district,,18.3,,,4,America/Belize,FALSE,1084433772
"Hamidli Creek Settlement","Hamidli Creek Settlement",,16.2200,-88.9017,Belize,BZ,BLZ,Toledo,Toledo,BZ-TOL,district,,7.7,,,5,America/Belize,FALSE,1084327681
Laguna,Laguna,,18.3825,-88.5180,Belize,BZ,BLZ,Corozal,Corozal,BZ-CZL,district,,29.9,,,4,America/Belize,FALSE,1084421683
"Silver Creek Bank","Silver Creek Bank",,16.7010,-88.4898,Belize,BZ,BLZ,"Stann Creek","Stann Creek",BZ-SC,district,,21.0,,,4,America/Belize,FALSE,1084692638
"Savannah Bank","Savannah Bank",,17.1907,-88.8053,Belize,BZ,BLZ,Cayo,Cayo,BZ-CY,district,,18.3,,,4,America/Belize,FALSE,1084288393
"Pueblo Viejo","Pueblo Viejo","San Antonio Viejo",16.2053,-89.1417,Belize,BZ,BLZ,Toledo,Toledo,BZ-TOL,district,,7.7,,,5,America/Belize,FALSE,1084941736
"San Fernando","San Fernando","Copper Bank",18.3211,-88.3559,Belize,BZ,BLZ,Corozal,Corozal,BZ-CZL,district,,29.9,,,4,America/Belize,FALSE,1084587546
Saltillo,Saltillo,,18.3146,-88.3926,Belize,BZ,BLZ,Corozal,Corozal,BZ-CZL,district,,29.9,,,4,America/Belize,FALSE,1084188876
Burgos,Burgos,,16.4450,-89.1103,Belize,BZ,BLZ,Toledo,Toledo,BZ-TOL,district,,7.7,,,5,America/Belize,FALSE,1084116165
Xcanha,Xcanha,Ixcanhá,18.0040,-88.3582,Belize,BZ,BLZ,"Orange Walk","Orange Walk",BZ-OW,district,,11.3,,,4,America/Belize,FALSE,1084166785
"Rancho Dolores","Rancho Dolores",Dolores,17.5300,-88.6200,Belize,BZ,BLZ,Belize,Belize,BZ-BZ,district,,11.3,,,4,America/Belize,FALSE,1084363435
"Cowboy Camp","Cowboy Camp",,16.7381,-89.1250,Belize,BZ,BLZ,Cayo,Cayo,BZ-CY,district,,18.3,,,4,America/Belize,FALSE,1084500479
Gongora,Gongora,,17.7000,-88.9500,Belize,BZ,BLZ,"Orange Walk","Orange Walk",BZ-OW,district,,11.3,,,4,America/Belize,FALSE,1084713718
"Lagarto Bank","Lagarto Bank",,16.6629,-88.5896,Belize,BZ,BLZ,"Stann Creek","Stann Creek",BZ-SC,district,,21.0,,,4,America/Belize,FALSE,1084328807
"High Sand","High Sand",High,16.8263,-88.3095,Belize,BZ,BLZ,"Stann Creek","Stann Creek",BZ-SC,district,,21.0,,,4,America/Belize,FALSE,1084648240
Blumenfeld,Blumenfeld,,17.8639,-88.9177,Belize,BZ,BLZ,"Orange Walk","Orange Walk",BZ-OW,district,,11.3,,,4,America/Belize,FALSE,1084024580
"Rockstone Pond","Rockstone Pond",,17.7500,-88.3333,Belize,BZ,BLZ,Belize,Belize,BZ-BZ,district,,49.2,,,4,America/Belize,FALSE,1084136783
"Rice Station","Rice Station",,16.1359,-88.8439,Belize,BZ,BLZ,Toledo,Toledo,BZ-TOL,district,,7.7,,,5,America/Belize,FALSE,1084400934
Chial,Chial,,17.1049,-89.1134,Belize,BZ,BLZ,Cayo,Cayo,BZ-CY,district,,18.3,,,4,America/Belize,FALSE,1084447742
"Honey Camp","Honey Camp",,18.0327,-88.4501,Belize,BZ,BLZ,"Orange Walk","Orange Walk",BZ-OW,district,,11.3,,,4,America/Belize,FALSE,1084161331
"San Margos","San Margos",,16.2167,-88.9010,Belize,BZ,BLZ,Toledo,Toledo,BZ-TOL,district,,7.7,,,5,America/Belize,FALSE,1084585228
Hellgate,Hellgate,,16.3609,-88.7971,Belize,BZ,BLZ,Toledo,Toledo,BZ-TOL,district,,7.7,,,5,America/Belize,FALSE,1084593514
"Sibun Camp","Sibun Camp",,17.0949,-88.6566,Belize,BZ,BLZ,Cayo,Cayo,BZ-CY,district,,18.3,,,4,America/Belize,FALSE,1084571962
Trinidad,Trinidad,,18.0236,-88.6870,Belize,BZ,BLZ,"Orange Walk","Orange Walk",BZ-OW,district,,11.3,,,4,America/Belize,FALSE,1084175567
"Bull Run Ranch","Bull Run Ranch",,17.0464,-88.9092,Belize,BZ,BLZ,Cayo,Cayo,BZ-CY,district,,18.3,,,4,America/Belize,FALSE,1084682001
"Silvester’s Camp","Silvester's Camp",,17.5871,-89.0922,Belize,BZ,BLZ,"Orange Walk","Orange Walk",BZ-OW,district,,11.3,,,4,America/Belize,FALSE,1084000005
"May Pen","May Pen",,17.6500,-88.4667,Belize,BZ,BLZ,Belize,Belize,BZ-BZ,district,,49.2,,,4,America/Belize,FALSE,1084220116
"Nimu Punit","Nimu Punit",,16.3213,-88.8156,Belize,BZ,BLZ,Toledo,Toledo,BZ-TOL,district,,7.7,,,5,America/Belize,FALSE,1084913507
Nafreda,Nafreda,,16.2389,-88.9915,Belize,BZ,BLZ,Toledo,Toledo,BZ-TOL,district,,7.7,,,5,America/Belize,FALSE,1084123920
Gnadenfeld,Gnadenfeld,,17.8722,-88.9173,Belize,BZ,BLZ,"Orange Walk","Orange Walk",BZ-OW,district,,11.3,,,4,America/Belize,FALSE,1084799430
Rockville,Rockville,,17.4000,-88.4667,Belize,BZ,BLZ,Belize,Belize,BZ-BZ,district,,49.2,,,4,America/Belize,FALSE,1084070906
Machaca,Machaca,Machage,16.1403,-89.1150,Belize,BZ,BLZ,Toledo,Toledo,BZ-TOL,district,,7.7,,,5,America/Belize,FALSE,1084294800
"Iguana Creek Bank","Iguana Creek Bank",,17.2347,-88.9280,Belize,BZ,BLZ,Cayo,Cayo,BZ-CY,district,,18.3,,,4,America/Belize,FALSE,1084345105
"San Roman","San Roman",,18.1920,-88.6430,Belize,BZ,BLZ,"Orange Walk","Orange Walk",BZ-OW,district,,1.8,,,5,America/Belize,FALSE,1084168671
"San Lorenzo","San Lorenzo",,18.1407,-88.6224,Belize,BZ,BLZ,"Orange Walk","Orange Walk",BZ-OW,district,,11.3,,,4,America/Belize,FALSE,1084474757
Bocotora,Bocotora,,17.2575,-88.4345,Belize,BZ,BLZ,Belize,Belize,BZ-BZ,district,,49.2,,,4,America/Belize,FALSE,1084761795
"Tropical Park","Tropical Park",,17.4667,-88.3833,Belize,BZ,BLZ,Belize,Belize,BZ-BZ,district,,49.2,,,4,America/Belize,FALSE,1084808450
"Crique Jute","Crique Jute",,16.2667,-89.0167,Belize,BZ,BLZ,Toledo,Toledo,BZ-TOL,district,,7.7,,,5,America/Belize,FALSE,1084449486
Estero,Estero,,18.4125,-88.5024,Belize,BZ,BLZ,Corozal,Corozal,BZ-CZL,district,,29.9,,,4,America/Belize,FALSE,1084057495
Jalacte,Jalacte,,16.2019,-89.2014,Belize,BZ,BLZ,Toledo,Toledo,BZ-TOL,district,,25.0,,,4,America/Belize,FALSE,1084555930
"Santa Rosa Village","Santa Rosa Village",,16.6662,-88.4544,Belize,BZ,BLZ,"Stann Creek","Stann Creek",BZ-SC,district,,21.0,,,4,America/Belize,FALSE,1084214653
"Baking Pot","Baking Pot",,17.2008,-89.0130,Belize,BZ,BLZ,Cayo,Cayo,BZ-CY,district,,18.3,,,4,America/Belize,FALSE,1084829616
"Kaway Camp","Kaway Camp",,17.3822,-89.0658,Belize,BZ,BLZ,"Orange Walk","Orange Walk",BZ-OW,district,,18.3,,,4,America/Belize,FALSE,1084506732
"Old Marbel Ha","Old Marbel Ha",,16.0996,-89.0990,Belize,BZ,BLZ,Toledo,Toledo,BZ-TOL,district,,7.7,,,5,America/Belize,FALSE,1084202953
Aguacate,Aguacate,Aguacale|Aquacate,16.1617,-89.0917,Belize,BZ,BLZ,Toledo,Toledo,BZ-TOL,district,,7.7,,,5,America/Belize,FALSE,1084377654
"Cowhead Creek","Cowhead Creek",,17.7617,-88.3126,Belize,BZ,BLZ,Belize,Belize,BZ-BZ,district,,49.2,,,4,America/Belize,FALSE,1084813408
"Inda Vista","Inda Vista",,17.8985,-88.8909,Belize,BZ,BLZ,"Orange Walk","Orange Walk",BZ-OW,district,,11.3,,,4,America/Belize,FALSE,1084798153
Rosita,Rosita,,17.8868,-88.9169,Belize,BZ,BLZ,"Orange Walk","Orange Walk",BZ-OW,district,,11.3,,,4,America/Belize,FALSE,1084903133
"Santiago Jalacte","Santiago Jalacte",,16.2450,-89.2020,Belize,BZ,BLZ,Toledo,Toledo,BZ-TOL,district,,33.5,,,4,America/Belize,FALSE,1084168293
"San Luis","San Luis",,18.1918,-88.6030,Belize,BZ,BLZ,"Orange Walk","Orange Walk",BZ-OW,district,,11.3,,,4,America/Belize,FALSE,1084395669
Xcanluum,Xcanluum,,18.3981,-88.4605,Belize,BZ,BLZ,Corozal,Corozal,BZ-CZL,district,,29.9,,,4,America/Belize,FALSE,1084394611
"Valentin Camp","Valentin Camp",,16.7664,-89.1625,Belize,BZ,BLZ,Cayo,Cayo,BZ-CY,district,,18.6,,,4,America/Belize,FALSE,1084527936
"Alabama Wharf","Alabama Wharf",,16.5333,-88.4000,Belize,BZ,BLZ,"Stann Creek","Stann Creek",BZ-SC,district,,7.7,,,5,America/Belize,FALSE,1084777199
"Quatro Leguas","Quatro Leguas",,17.9168,-88.9825,Belize,BZ,BLZ,"Orange Walk","Orange Walk",BZ-OW,district,,11.3,,,4,America/Belize,FALSE,1084299038
Backlanding,Backlanding,,17.8384,-88.6080,Belize,BZ,BLZ,"Orange Walk","Orange Walk",BZ-OW,district,,11.3,,,4,America/Belize,FALSE,1084943059
"Branch Mouth","Branch Mouth",,17.1806,-89.0811,Belize,BZ,BLZ,Cayo,Cayo,BZ-CY,district,,18.3,,,4,America/Belize,FALSE,1084366781
"Blue Hole Camp","Blue Hole Camp",,16.7919,-88.9386,Belize,BZ,BLZ,Cayo,Cayo,BZ-CY,district,,18.3,,,4,America/Belize,FALSE,1084049655
"Arabato Camp","Arabato Camp",,16.6171,-89.0569,Belize,BZ,BLZ,Cayo,Cayo,BZ-CY,district,,7.7,,,5,America/Belize,FALSE,1084162155
Chorro,Chorro,,17.2550,-89.1239,Belize,BZ,BLZ,Cayo,Cayo,BZ-CY,district,,18.3,,,4,America/Belize,FALSE,1084753426
"Cristo Rey","Cristo Rey",,17.1281,-89.0550,Belize,BZ,BLZ,Cayo,Cayo,BZ-CY,district,,18.3,,,4,America/Belize,FALSE,1084359046
"Sale si Puede","Sale si Puede",,16.7133,-88.6361,Belize,BZ,BLZ,"Stann Creek","Stann Creek",BZ-SC,district,,21.0,,,4,America/Belize,FALSE,1084332697
"Perry Bank","Perry Bank",,16.6098,-88.5767,Belize,BZ,BLZ,Toledo,Toledo,BZ-TOL,district,,7.7,,,5,America/Belize,FALSE,1084170425
"Joe Wagner Boom","Joe Wagner Boom",,17.4234,-88.3643,Belize,BZ,BLZ,Belize,Belize,BZ-BZ,district,,49.2,,,4,America/Belize,FALSE,1084807818
"Chan Limón","Chan Limon","Chan Limon",17.3617,-89.1385,Belize,BZ,BLZ,"Orange Walk","Orange Walk",BZ-OW,district,,18.3,,,4,America/Belize,FALSE,1084851508
Piebra,Piebra,,16.1043,-88.9391,Belize,BZ,BLZ,Toledo,Toledo,BZ-TOL,district,,7.7,,,5,America/Belize,FALSE,1084728477
Regalia,Regalia,,16.8128,-88.3320,Belize,BZ,BLZ,"Stann Creek","Stann Creek",BZ-SC,district,,21.0,,,4,America/Belize,FALSE,1084994657
Reinland,Reinland,,17.8821,-88.8825,Belize,BZ,BLZ,"Orange Walk","Orange Walk",BZ-OW,district,,11.3,,,4,America/Belize,FALSE,1084114990
Castile,Castile,,17.3646,-88.6668,Belize,BZ,BLZ,Cayo,Cayo,BZ-CY,district,,18.3,,,4,America/Belize,FALSE,1084170927
"Golden Stream Village","Golden Stream Village",,16.3635,-88.8054,Belize,BZ,BLZ,Toledo,Toledo,BZ-TOL,district,,7.7,,,5,America/Belize,FALSE,1084201059
"Santa Rosea","Santa Rosea",,16.2782,-89.1994,Belize,BZ,BLZ,Toledo,Toledo,BZ-TOL,district,,19.3,,,4,America/Belize,FALSE,1084048152
"Indian Creek Village","Indian Creek Village",,16.3151,-88.8317,Belize,BZ,BLZ,Toledo,Toledo,BZ-TOL,district,,7.7,,,5,America/Belize,FALSE,1084321350
"Palmar Camp","Palmar Camp","Palmer Camp",16.4491,-88.8818,Belize,BZ,BLZ,Toledo,Toledo,BZ-TOL,district,,7.7,,,5,America/Belize,FALSE,1084056544
Retiro,Retiro,"El Retiro Camp|New Retiro|Old Retiro|Rotiro",16.7186,-89.1403,Belize,BZ,BLZ,Cayo,Cayo,BZ-CY,district,,18.3,,,4,America/Belize,FALSE,1084245679
Lemonal,Lemonal,,17.6100,-88.5983,Belize,BZ,BLZ,Belize,Belize,BZ-BZ,district,,11.3,,,4,America/Belize,FALSE,1084719855
Cocos,Cocos,,18.2239,-88.6140,Belize,BZ,BLZ,"Orange Walk","Orange Walk",BZ-OW,district,,10.6,,,4,America/Belize,FALSE,1084382007
"Crooked Tree","Crooked Tree",,17.7667,-88.5333,Belize,BZ,BLZ,Belize,Belize,BZ-BZ,district,,11.3,,,4,America/Belize,FALSE,1084704058
"Santa Rosa","Santa Rosa",,18.4837,-88.4593,Belize,BZ,BLZ,Corozal,Corozal,BZ-CZL,district,,29.9,,,4,America/Belize,FALSE,1084894831
"Toledo Settlement","Toledo Settlement",,16.1333,-88.8167,Belize,BZ,BLZ,Toledo,Toledo,BZ-TOL,district,,7.7,,,5,America/Belize,FALSE,1084114864
Gnadenthal,Gnadenthal,,17.8805,-88.9171,Belize,BZ,BLZ,"Orange Walk","Orange Walk",BZ-OW,district,,11.3,,,4,America/Belize,FALSE,1084208666
"Round Hole","Round Hole",,17.3231,-89.0827,Belize,BZ,BLZ,Cayo,Cayo,BZ-CY,district,,18.3,,,4,America/Belize,FALSE,1084531308
Paraiso,Paraiso,,18.4078,-88.3942,Belize,BZ,BLZ,Corozal,Corozal,BZ-CZL,district,,29.9,,,4,America/Belize,FALSE,1084301612
"Freetown Sibun","Freetown Sibun",Freetown,17.4167,-88.3500,Belize,BZ,BLZ,Belize,Belize,BZ-BZ,district,,49.2,,,4,America/Belize,FALSE,1084175602
"Puchituk Camp","Puchituk Camp","Puchetuck Camp",16.7687,-89.0619,Belize,BZ,BLZ,Cayo,Cayo,BZ-CY,district,,18.3,,,4,America/Belize,FALSE,1084282959
"Cashew Tree","Cashew Tree",,17.9833,-88.4500,Belize,BZ,BLZ,"Orange Walk","Orange Walk",BZ-OW,district,,11.3,,,4,America/Belize,FALSE,1084033688
"Lime Tree Village","Lime Tree Village",,16.5588,-88.4345,Belize,BZ,BLZ,"Stann Creek","Stann Creek",BZ-SC,district,,21.0,,,4,America/Belize,FALSE,1084407844
"Fork Camp","Fork Camp",,16.5185,-89.0664,Belize,BZ,BLZ,Cayo,Cayo,BZ-CY,district,,7.7,,,5,America/Belize,FALSE,1084654319
"Beaver Dam","Beaver Dam",,17.2785,-88.6720,Belize,BZ,BLZ,Cayo,Cayo,BZ-CY,district,,18.3,,,4,America/Belize,FALSE,1084824047
"Mount Hope","Mount Hope",,17.2202,-88.9297,Belize,BZ,BLZ,Cayo,Cayo,BZ-CY,district,,18.3,,,4,America/Belize,FALSE,1084319838
Consejo,Consejo,,18.4583,-88.3000,Belize,BZ,BLZ,Corozal,Corozal,BZ-CZL,district,,29.9,,,3,America/Belize,FALSE,1084469874
"Union Camp","Union Camp",,16.6275,-89.0189,Belize,BZ,BLZ,Cayo,Cayo,BZ-CY,district,,7.7,,,5,America/Belize,FALSE,1084037839
America,America,,18.3435,-88.4423,Belize,BZ,BLZ,Corozal,Corozal,BZ-CZL,district,,29.9,,,4,America/Belize,FALSE,1084392909
"Cattle Landing","Cattle Landing","Carib|Carib Settlement",16.1195,-88.7952,Belize,BZ,BLZ,Toledo,Toledo,BZ-TOL,district,,7.7,,,5,America/Belize,FALSE,1084322154
"Los Altos","Los Altos",,16.9773,-88.9956,Belize,BZ,BLZ,Cayo,Cayo,BZ-CY,district,,18.3,,,4,America/Belize,FALSE,1084180329
Ranchito,Ranchito,,18.3775,-88.4103,Belize,BZ,BLZ,Corozal,Corozal,BZ-CZL,district,,29.9,,,4,America/Belize,FALSE,1084394516
Chicago,Chicago,Chichawata,17.8152,-88.3116,Belize,BZ,BLZ,Belize,Belize,BZ-BZ,district,,49.2,,,4,America/Belize,FALSE,1084223666
"Happy Farms Village","Happy Farms Village",,15.9096,-89.1887,Belize,BZ,BLZ,Toledo,Toledo,BZ-TOL,district,,7.7,,,5,America/Belize,FALSE,1084312541
"Silk Grass","Silk Grass",,16.8833,-88.3333,Belize,BZ,BLZ,"Stann Creek","Stann Creek",BZ-SC,district,,21.0,,,4,America/Belize,FALSE,1084960050
"San Pedro Landing","San Pedro Landing","San Pedro",15.9377,-89.2044,Belize,BZ,BLZ,Toledo,Toledo,BZ-TOL,district,,7.7,,,5,America/Belize,FALSE,1084477600
"Double Head Cabbage","Double Head Cabbage",,17.5333,-88.5500,Belize,BZ,BLZ,Belize,Belize,BZ-BZ,district,,26.7,,,4,America/Belize,FALSE,1084844917
Jordan,Jordan,,16.1539,-89.0149,Belize,BZ,BLZ,Toledo,Toledo,BZ-TOL,district,,7.7,,,5,America/Belize,FALSE,1084477912
"Gracy Rock Bank","Gracy Rock Bank",,17.3658,-88.4497,Belize,BZ,BLZ,Belize,Belize,BZ-BZ,district,,49.2,,,4,America/Belize,FALSE,1084304529
Alabama,Alabama,,16.6702,-88.5204,Belize,BZ,BLZ,"Stann Creek","Stann Creek",BZ-SC,district,,21.0,,,4,America/Belize,FALSE,1084969698
"Mai Gate","Mai Gate",,17.0654,-88.9733,Belize,BZ,BLZ,Cayo,Cayo,BZ-CY,district,,18.3,,,4,America/Belize,FALSE,1084342778
"San Jose","San Jose",,17.1710,-89.0980,Belize,BZ,BLZ,Cayo,Cayo,BZ-CY,district,,18.3,,,4,America/Belize,FALSE,1084793087
"Crossing Landing Bank","Crossing Landing Bank",,17.2291,-88.5696,Belize,BZ,BLZ,Belize,Belize,BZ-BZ,district,,18.3,,,4,America/Belize,FALSE,1084087007
"Baldy Beacon","Baldy Beacon","Baldy Ben",17.0035,-88.7917,Belize,BZ,BLZ,Cayo,Cayo,BZ-CY,district,,18.3,,,4,America/Belize,FALSE,1084555023
"El Remate","El Remate",,18.2000,-88.4333,Belize,BZ,BLZ,Corozal,Corozal,BZ-CZL,district,,11.3,,,4,America/Belize,FALSE,1084099683
"Trion Village","Trion Village",,16.5144,-88.6062,Belize,BZ,BLZ,"Stann Creek","Stann Creek",BZ-SC,district,,7.7,,,5,America/Belize,FALSE,1084657719
"Bob Eiley","Bob Eiley",,17.7041,-88.4856,Belize,BZ,BLZ,Belize,Belize,BZ-BZ,district,,49.2,,,4,America/Belize,FALSE,1084600280
Vaca,Vaca,,17.0325,-89.0633,Belize,BZ,BLZ,Cayo,Cayo,BZ-CY,district,,18.3,,,4,America/Belize,FALSE,1084263962
"Jimmy Cut","Jimmy Cut",,16.2936,-89.0405,Belize,BZ,BLZ,Toledo,Toledo,BZ-TOL,district,,7.7,,,4,America/Belize,FALSE,1084016448
Barranco,Barranco,Baranco|Baranca,16.0000,-88.9167,Belize,BZ,BLZ,Toledo,Toledo,BZ-TOL,district,,7.7,,,5,America/Belize,FALSE,1084089143
"Nuevo San Juan","Nuevo San Juan",,18.2275,-88.5809,Belize,BZ,BLZ,Corozal,Corozal,BZ-CZL,district,,11.3,,,4,America/Belize,FALSE,1084043685
"Plant Sucker","Plant Sucker",,17.1580,-89.1355,Belize,BZ,BLZ,Cayo,Cayo,BZ-CY,district,,18.3,,,4,America/Belize,FALSE,1084276975
