city,city_ascii,city_alt,lat,lng,country,iso2,iso3,admin_name,admin_name_ascii,admin_code,admin_type,capital,density,population,population_proper,ranking,timezone,same_name,id
Mindelo,Mindelo,Mihdelo|Mindello,16.8860,-24.9880,"Cabo Verde",CV,CPV,"São Vicente","Sao Vicente",CV-SV,municipality,admin,379.2,70468,70468,2,Atlantic/Cape_Verde,FALSE,1132180389
Praia,Praia,,14.9180,-23.5090,"Cabo Verde",CV,CPV,Praia,Praia,CV-PR,municipality,primary,154.3,61644,61644,1,Atlantic/Cape_Verde,FALSE,1132398770
"São Filipe","Sao Filipe","Vila de São Filippe|Vila São Filipe",14.8950,-24.4980,"Cabo Verde",CV,CPV,"São Filipe","Sao Filipe",CV-SF,municipality,admin,27.1,22227,22227,2,Atlantic/Cape_Verde,FALSE,1132693257
"Ribeira Grande","Ribeira Grande",,17.1830,-25.0650,"Cabo Verde",CV,CPV,"Ribeira Grande","Ribeira Grande",CV-RG,municipality,admin,144.4,18890,18890,2,Atlantic/Cape_Verde,FALSE,1132061543
Tarrafal,Tarrafal,"Vila do Tarrafal",15.2780,-23.7520,"Cabo Verde",CV,CPV,Tarrafal,Tarrafal,CV-TA,municipality,admin,153.7,18561,18561,2,Atlantic/Cape_Verde,FALSE,1132834308
"Porto Novo","Porto Novo","Vila do Pôrto Novo|Carvoeiros",17.0190,-25.0640,"Cabo Verde",CV,CPV,"Porto Novo","Porto Novo",CV-PN,municipality,admin,10.1,18028,18028,2,Atlantic/Cape_Verde,FALSE,1132233840
Assomada,Assomada,Assumada,15.0960,-23.6670,"Cabo Verde",CV,CPV,"Santa Catarina","Santa Catarina",CV-CA,municipality,admin,164.1,12026,12026,2,Atlantic/Cape_Verde,FALSE,1132845019
"Pedra Badejo","Pedra Badejo",,15.1370,-23.5340,"Cabo Verde",CV,CPV,"Santa Cruz","Santa Cruz",CV-CR,municipality,admin,71.2,9530,9530,2,Atlantic/Cape_Verde,FALSE,1132841923
"Sal Rei","Sal Rei","Sal-Rel|Vila de Sal Rei",16.1770,-22.9180,"Cabo Verde",CV,CPV,"Boa Vista","Boa Vista",CV-BV,municipality,admin,31.5,6357,6357,2,Atlantic/Cape_Verde,FALSE,1132420232
Espargos,Espargos,Preguiça,16.7560,-22.9460,"Cabo Verde",CV,CPV,Sal,Sal,CV-SL,municipality,admin,102.7,6173,6173,2,Atlantic/Cape_Verde,FALSE,1132760152
Tarrafal,Tarrafal,"Tarrafal de São Nicolau",16.5660,-24.3570,"Cabo Verde",CV,CPV,"Tarrafal de São Nicolau","Tarrafal de Sao Nicolau",CV-TS,municipality,admin,44.4,5237,5237,2,Atlantic/Cape_Verde,FALSE,1132502171
"Ponta do Sol","Ponta do Sol","Sol Point",17.2020,-25.0930,"Cabo Verde",CV,CPV,"Ribeira Grande","Ribeira Grande",CV-RG,municipality,admin,144.4,4738,4738,2,Atlantic/Cape_Verde,FALSE,1132137257
"Calheta de São Miguel","Calheta de Sao Miguel",Calheta,15.1860,-23.5930,"Cabo Verde",CV,CPV,"São Miguel","Sao Miguel",CV-SM,municipality,admin,87.0,4123,4123,2,Atlantic/Cape_Verde,FALSE,1132750609
"Porto Inglês","Porto Ingles","Nossa Senhora da Luz|Vila do Maio|Porto Inglez|Maio|Port Ingles|Vila do Porto Inglês",15.1380,-23.2110,"Cabo Verde",CV,CPV,Maio,Maio,CV-MA,municipality,admin,24.6,3056,3056,2,Atlantic/Cape_Verde,FALSE,1132346974
"São Domingos","Sao Domingos",,15.0280,-23.5630,"Cabo Verde",CV,CPV,"São Domingos","Sao Domingos",CV-SD,municipality,admin,90.3,2818,2818,2,Atlantic/Cape_Verde,FALSE,1132246964
"Ribeira da Barca","Ribeira da Barca","Ribeira de Barca",15.1380,-23.7590,"Cabo Verde",CV,CPV,"Santa Catarina","Santa Catarina",CV-CA,municipality,,164.1,2317,2317,3,Atlantic/Cape_Verde,FALSE,1132819684
"Cidade Velha","Cidade Velha",Velha,14.9160,-23.6060,"Cabo Verde",CV,CPV,"Ribeira Grande de Santiago","Ribeira Grande de Santiago",CV-RS,municipality,admin,63.3,2148,2148,2,Atlantic/Cape_Verde,FALSE,1132073400
"Pontinha da Janela","Pontinha da Janela","Janela|Pontinha de Janela|Janelas",17.1210,-24.9870,"Cabo Verde",CV,CPV,Paul,Paul,CV-PA,municipality,,395.6,1658,1658,3,Atlantic/Cape_Verde,FALSE,1132188278
Rabil,Rabil,,16.1290,-22.8870,"Cabo Verde",CV,CPV,"Boa Vista","Boa Vista",CV-BV,municipality,,31.5,1248,1248,3,Atlantic/Cape_Verde,FALSE,1132142135
Calheta,Calheta,,15.2300,-23.2120,"Cabo Verde",CV,CPV,Maio,Maio,CV-MA,municipality,,24.6,1156,1156,3,Atlantic/Cape_Verde,FALSE,1132246652
"Rui Vaz","Rui Vaz",,15.0340,-23.6000,"Cabo Verde",CV,CPV,"São Lourenço dos Órgãos","Sao Lourenco dos Orgaos",CV-SO,municipality,,75.2,1078,1078,3,Atlantic/Cape_Verde,FALSE,1132878365
"São Pedro","Sao Pedro",,16.8240,-25.0600,"Cabo Verde",CV,CPV,"São Vicente","Sao Vicente",CV-SV,municipality,,379.2,991,991,3,Atlantic/Cape_Verde,FALSE,1132241969
Cruzinha,Cruzinha,,17.1750,-25.1550,"Cabo Verde",CV,CPV,"Ribeira Grande","Ribeira Grande",CV-RG,municipality,,144.4,672,672,3,Atlantic/Cape_Verde,FALSE,1132056921
Furna,Furna,Furno,14.8870,-24.6800,"Cabo Verde",CV,CPV,Brava,Brava,CV-BR,municipality,,75.6,612,612,3,Atlantic/Cape_Verde,FALSE,1132809585
Sinagoga,Sinagoga,,17.1780,-25.0320,"Cabo Verde",CV,CPV,"Ribeira Grande","Ribeira Grande",CV-RG,municipality,,144.4,603,603,3,Atlantic/Cape_Verde,FALSE,1132318985
"João Galego","Joao Galego",,16.1510,-22.7440,"Cabo Verde",CV,CPV,"Boa Vista","Boa Vista",CV-BV,municipality,,31.5,346,346,3,Atlantic/Cape_Verde,FALSE,1132362938
"Povoação Velha","Povoacao Velha",,16.0380,-22.9170,"Cabo Verde",CV,CPV,"Boa Vista","Boa Vista",CV-BV,municipality,,31.5,309,309,3,Atlantic/Cape_Verde,FALSE,1132316156
Calejão,Calejao,Caleijão,16.6030,-24.3080,"Cabo Verde",CV,CPV,"Tarrafal de São Nicolau","Tarrafal de Sao Nicolau",CV-TS,municipality,,35.1,300,300,3,Atlantic/Cape_Verde,FALSE,1132891633
Fontainhas,Fontainhas,,17.1880,-25.1040,"Cabo Verde",CV,CPV,"Ribeira Grande","Ribeira Grande",CV-RG,municipality,,144.4,282,282,3,Atlantic/Cape_Verde,FALSE,1132376148
"Nossa Senhora do Monte","Nossa Senhora do Monte",,14.8580,-24.7180,"Cabo Verde",CV,CPV,Brava,Brava,CV-BR,municipality,,75.6,271,271,3,Atlantic/Cape_Verde,FALSE,1132083723
"Fundo das Figueiras","Fundo das Figueiras","Fundo de Figueiras|Fundo de Figueias",16.1390,-22.7250,"Cabo Verde",CV,CPV,"Boa Vista","Boa Vista",CV-BV,municipality,,31.5,241,241,3,Atlantic/Cape_Verde,FALSE,1132270244
Cachaço,Cachaco,Cachoca,14.8370,-24.6970,"Cabo Verde",CV,CPV,Brava,Brava,CV-BR,municipality,,75.6,228,228,3,Atlantic/Cape_Verde,FALSE,1132158434
Carriçal,Carrical,,16.5540,-24.0810,"Cabo Verde",CV,CPV,"Ribeira Brava","Ribeira Brava",CV-RB,municipality,,33.0,190,190,3,Atlantic/Cape_Verde,FALSE,1132319235
"Porto Rincão","Porto Rincao","Porto do Rincão",15.0610,-23.7640,"Cabo Verde",CV,CPV,"Santa Catarina","Santa Catarina",CV-CA,municipality,,164.1,183,183,3,Atlantic/Cape_Verde,FALSE,1132944382
Bofareira,Bofareira,Bafureira|Bafareira,16.1850,-22.8230,"Cabo Verde",CV,CPV,"Boa Vista","Boa Vista",CV-BV,municipality,,31.5,144,144,3,Atlantic/Cape_Verde,FALSE,1132293065
"Santa Bárbara","Santa Barbara",,14.8750,-24.6850,"Cabo Verde",CV,CPV,Brava,Brava,CV-BR,municipality,,75.6,143,143,3,Atlantic/Cape_Verde,FALSE,1132275904
"Cabeço dos Tarafes","Cabeco dos Tarafes","Cabeço de Tarafes",16.1240,-22.7250,"Cabo Verde",CV,CPV,"Boa Vista","Boa Vista",CV-BV,municipality,,31.5,52,52,3,Atlantic/Cape_Verde,FALSE,1132500898
"Boa Ventura","Boa Ventura",,16.1333,-22.9000,"Cabo Verde",CV,CPV,"Boa Vista","Boa Vista",CV-BV,municipality,,31.5,,,4,Atlantic/Cape_Verde,FALSE,1132893443
Urzeleiro,Urzeleiro,Urgueiro|Urzeleiros,17.0833,-25.2000,"Cabo Verde",CV,CPV,"Porto Novo","Porto Novo",CV-PN,municipality,,10.1,,,4,Atlantic/Cape_Verde,FALSE,1132596063
"Santa Maria","Santa Maria",,16.5990,-22.9040,"Cabo Verde",CV,CPV,Sal,Sal,CV-SL,municipality,,102.7,,,4,Atlantic/Cape_Verde,FALSE,1132415507
Órgãos,Orgaos,,15.0667,-23.6167,"Cabo Verde",CV,CPV,"São Lourenço dos Órgãos","Sao Lourenco dos Orgaos",CV-SO,municipality,,3693.5,,,2,Atlantic/Cape_Verde,FALSE,1132966600
"Chã do Morto","Cha do Morto","Chã de Morte",17.0500,-25.2167,"Cabo Verde",CV,CPV,"Porto Novo","Porto Novo",CV-PN,municipality,,10.1,,,4,Atlantic/Cape_Verde,FALSE,1132969393
"Lombo da Torre","Lombo da Torre",,17.0000,-25.2167,"Cabo Verde",CV,CPV,"Porto Novo","Porto Novo",CV-PN,municipality,,10.1,,,4,Atlantic/Cape_Verde,FALSE,1132657315
Penteada,Penteada,,14.8833,-24.4667,"Cabo Verde",CV,CPV,"São Filipe","Sao Filipe",CV-SF,municipality,,27.1,,,4,Atlantic/Cape_Verde,FALSE,1132796380
"Ribeira Funda","Ribeira Funda",,16.6740,-24.3350,"Cabo Verde",CV,CPV,"Tarrafal de São Nicolau","Tarrafal de Sao Nicolau",CV-TS,municipality,,33.0,,,4,Atlantic/Cape_Verde,FALSE,1132297043
"Curral das Vacas","Curral das Vacas",,17.0500,-25.2333,"Cabo Verde",CV,CPV,"Porto Novo","Porto Novo",CV-PN,municipality,,10.1,,,4,Atlantic/Cape_Verde,FALSE,1132934421
Curral,Curral,,17.1667,-25.1167,"Cabo Verde",CV,CPV,"Ribeira Grande","Ribeira Grande",CV-RG,municipality,,144.4,,,4,Atlantic/Cape_Verde,FALSE,1132638194
Bonita,Bonita,,17.0833,-25.3167,"Cabo Verde",CV,CPV,"Porto Novo","Porto Novo",CV-PN,municipality,,10.1,,,4,Atlantic/Cape_Verde,FALSE,1132891683
Preguiça,Preguica,,16.5620,-24.2810,"Cabo Verde",CV,CPV,"Ribeira Brava","Ribeira Brava",CV-RB,municipality,,33.0,,,3,Atlantic/Cape_Verde,FALSE,1132473906
"Ponta da Cruz","Ponta da Cruz",,16.7500,-24.7500,"Cabo Verde",CV,CPV,"São Vicente","Sao Vicente",CV-SV,municipality,,0.0,,,5,Atlantic/Cape_Verde,FALSE,1132303047
Palmeira,Palmeira,,16.7580,-22.9820,"Cabo Verde",CV,CPV,Sal,Sal,CV-SL,municipality,,102.7,,,4,Atlantic/Cape_Verde,FALSE,1132130824
"Bela Vista","Bela Vista",,16.8000,-22.9667,"Cabo Verde",CV,CPV,Sal,Sal,CV-SL,municipality,,102.7,,,4,Atlantic/Cape_Verde,FALSE,1132503390
"Moia Moia","Moia Moia",,15.0203,-23.4471,"Cabo Verde",CV,CPV,"São Domingos","Sao Domingos",CV-SD,municipality,,90.3,,,4,Atlantic/Cape_Verde,FALSE,1132910317
"Morre Braz","Morre Braz",,16.6333,-24.2000,"Cabo Verde",CV,CPV,"Ribeira Brava","Ribeira Brava",CV-RB,municipality,,33.0,,,4,Atlantic/Cape_Verde,FALSE,1132685472
Tarrafal,Tarrafal,"Tarrafal de Monte Trigo|Tarvafal",16.9590,-25.3100,"Cabo Verde",CV,CPV,"Porto Novo","Porto Novo",CV-PN,municipality,,10.1,,,3,Atlantic/Cape_Verde,FALSE,1132289832
"Ribeirão Sal","Ribeirao Sal",,15.1100,-23.7020,"Cabo Verde",CV,CPV,Tarrafal,Tarrafal,CV-TA,municipality,,385.0,,,3,Atlantic/Cape_Verde,FALSE,1132553766
"Morro Alto","Morro Alto",,16.6167,-24.1833,"Cabo Verde",CV,CPV,"Ribeira Brava","Ribeira Brava",CV-RB,municipality,,33.0,,,4,Atlantic/Cape_Verde,FALSE,1132082178
Amador,Amador,,16.1167,-22.8333,"Cabo Verde",CV,CPV,"Boa Vista","Boa Vista",CV-BV,municipality,,31.5,,,4,Atlantic/Cape_Verde,FALSE,1132597481
"Achada Monte","Achada Monte","Mangue de Sete Ribeiras|Mangue",15.2340,-23.6430,"Cabo Verde",CV,CPV,"São Miguel","Sao Miguel",CV-SM,municipality,,87.1,,,3,Atlantic/Cape_Verde,FALSE,1132625101
Castilhiano,Castilhiano,,16.6150,-24.2710,"Cabo Verde",CV,CPV,"Ribeira Brava","Ribeira Brava",CV-RB,municipality,,33.0,,,3,Atlantic/Cape_Verde,FALSE,1132327172
Barbasco,Barbasco,,17.1805,-25.0516,"Cabo Verde",CV,CPV,"Ribeira Grande","Ribeira Grande",CV-RG,municipality,,144.4,,,4,Atlantic/Cape_Verde,FALSE,1132279359
Garça,Garca,,14.8667,-24.7000,"Cabo Verde",CV,CPV,Brava,Brava,CV-BR,municipality,,75.6,,,4,Atlantic/Cape_Verde,FALSE,1132311391
Feijoal,Feijoal,,16.7500,-22.9000,"Cabo Verde",CV,CPV,Sal,Sal,CV-SL,municipality,,102.7,,,4,Atlantic/Cape_Verde,FALSE,1132171953
"Chã de Dentro","Cha de Dentro",,15.2333,-23.6833,"Cabo Verde",CV,CPV,Tarrafal,Tarrafal,CV-TA,municipality,,385.0,,,3,Atlantic/Cape_Verde,FALSE,1132484399
Cascabulho,Cascabulho,,15.2700,-23.1720,"Cabo Verde",CV,CPV,Maio,Maio,CV-MA,municipality,,24.6,,,4,Atlantic/Cape_Verde,FALSE,1132713976
Leiro,Leiro,,17.0000,-25.2000,"Cabo Verde",CV,CPV,"Porto Novo","Porto Novo",CV-PN,municipality,,10.1,,,4,Atlantic/Cape_Verde,FALSE,1132216704
"Monte Joana","Monte Joana",,17.1505,-25.0625,"Cabo Verde",CV,CPV,"Ribeira Grande","Ribeira Grande",CV-RG,municipality,,144.4,,,4,Atlantic/Cape_Verde,FALSE,1132628542
"Chã de Figueiras","Cha de Figueiras",,15.1833,-23.7167,"Cabo Verde",CV,CPV,"Santa Catarina","Santa Catarina",CV-CA,municipality,,164.1,,,4,Atlantic/Cape_Verde,FALSE,1132290401
Patim,Patim,,14.8760,-24.4240,"Cabo Verde",CV,CPV,"São Filipe","Sao Filipe",CV-SF,municipality,,27.1,,,3,Atlantic/Cape_Verde,FALSE,1132215574
"Santa Cruz","Santa Cruz",,15.1340,-23.5600,"Cabo Verde",CV,CPV,"Santa Cruz","Santa Cruz",CV-CR,municipality,,71.2,,,3,Atlantic/Cape_Verde,FALSE,1132679677
Picos,Picos,,15.0830,-23.6320,"Cabo Verde",CV,CPV,"São Salvador do Mundo","Sao Salvador do Mundo",CV-SS,municipality,admin,686.3,,,2,Atlantic/Cape_Verde,FALSE,1132670996
Caculi,Caculi,,17.1650,-25.0980,"Cabo Verde",CV,CPV,"Ribeira Grande","Ribeira Grande",CV-RG,municipality,,144.4,,,3,Atlantic/Cape_Verde,FALSE,1132597361
"João Teves","Joao Teves",,15.0680,-23.5890,"Cabo Verde",CV,CPV,"São Lourenço dos Órgãos","Sao Lourenco dos Orgaos",CV-SO,municipality,admin,4352.8,,,2,Atlantic/Cape_Verde,FALSE,1132758433
Trindade,Trindade,,14.9500,-23.5667,"Cabo Verde",CV,CPV,Praia,Praia,CV-PR,municipality,,154.3,,,4,Atlantic/Cape_Verde,FALSE,1132551193
Prazeres,Prazeres,,16.0000,-22.8167,"Cabo Verde",CV,CPV,"Boa Vista","Boa Vista",CV-BV,municipality,,31.5,,,4,Atlantic/Cape_Verde,FALSE,1132082199
"Ribeira Ilhéu","Ribeira Ilheu",,15.0370,-24.3740,"Cabo Verde",CV,CPV,Mosteiros,Mosteiros,CV-MO,municipality,,66.9,,,3,Atlantic/Cape_Verde,FALSE,1132717075
"Ribeira Prata","Ribeira Prata","Ribeira da Prata",16.6620,-24.3640,"Cabo Verde",CV,CPV,"Tarrafal de São Nicolau","Tarrafal de Sao Nicolau",CV-TS,municipality,,44.4,,,4,Atlantic/Cape_Verde,FALSE,1132473158
Lazareto,Lazareto,Lazaretto,16.8860,-24.9880,"Cabo Verde",CV,CPV,"São Vicente","Sao Vicente",CV-SV,municipality,,379.2,,,3,Atlantic/Cape_Verde,FALSE,1132817449
"Figueira Seca","Figueira Seca",,15.1600,-23.1520,"Cabo Verde",CV,CPV,Maio,Maio,CV-MA,municipality,,24.6,,,4,Atlantic/Cape_Verde,FALSE,1132403461
Atalaia,Atalaia,,15.0310,-24.3850,"Cabo Verde",CV,CPV,Mosteiros,Mosteiros,CV-MO,municipality,,61.4,,,4,Atlantic/Cape_Verde,FALSE,1132301958
"Ribeira dos Calhaus","Ribeira dos Calhaus","Ribeira Calhau",16.6300,-24.3630,"Cabo Verde",CV,CPV,"Tarrafal de São Nicolau","Tarrafal de Sao Nicolau",CV-TS,municipality,,44.4,,,4,Atlantic/Cape_Verde,FALSE,1132587050
Italiano,Italiano,,14.9667,-24.4667,"Cabo Verde",CV,CPV,"São Filipe","Sao Filipe",CV-SF,municipality,,27.1,,,4,Atlantic/Cape_Verde,FALSE,1132571068
Calhau,Calhau,,16.8500,-24.8667,"Cabo Verde",CV,CPV,"São Vicente","Sao Vicente",CV-SV,municipality,,379.2,,,3,Atlantic/Cape_Verde,FALSE,1132328002
"Torno d’Água","Torno d'Agua",,16.6167,-24.3667,"Cabo Verde",CV,CPV,"Tarrafal de São Nicolau","Tarrafal de Sao Nicolau",CV-TS,municipality,,44.4,,,4,Atlantic/Cape_Verde,FALSE,1132022965
Camarões,Camaroes,,16.6667,-24.3500,"Cabo Verde",CV,CPV,"Ribeira Brava","Ribeira Brava",CV-RB,municipality,,33.0,,,4,Atlantic/Cape_Verde,FALSE,1132692416
Fanade,Fanade,,17.1333,-25.1667,"Cabo Verde",CV,CPV,"Ribeira Grande","Ribeira Grande",CV-RG,municipality,,144.4,,,4,Atlantic/Cape_Verde,FALSE,1132505815
"Casa do Cabo Submarino","Casa do Cabo Submarino",,16.8167,-25.0667,"Cabo Verde",CV,CPV,"São Vicente","Sao Vicente",CV-SV,municipality,,379.2,,,3,Atlantic/Cape_Verde,FALSE,1132167828
Nora,Nora,,15.0167,-23.5500,"Cabo Verde",CV,CPV,"São Domingos","Sao Domingos",CV-SD,municipality,,90.3,,,4,Atlantic/Cape_Verde,FALSE,1132647543
Igreja,Igreja,"Porto dos Mosteiros",15.0339,-24.3250,"Cabo Verde",CV,CPV,Mosteiros,Mosteiros,CV-MO,municipality,admin,66.9,,,2,Atlantic/Cape_Verde,FALSE,1132174768
Achadinha,Achadinha,,15.2333,-23.7167,"Cabo Verde",CV,CPV,Tarrafal,Tarrafal,CV-TA,municipality,,385.0,,,3,Atlantic/Cape_Verde,FALSE,1132272926
"Ribeira Brava","Ribeira Brava","Vila da Ribeira Brava",16.6150,-24.2990,"Cabo Verde",CV,CPV,"Ribeira Brava","Ribeira Brava",CV-RB,municipality,admin,33.0,,,2,Atlantic/Cape_Verde,FALSE,1132498214
Escabeçada,Escabecada,,17.1333,-25.1500,"Cabo Verde",CV,CPV,"Ribeira Grande","Ribeira Grande",CV-RG,municipality,,144.4,,,4,Atlantic/Cape_Verde,FALSE,1132649543
"Lugar Novo","Lugar Novo","Logar Novo",14.9333,-24.4833,"Cabo Verde",CV,CPV,"São Filipe","Sao Filipe",CV-SF,municipality,,27.1,,,4,Atlantic/Cape_Verde,FALSE,1132121018
Toril,Toril,,15.3000,-23.7167,"Cabo Verde",CV,CPV,Tarrafal,Tarrafal,CV-TA,municipality,,385.0,,,3,Atlantic/Cape_Verde,FALSE,1132890594
Ilhéu,Ilheu,,15.2000,-23.6333,"Cabo Verde",CV,CPV,"São Miguel","Sao Miguel",CV-SM,municipality,,87.1,,,4,Atlantic/Cape_Verde,FALSE,1132175278
"Figueira das Naus","Figueira das Naus","Figueira da Naus",15.1820,-23.7310,"Cabo Verde",CV,CPV,"Santa Catarina","Santa Catarina",CV-CA,municipality,,164.1,,,3,Atlantic/Cape_Verde,FALSE,1132019062
Pinto,Pinto,,17.0833,-25.1667,"Cabo Verde",CV,CPV,"Porto Novo","Porto Novo",CV-PN,municipality,,39.4,,,4,Atlantic/Cape_Verde,FALSE,1132228635
"Cruz do Pé do Verde","Cruz do Pe do Verde",,16.8833,-24.9500,"Cabo Verde",CV,CPV,"São Vicente","Sao Vicente",CV-SV,municipality,,379.2,,,3,Atlantic/Cape_Verde,FALSE,1132909786
Pedrinha,Pedrinha,,16.9667,-25.1500,"Cabo Verde",CV,CPV,"Porto Novo","Porto Novo",CV-PN,municipality,,10.1,,,4,Atlantic/Cape_Verde,FALSE,1132487684
"Fonte Aleixo","Fonte Aleixo",,14.8480,-24.3560,"Cabo Verde",CV,CPV,"Santa Catarina do Fogo","Santa Catarina do Fogo",CV-CF,municipality,,27.1,,,3,Atlantic/Cape_Verde,FALSE,1132588670
Moerão,Moerao,,15.2500,-23.7167,"Cabo Verde",CV,CPV,Tarrafal,Tarrafal,CV-TA,municipality,,385.0,,,3,Atlantic/Cape_Verde,FALSE,1132514932
"Lombo de Galinha","Lombo de Galinha","Lombo Galinha",17.1390,-25.1430,"Cabo Verde",CV,CPV,"Ribeira Grande","Ribeira Grande",CV-RG,municipality,,141.2,,,4,Atlantic/Cape_Verde,FALSE,1132476012
"João Daninha","Joao Daninha",,16.9667,-25.2333,"Cabo Verde",CV,CPV,"Porto Novo","Porto Novo",CV-PN,municipality,,10.1,,,4,Atlantic/Cape_Verde,FALSE,1132426415
Fajãzinha,Fajazinha,Fajasinhas|Fajãsinha,15.0480,-24.3530,"Cabo Verde",CV,CPV,Mosteiros,Mosteiros,CV-MO,municipality,,66.9,,,4,Atlantic/Cape_Verde,FALSE,1132854853
"Chã de Vazinha","Cha de Vazinha","Chã Varzinha",17.1500,-25.2000,"Cabo Verde",CV,CPV,"Ribeira Grande","Ribeira Grande",CV-RG,municipality,,144.4,,,4,Atlantic/Cape_Verde,FALSE,1132477032
Dacabalaio,Dacabalaio,Dacalabaio,14.8500,-24.3333,"Cabo Verde",CV,CPV,"Santa Catarina do Fogo","Santa Catarina do Fogo",CV-CF,municipality,,27.1,,,4,Atlantic/Cape_Verde,FALSE,1132423002
Tongon,Tongon,Tongom,14.9167,-24.4833,"Cabo Verde",CV,CPV,"São Filipe","Sao Filipe",CV-SF,municipality,,27.1,,,4,Atlantic/Cape_Verde,FALSE,1132672676
"Meio de Espanha","Meio de Espanha","Meio de Espanha de Figueiras",17.1333,-25.2000,"Cabo Verde",CV,CPV,"Ribeira Grande","Ribeira Grande",CV-RG,municipality,,144.4,,,4,Atlantic/Cape_Verde,FALSE,1132615845
Fajãzinha,Fajazinha,Fajansinha,17.1500,-25.1667,"Cabo Verde",CV,CPV,"Ribeira Grande","Ribeira Grande",CV-RG,municipality,,144.4,,,4,Atlantic/Cape_Verde,FALSE,1132467573
Tras-os-Montes,Tras-os-Montes,,15.2940,-23.7140,"Cabo Verde",CV,CPV,Tarrafal,Tarrafal,CV-TA,municipality,,385.0,,,3,Atlantic/Cape_Verde,FALSE,1132517706
Tabuga,Tabuga,,17.0167,-25.2000,"Cabo Verde",CV,CPV,"Porto Novo","Porto Novo",CV-PN,municipality,,10.1,,,4,Atlantic/Cape_Verde,FALSE,1132135621
"Porto Gouveia","Porto Gouveia",Gouveia,14.9400,-23.6650,"Cabo Verde",CV,CPV,"Ribeira Grande de Santiago","Ribeira Grande de Santiago",CV-RS,municipality,,63.3,,,3,Atlantic/Cape_Verde,FALSE,1132597127
Perdia,Perdia,,17.1000,-25.0333,"Cabo Verde",CV,CPV,"Porto Novo","Porto Novo",CV-PN,municipality,,118.1,,,4,Atlantic/Cape_Verde,FALSE,1132405544
Serrado,Serrado,,14.9167,-24.4667,"Cabo Verde",CV,CPV,"São Filipe","Sao Filipe",CV-SF,municipality,,27.1,,,4,Atlantic/Cape_Verde,FALSE,1132689474
"Santo António","Santo Antonio",,15.2750,-23.1230,"Cabo Verde",CV,CPV,Maio,Maio,CV-MA,municipality,,24.6,,,4,Atlantic/Cape_Verde,FALSE,1132706322
Baleia,Baleia,,14.8500,-24.7000,"Cabo Verde",CV,CPV,Brava,Brava,CV-BR,municipality,,75.6,,,4,Atlantic/Cape_Verde,FALSE,1132518066
"Miguel Pires","Miguel Pires",,17.0833,-25.2333,"Cabo Verde",CV,CPV,"Porto Novo","Porto Novo",CV-PN,municipality,,10.1,,,4,Atlantic/Cape_Verde,FALSE,1132575410
"Morrinho d’Égua","Morrinho d'Egua",,17.1000,-25.2667,"Cabo Verde",CV,CPV,"Porto Novo","Porto Novo",CV-PN,municipality,,10.1,,,4,Atlantic/Cape_Verde,FALSE,1132008674
"Escabeçada de Baixo","Escabecada de Baixo",,17.1333,-25.1500,"Cabo Verde",CV,CPV,"Ribeira Grande","Ribeira Grande",CV-RG,municipality,,144.4,,,4,Atlantic/Cape_Verde,FALSE,1132473932
Sacramento,Sacramento,,15.0500,-23.5667,"Cabo Verde",CV,CPV,"São Domingos","Sao Domingos",CV-SD,municipality,,639.7,,,3,Atlantic/Cape_Verde,FALSE,1132626218
Queimadas,Queimadas,Queimada,16.6360,-24.3170,"Cabo Verde",CV,CPV,"Ribeira Brava","Ribeira Brava",CV-RB,municipality,,33.0,,,3,Atlantic/Cape_Verde,FALSE,1132967062
Madeiral,Madeiral,,16.8150,-24.9340,"Cabo Verde",CV,CPV,"São Vicente","Sao Vicente",CV-SV,municipality,,379.2,,,3,Atlantic/Cape_Verde,FALSE,1132147852
"Figueiras de Cimas","Figueiras de Cimas",,17.1333,-25.2000,"Cabo Verde",CV,CPV,"Ribeira Grande","Ribeira Grande",CV-RG,municipality,,144.4,,,4,Atlantic/Cape_Verde,FALSE,1132827499
"Mão para Trás","Mao para Tras","Mão para Traz",17.1854,-25.0672,"Cabo Verde",CV,CPV,"Ribeira Grande","Ribeira Grande",CV-RG,municipality,,144.4,,,4,Atlantic/Cape_Verde,FALSE,1132360275
Seladinha,Seladinha,,16.9667,-25.3167,"Cabo Verde",CV,CPV,"Porto Novo","Porto Novo",CV-PN,municipality,,10.1,,,4,Atlantic/Cape_Verde,FALSE,1132604048
Telha,Telha,,16.5667,-24.3667,"Cabo Verde",CV,CPV,"Tarrafal de São Nicolau","Tarrafal de Sao Nicolau",CV-TS,municipality,,44.4,,,4,Atlantic/Cape_Verde,FALSE,1132047319
Galinheiro,Galinheiro,Galinheiros,14.9990,-24.4440,"Cabo Verde",CV,CPV,"São Filipe","Sao Filipe",CV-SF,municipality,,27.1,,,3,Atlantic/Cape_Verde,FALSE,1132196714
"Chã de Queimada","Cha de Queimada","Chã Queimada",17.1500,-25.2000,"Cabo Verde",CV,CPV,"Ribeira Grande","Ribeira Grande",CV-RG,municipality,,144.4,,,4,Atlantic/Cape_Verde,FALSE,1132376631
Santiago,Santiago,"São Tiago|San Iago",15.1333,-23.5333,"Cabo Verde",CV,CPV,"Santa Cruz","Santa Cruz",CV-CR,municipality,,71.2,,,4,Atlantic/Cape_Verde,FALSE,1132630926
"Pai Joana","Pai Joana",,15.2667,-23.1167,"Cabo Verde",CV,CPV,Maio,Maio,CV-MA,municipality,,24.6,,,4,Atlantic/Cape_Verde,FALSE,1132858162
"Ribeira Torta","Ribeira Torta",,16.9476,-25.1591,"Cabo Verde",CV,CPV,"Porto Novo","Porto Novo",CV-PN,municipality,,10.1,,,4,Atlantic/Cape_Verde,FALSE,1132668206
Salamansa,Salamansa,Salamanza,16.9020,-24.9440,"Cabo Verde",CV,CPV,"São Vicente","Sao Vicente",CV-SV,municipality,,379.2,,,3,Atlantic/Cape_Verde,FALSE,1132395261
Sambango,Sambango,,15.0500,-24.3500,"Cabo Verde",CV,CPV,Mosteiros,Mosteiros,CV-MO,municipality,,66.9,,,4,Atlantic/Cape_Verde,FALSE,1132478224
Montanha,Montanha,,15.0840,-23.5840,"Cabo Verde",CV,CPV,"São Lourenço dos Órgãos","Sao Lourenco dos Orgaos",CV-SO,municipality,,4352.8,,,2,Atlantic/Cape_Verde,FALSE,1132917116
Inhuco,Inhuco,Nhuco,14.9333,-24.4500,"Cabo Verde",CV,CPV,"São Filipe","Sao Filipe",CV-SF,municipality,,27.1,,,4,Atlantic/Cape_Verde,FALSE,1132894870
"Ribeira Fria","Ribeira Fria",,17.1430,-25.1920,"Cabo Verde",CV,CPV,"Porto Novo","Porto Novo",CV-PN,municipality,,10.1,,,3,Atlantic/Cape_Verde,FALSE,1132347879
"Pai Amaro","Pai Amaro","Pae Amaro",16.0333,-22.7333,"Cabo Verde",CV,CPV,"Boa Vista","Boa Vista",CV-BV,municipality,,31.5,,,4,Atlantic/Cape_Verde,FALSE,1132997653
"João Barrosa","Joao Barrosa","João Barroza",16.0167,-22.7500,"Cabo Verde",CV,CPV,"Boa Vista","Boa Vista",CV-BV,municipality,,31.5,,,4,Atlantic/Cape_Verde,FALSE,1132012213
"Água das Fortes","Agua das Fortes","Água dos Fortes",16.9667,-25.2167,"Cabo Verde",CV,CPV,"Porto Novo","Porto Novo",CV-PN,municipality,,10.1,,,4,Atlantic/Cape_Verde,FALSE,1132645065
Gata,Gata,Gala,16.2000,-22.7167,"Cabo Verde",CV,CPV,"Boa Vista","Boa Vista",CV-BV,municipality,,31.5,,,4,Atlantic/Cape_Verde,FALSE,1132048163
Botija,Botija,,17.0500,-25.3333,"Cabo Verde",CV,CPV,"Porto Novo","Porto Novo",CV-PN,municipality,,10.1,,,4,Atlantic/Cape_Verde,FALSE,1132000000
Pau,Pau,,14.8500,-24.7333,"Cabo Verde",CV,CPV,Brava,Brava,CV-BR,municipality,,75.6,,,4,Atlantic/Cape_Verde,FALSE,1132533898
Beirona,Beirona,,16.6833,-22.9333,"Cabo Verde",CV,CPV,Sal,Sal,CV-SL,municipality,,102.7,,,4,Atlantic/Cape_Verde,FALSE,1132358261
Charco,Charco,,15.1220,-23.7425,"Cabo Verde",CV,CPV,"Santa Catarina","Santa Catarina",CV-CA,municipality,,164.1,,,4,Atlantic/Cape_Verde,FALSE,1132151950
Barreiro,Barreiro,,15.1350,-23.1610,"Cabo Verde",CV,CPV,Maio,Maio,CV-MA,municipality,,24.6,,,4,Atlantic/Cape_Verde,FALSE,1132625169
"Pedro Vaz","Pedro Vaz",,15.2490,-23.1150,"Cabo Verde",CV,CPV,Maio,Maio,CV-MA,municipality,,24.6,,,4,Atlantic/Cape_Verde,FALSE,1132838630
Bomfim,Bomfim,,16.7000,-22.9000,"Cabo Verde",CV,CPV,Sal,Sal,CV-SL,municipality,,102.7,,,4,Atlantic/Cape_Verde,FALSE,1132295878
Fogão,Fogao,,16.0833,-22.8500,"Cabo Verde",CV,CPV,"Boa Vista","Boa Vista",CV-BV,municipality,,31.5,,,4,Atlantic/Cape_Verde,FALSE,1132579090
Buracona,Buracona,,16.8000,-23.0000,"Cabo Verde",CV,CPV,Sal,Sal,CV-SL,municipality,,102.7,,,4,Atlantic/Cape_Verde,FALSE,1132449956
Martiana,Martiana,,17.1000,-25.2500,"Cabo Verde",CV,CPV,"Porto Novo","Porto Novo",CV-PN,municipality,,10.1,,,4,Atlantic/Cape_Verde,FALSE,1132056663
Cachacinho,Cachacinho,,16.6270,-24.3370,"Cabo Verde",CV,CPV,"Tarrafal de São Nicolau","Tarrafal de Sao Nicolau",CV-TS,municipality,,35.1,,,4,Atlantic/Cape_Verde,FALSE,1132125594
Corvo,Corvo,,17.2000,-25.1167,"Cabo Verde",CV,CPV,"Ribeira Grande","Ribeira Grande",CV-RG,municipality,,144.4,,,4,Atlantic/Cape_Verde,FALSE,1132929771
"Vila Maria Pia","Vila Maria Pia",,17.2000,-25.1000,"Cabo Verde",CV,CPV,"Ribeira Grande","Ribeira Grande",CV-RG,municipality,,144.4,,,4,Atlantic/Cape_Verde,FALSE,1132516794
"Ribeirão Chiqueiro","Ribeirao Chiqueiro",,15.0055,-23.5241,"Cabo Verde",CV,CPV,"São Domingos","Sao Domingos",CV-SD,municipality,,90.3,,,4,Atlantic/Cape_Verde,FALSE,1132377811
Forno,Forno,,14.8833,-24.4500,"Cabo Verde",CV,CPV,"São Filipe","Sao Filipe",CV-SF,municipality,,27.1,,,4,Atlantic/Cape_Verde,FALSE,1132903769
"Achada Grande","Achada Grande",,14.9870,-24.3050,"Cabo Verde",CV,CPV,Mosteiros,Mosteiros,CV-MO,municipality,,66.9,,,3,Atlantic/Cape_Verde,FALSE,1132910365
"Lapa Cachorro","Lapa Cachorro",,15.2667,-23.7000,"Cabo Verde",CV,CPV,Tarrafal,Tarrafal,CV-TA,municipality,,385.0,,,3,Atlantic/Cape_Verde,FALSE,1132666667
"Ribeira Vermelha","Ribeira Vermelha",,17.0833,-25.2833,"Cabo Verde",CV,CPV,"Porto Novo","Porto Novo",CV-PN,municipality,,10.1,,,4,Atlantic/Cape_Verde,FALSE,1132251654
"Ponta Adiante","Ponta Adiante","Ponta Adeante|Point Adeante",16.1833,-22.8500,"Cabo Verde",CV,CPV,"Boa Vista","Boa Vista",CV-BV,municipality,,31.5,,,4,Atlantic/Cape_Verde,FALSE,1132629116
"Lombo das Danças","Lombo das Dancas",,16.9833,-25.2167,"Cabo Verde",CV,CPV,"Porto Novo","Porto Novo",CV-PN,municipality,,10.1,,,4,Atlantic/Cape_Verde,FALSE,1132680885
Baluarte,Baluarte,,15.0000,-24.4000,"Cabo Verde",CV,CPV,"São Filipe","Sao Filipe",CV-SF,municipality,,27.1,,,4,Atlantic/Cape_Verde,FALSE,1132548302
Biscainhos,Biscainhos,,15.2500,-23.7000,"Cabo Verde",CV,CPV,Tarrafal,Tarrafal,CV-TA,municipality,,385.0,,,3,Atlantic/Cape_Verde,FALSE,1132509172
Espingueira,Espingueira,,16.2090,-22.7950,"Cabo Verde",CV,CPV,"Boa Vista","Boa Vista",CV-BV,municipality,,31.5,,0,3,Atlantic/Cape_Verde,FALSE,1132460818
Malveira,Malveira,,15.1333,-23.7167,"Cabo Verde",CV,CPV,"Santa Catarina","Santa Catarina",CV-CA,municipality,,164.1,,,4,Atlantic/Cape_Verde,FALSE,1132554784
Fajã,Faja,,14.8667,-24.7500,"Cabo Verde",CV,CPV,Brava,Brava,CV-BR,municipality,,75.6,,,4,Atlantic/Cape_Verde,FALSE,1132830633
"Vale da Gusta","Vale da Gusta","Vale da Custa",14.9873,-23.4703,"Cabo Verde",CV,CPV,"São Domingos","Sao Domingos",CV-SD,municipality,,139.8,,,4,Atlantic/Cape_Verde,FALSE,1132621827
Espadanã,Espadana,,17.1000,-25.1667,"Cabo Verde",CV,CPV,"Ribeira Grande","Ribeira Grande",CV-RG,municipality,,144.4,,,4,Atlantic/Cape_Verde,FALSE,1132695198
Vinagre,Vinagre,,14.8690,-24.6790,"Cabo Verde",CV,CPV,Brava,Brava,CV-BR,municipality,,75.6,,,4,Atlantic/Cape_Verde,FALSE,1132787625
Mateuzinho,Mateuzinho,Mateusinho,16.8500,-24.9333,"Cabo Verde",CV,CPV,"São Vicente","Sao Vicente",CV-SV,municipality,,379.2,,,3,Atlantic/Cape_Verde,FALSE,1132441863
"Ribeira da Prata","Ribeira da Prata","Ribeira de Prata",15.2290,-23.7450,"Cabo Verde",CV,CPV,Tarrafal,Tarrafal,CV-TA,municipality,,385.0,,,3,Atlantic/Cape_Verde,FALSE,1132233059
Círio,Cirio,,17.0667,-25.2333,"Cabo Verde",CV,CPV,"Porto Novo","Porto Novo",CV-PN,municipality,,10.1,,,4,Atlantic/Cape_Verde,FALSE,1132058996
"Praia Branca","Praia Branca",,16.6420,-24.3860,"Cabo Verde",CV,CPV,"Tarrafal de São Nicolau","Tarrafal de Sao Nicolau",CV-TS,municipality,,44.4,,,3,Atlantic/Cape_Verde,FALSE,1132119058
Montagarro,Montagarro,,14.9500,-23.5167,"Cabo Verde",CV,CPV,Praia,Praia,CV-PR,municipality,,154.3,,,4,Atlantic/Cape_Verde,FALSE,1132687198
Portal,Portal,,15.2500,-23.7167,"Cabo Verde",CV,CPV,Tarrafal,Tarrafal,CV-TA,municipality,,385.0,,,3,Atlantic/Cape_Verde,FALSE,1132784040
Mira-Mira,Mira-Mira,,14.9667,-24.4500,"Cabo Verde",CV,CPV,"São Filipe","Sao Filipe",CV-SF,municipality,,27.1,,,4,Atlantic/Cape_Verde,FALSE,1132678959
"Pedra Lume","Pedra Lume","Pedra Lum|Pedra de Lume",16.7630,-22.8950,"Cabo Verde",CV,CPV,Sal,Sal,CV-SL,municipality,,102.7,,,3,Atlantic/Cape_Verde,FALSE,1132623686
Montão,Montao,,15.2500,-23.7167,"Cabo Verde",CV,CPV,Tarrafal,Tarrafal,CV-TA,municipality,,385.0,,,3,Atlantic/Cape_Verde,FALSE,1132618075
"Nova Sintra","Nova Sintra","Vila Nova Sintra|Vila Nova Cinteus|Vila de Nova Cintra|Vila de Nova Sintra",14.8710,-24.6960,"Cabo Verde",CV,CPV,Brava,Brava,CV-BR,municipality,admin,75.6,,,2,Atlantic/Cape_Verde,FALSE,1132634480
Palhal,Palhal,,16.6040,-24.3380,"Cabo Verde",CV,CPV,"Tarrafal de São Nicolau","Tarrafal de Sao Nicolau",CV-TS,municipality,,43.1,,,4,Atlantic/Cape_Verde,FALSE,1132353013
"Vicente Dias","Vicente Dias",,14.8930,-24.4510,"Cabo Verde",CV,CPV,"São Filipe","Sao Filipe",CV-SF,municipality,,27.1,,,3,Atlantic/Cape_Verde,FALSE,1132162553
Endriano,Endriano,,17.1167,-25.1833,"Cabo Verde",CV,CPV,"Ribeira Grande","Ribeira Grande",CV-RG,municipality,,144.4,,,4,Atlantic/Cape_Verde,FALSE,1132087612
Lagoa,Lagoa,,15.1333,-23.1500,"Cabo Verde",CV,CPV,Maio,Maio,CV-MA,municipality,,24.6,,,4,Atlantic/Cape_Verde,FALSE,1132710041
"Nhã Marco","Nha Marco",,16.7000,-22.9500,"Cabo Verde",CV,CPV,Sal,Sal,CV-SL,municipality,,102.7,,,4,Atlantic/Cape_Verde,FALSE,1132483963
"Lagoa Atrás","Lagoa Atras","Lagoa Atraz",15.0167,-24.3333,"Cabo Verde",CV,CPV,Mosteiros,Mosteiros,CV-MO,municipality,,66.9,,,4,Atlantic/Cape_Verde,FALSE,1132678188
Carvoeiros,Carvoeiros,,16.6480,-24.3020,"Cabo Verde",CV,CPV,"Ribeira Brava","Ribeira Brava",CV-RB,municipality,,33.0,,,3,Atlantic/Cape_Verde,FALSE,1132881656
Relva,Relva,,14.9750,-24.2940,"Cabo Verde",CV,CPV,Mosteiros,Mosteiros,CV-MO,municipality,,66.9,,,4,Atlantic/Cape_Verde,FALSE,1132480560
"Palha Verde","Palha Verde",,16.6667,-22.9333,"Cabo Verde",CV,CPV,Sal,Sal,CV-SL,municipality,,102.7,,,4,Atlantic/Cape_Verde,FALSE,1132360221
"Curral Velho","Curral Velho",,15.9920,-22.7940,"Cabo Verde",CV,CPV,"Boa Vista","Boa Vista",CV-BV,municipality,,31.5,,,4,Atlantic/Cape_Verde,FALSE,1132584507
"Monte Vermelho","Monte Vermelho",,14.8454,-24.3281,"Cabo Verde",CV,CPV,"Santa Catarina do Fogo","Santa Catarina do Fogo",CV-CF,municipality,,27.1,,,4,Atlantic/Cape_Verde,FALSE,1132953744
Pombas,Pombas,"Vila das Pombas",17.1490,-25.0150,"Cabo Verde",CV,CPV,Paul,Paul,CV-PA,municipality,admin,395.6,,,2,Atlantic/Cape_Verde,FALSE,1132720315
"Chã do Norte","Cha do Norte",,17.1167,-25.2667,"Cabo Verde",CV,CPV,"Porto Novo","Porto Novo",CV-PN,municipality,,10.1,,,4,Atlantic/Cape_Verde,FALSE,1132537128
Selada,Selada,,17.1000,-25.2667,"Cabo Verde",CV,CPV,"Porto Novo","Porto Novo",CV-PN,municipality,,10.1,,,4,Atlantic/Cape_Verde,FALSE,1132965851
Massapé,Massape,,15.2333,-23.7000,"Cabo Verde",CV,CPV,Tarrafal,Tarrafal,CV-TA,municipality,,385.0,,,3,Atlantic/Cape_Verde,FALSE,1132518178
Montinho,Montinho,,15.2167,-23.7167,"Cabo Verde",CV,CPV,Tarrafal,Tarrafal,CV-TA,municipality,,385.0,,,3,Atlantic/Cape_Verde,FALSE,1132044722
Corvo,Corvo,,14.9990,-24.3050,"Cabo Verde",CV,CPV,Mosteiros,Mosteiros,CV-MO,municipality,,66.9,,,4,Atlantic/Cape_Verde,FALSE,1132015540
"Figueira de Coxe","Figueira de Coxe",,16.6333,-24.2167,"Cabo Verde",CV,CPV,"Ribeira Brava","Ribeira Brava",CV-RB,municipality,,33.0,,,4,Atlantic/Cape_Verde,FALSE,1132714030
Fontainhas,Fontainhas,,16.5833,-24.3333,"Cabo Verde",CV,CPV,"Tarrafal de São Nicolau","Tarrafal de Sao Nicolau",CV-TS,municipality,,44.4,,,4,Atlantic/Cape_Verde,FALSE,1132078653
Lagariça,Lagarica,,14.9190,-24.4520,"Cabo Verde",CV,CPV,"São Filipe","Sao Filipe",CV-SF,municipality,,27.1,,,4,Atlantic/Cape_Verde,FALSE,1132280480
Alcatraz,Alcatraz,,15.2170,-23.1040,"Cabo Verde",CV,CPV,Maio,Maio,CV-MA,municipality,,24.6,,,3,Atlantic/Cape_Verde,FALSE,1132327957
Pinchossa,Pinchossa,,15.1667,-23.6000,"Cabo Verde",CV,CPV,"São Miguel","Sao Miguel",CV-SM,municipality,,76.2,,,4,Atlantic/Cape_Verde,FALSE,1132656852
Tabuadinha,Tabuadinha,,17.0833,-25.1667,"Cabo Verde",CV,CPV,"Porto Novo","Porto Novo",CV-PN,municipality,,39.4,,,4,Atlantic/Cape_Verde,FALSE,1132069239
Derrubado,Derrubado,,16.2333,-22.8000,"Cabo Verde",CV,CPV,"Boa Vista","Boa Vista",CV-BV,municipality,,31.5,,,4,Atlantic/Cape_Verde,FALSE,1132859963
"Luzia Nunes","Luzia Nunes",,14.8742,-24.4390,"Cabo Verde",CV,CPV,"São Filipe","Sao Filipe",CV-SF,municipality,,27.1,,,4,Atlantic/Cape_Verde,FALSE,1132105116
Chacha,Chacha,"Xá Xá",15.2000,-23.6667,"Cabo Verde",CV,CPV,"São Miguel","Sao Miguel",CV-SM,municipality,,87.1,,,4,Atlantic/Cape_Verde,FALSE,1132952412
Queimado,Queimado,,16.9833,-25.2333,"Cabo Verde",CV,CPV,"Porto Novo","Porto Novo",CV-PN,municipality,,10.1,,,4,Atlantic/Cape_Verde,FALSE,1132544360
"Lombo de Figueira","Lombo de Figueira",,17.0991,-25.0673,"Cabo Verde",CV,CPV,"Porto Novo","Porto Novo",CV-PN,municipality,,10.1,,,4,Atlantic/Cape_Verde,FALSE,1132984301
Barril,Barril,,16.6061,-24.4203,"Cabo Verde",CV,CPV,"Tarrafal de São Nicolau","Tarrafal de Sao Nicolau",CV-TS,municipality,,44.4,,,4,Atlantic/Cape_Verde,FALSE,1132783405
Prainha,Prainha,,16.6000,-22.9167,"Cabo Verde",CV,CPV,Sal,Sal,CV-SL,municipality,,102.7,,,4,Atlantic/Cape_Verde,FALSE,1132121883
Cabeçadas,Cabecadas,,16.1167,-22.9000,"Cabo Verde",CV,CPV,"Boa Vista","Boa Vista",CV-BV,municipality,,31.5,,,4,Atlantic/Cape_Verde,FALSE,1132858922
"Selada do Mocho","Selada do Mocho",,17.1500,-25.1667,"Cabo Verde",CV,CPV,"Ribeira Grande","Ribeira Grande",CV-RG,municipality,,144.4,,,4,Atlantic/Cape_Verde,FALSE,1132919182
"São Jorge","Sao Jorge",,15.0130,-24.4300,"Cabo Verde",CV,CPV,"São Filipe","Sao Filipe",CV-SF,municipality,,27.1,,,4,Atlantic/Cape_Verde,FALSE,1132263471
"Chão Queimado","Chao Queimado","Chã de Queimado",17.0833,-25.2000,"Cabo Verde",CV,CPV,"Porto Novo","Porto Novo",CV-PN,municipality,,10.1,,,4,Atlantic/Cape_Verde,FALSE,1132741667
Covoada,Covoada,,16.6560,-24.3440,"Cabo Verde",CV,CPV,"Ribeira Brava","Ribeira Brava",CV-RB,municipality,,33.0,,,3,Atlantic/Cape_Verde,FALSE,1132141631
Tarrafal,Tarrafal,"Tarrafal da Vila de Ribeira Grande",17.1863,-25.0695,"Cabo Verde",CV,CPV,"Ribeira Grande","Ribeira Grande",CV-RG,municipality,,144.4,,,4,Atlantic/Cape_Verde,FALSE,1132338522
Fundura,Fundura,,15.1648,-23.6992,"Cabo Verde",CV,CPV,"Santa Catarina","Santa Catarina",CV-CA,municipality,,164.1,,,4,Atlantic/Cape_Verde,FALSE,1132547551
"Cova Figueira","Cova Figueira",,14.8900,-24.2940,"Cabo Verde",CV,CPV,"Santa Catarina do Fogo","Santa Catarina do Fogo",CV-CF,municipality,admin,27.1,,,2,Atlantic/Cape_Verde,FALSE,1132510430
Baboso,Baboso,,16.9833,-25.2000,"Cabo Verde",CV,CPV,"Porto Novo","Porto Novo",CV-PN,municipality,,10.1,,,4,Atlantic/Cape_Verde,FALSE,1132122241
"Estância Brás","Estancia Bras","Estancia Braz",16.6680,-24.3200,"Cabo Verde",CV,CPV,"Ribeira Brava","Ribeira Brava",CV-RB,municipality,,33.0,,,3,Atlantic/Cape_Verde,FALSE,1132832867
Ortelão,Ortelao,,16.6110,-24.3530,"Cabo Verde",CV,CPV,"Tarrafal de São Nicolau","Tarrafal de Sao Nicolau",CV-TS,municipality,,44.4,,,4,Atlantic/Cape_Verde,FALSE,1132502777
"Curral Branco","Curral Branco",,16.0333,-22.8000,"Cabo Verde",CV,CPV,"Boa Vista","Boa Vista",CV-BV,municipality,,31.5,,,4,Atlantic/Cape_Verde,FALSE,1132361033
"Ponta São Francisco","Ponta Sao Francisco",,14.9833,-23.5000,"Cabo Verde",CV,CPV,Praia,Praia,CV-PR,municipality,,154.3,,,4,Atlantic/Cape_Verde,FALSE,1132128014
"Ribeira da Cruz","Ribeira da Cruz",,17.1070,-25.2450,"Cabo Verde",CV,CPV,"Porto Novo","Porto Novo",CV-PN,municipality,,10.1,,,3,Atlantic/Cape_Verde,FALSE,1132226307
Cabeçalinho,Cabecalinho,,16.6040,-24.3210,"Cabo Verde",CV,CPV,"Tarrafal de São Nicolau","Tarrafal de Sao Nicolau",CV-TS,municipality,,35.1,,,3,Atlantic/Cape_Verde,FALSE,1132946333
"Penha de França","Penha de Franca",,17.1889,-25.0732,"Cabo Verde",CV,CPV,"Ribeira Grande","Ribeira Grande",CV-RG,municipality,,144.4,,,4,Atlantic/Cape_Verde,FALSE,1132707470
Morrinho,Morrinho,,15.2660,-23.2050,"Cabo Verde",CV,CPV,Maio,Maio,CV-MA,municipality,,24.6,,,4,Atlantic/Cape_Verde,FALSE,1132234708
"São Martinho","Sao Martinho",,14.9232,-23.5686,"Cabo Verde",CV,CPV,"Ribeira Grande de Santiago","Ribeira Grande de Santiago",CV-RS,municipality,,63.3,,,4,Atlantic/Cape_Verde,FALSE,1132531630
Morro,Morro,,15.1800,-23.2220,"Cabo Verde",CV,CPV,Maio,Maio,CV-MA,municipality,,24.6,,,4,Atlantic/Cape_Verde,FALSE,1132555072
"Figueira da Horta","Figueira da Horta",,15.1500,-23.1500,"Cabo Verde",CV,CPV,Maio,Maio,CV-MA,municipality,,24.6,,,4,Atlantic/Cape_Verde,FALSE,1132735973
Morrinho,Morrinho,,16.9667,-25.2333,"Cabo Verde",CV,CPV,"Porto Novo","Porto Novo",CV-PN,municipality,,10.1,,,4,Atlantic/Cape_Verde,FALSE,1132946771
Juncalinho,Juncalinho,,16.6130,-24.1320,"Cabo Verde",CV,CPV,"Ribeira Brava","Ribeira Brava",CV-RB,municipality,,33.0,,,3,Atlantic/Cape_Verde,FALSE,1132753536
"Figueiras de Baixo","Figueiras de Baixo",,17.1500,-25.2167,"Cabo Verde",CV,CPV,"Ribeira Grande","Ribeira Grande",CV-RG,municipality,,144.4,,,4,Atlantic/Cape_Verde,FALSE,1132107204
"Achada Baleia","Achada Baleia",,15.0463,-23.4644,"Cabo Verde",CV,CPV,"São Domingos","Sao Domingos",CV-SD,municipality,,90.3,,,4,Atlantic/Cape_Verde,FALSE,1132818811
Esgamaleiro,Esgamaleiro,,17.1167,-25.1500,"Cabo Verde",CV,CPV,"Ribeira Grande","Ribeira Grande",CV-RG,municipality,,144.4,,,4,Atlantic/Cape_Verde,FALSE,1132702569
Reguinho,Reguinho,,16.8500,-22.9333,"Cabo Verde",CV,CPV,Sal,Sal,CV-SL,municipality,,102.7,,,4,Atlantic/Cape_Verde,FALSE,1132610726
"Mato Correia","Mato Correia",,15.2060,-23.6370,"Cabo Verde",CV,CPV,"São Miguel","Sao Miguel",CV-SM,municipality,,87.1,,,4,Atlantic/Cape_Verde,FALSE,1132387496
"Vila Nova","Vila Nova",,14.9333,-23.5167,"Cabo Verde",CV,CPV,Praia,Praia,CV-PR,municipality,,154.3,,,4,Atlantic/Cape_Verde,FALSE,1132472336
Fiura,Fiura,,16.8500,-22.9167,"Cabo Verde",CV,CPV,Sal,Sal,CV-SL,municipality,,102.7,,,4,Atlantic/Cape_Verde,FALSE,1132044058
"Chã da Igreja","Cha da Igreja","Chã de Igreja|Chã da Egreja",17.1571,-25.1635,"Cabo Verde",CV,CPV,"Ribeira Grande","Ribeira Grande",CV-RG,municipality,,144.4,,,3,Atlantic/Cape_Verde,FALSE,1132834388
"Areia Branca","Areia Branca",,16.9000,-24.9667,"Cabo Verde",CV,CPV,"São Vicente","Sao Vicente",CV-SV,municipality,,379.2,,,3,Atlantic/Cape_Verde,FALSE,1132659904
"Lombo do Mar","Lombo do Mar",,17.1167,-25.1667,"Cabo Verde",CV,CPV,"Ribeira Grande","Ribeira Grande",CV-RG,municipality,,144.4,,,4,Atlantic/Cape_Verde,FALSE,1132576136
"São Jorge","Sao Jorge",,16.0667,-22.8167,"Cabo Verde",CV,CPV,"Boa Vista","Boa Vista",CV-BV,municipality,,31.5,,,4,Atlantic/Cape_Verde,FALSE,1132548823
Escada,Escada,,16.5833,-24.3667,"Cabo Verde",CV,CPV,"Tarrafal de São Nicolau","Tarrafal de Sao Nicolau",CV-TS,municipality,,44.4,,,4,Atlantic/Cape_Verde,FALSE,1132123711
"Figueira Pavão","Figueira Pavao",,14.8710,-24.3110,"Cabo Verde",CV,CPV,"Santa Catarina do Fogo","Santa Catarina do Fogo",CV-CF,municipality,,27.1,,,3,Atlantic/Cape_Verde,FALSE,1132965594
"Chã de Paulo","Cha de Paulo",,17.1500,-25.2000,"Cabo Verde",CV,CPV,"Ribeira Grande","Ribeira Grande",CV-RG,municipality,,144.4,,,4,Atlantic/Cape_Verde,FALSE,1132327053
"Chã da Ribeira","Cha da Ribeira",,17.1167,-25.2667,"Cabo Verde",CV,CPV,"Porto Novo","Porto Novo",CV-PN,municipality,,10.1,,,4,Atlantic/Cape_Verde,FALSE,1132985817
Cachaço,Cachaco,,17.0500,-25.2000,"Cabo Verde",CV,CPV,"Porto Novo","Porto Novo",CV-PN,municipality,,10.1,,,4,Atlantic/Cape_Verde,FALSE,1132493139
"São João","Sao Joao",,14.9500,-23.6667,"Cabo Verde",CV,CPV,"Ribeira Grande de Santiago","Ribeira Grande de Santiago",CV-RS,municipality,,63.3,,,4,Atlantic/Cape_Verde,FALSE,1132507469
"Fazenda Real","Fazenda Real",,16.8667,-24.9500,"Cabo Verde",CV,CPV,"São Vicente","Sao Vicente",CV-SV,municipality,,379.2,,,3,Atlantic/Cape_Verde,FALSE,1132404599
"Palha Carga","Palha Carga",,15.0730,-23.6990,"Cabo Verde",CV,CPV,"São Miguel","Sao Miguel",CV-SM,municipality,,88.6,,,4,Atlantic/Cape_Verde,FALSE,1132370056
"Praia Baixo","Praia Baixo","Praia Abaixo",15.0595,-23.4721,"Cabo Verde",CV,CPV,"São Domingos","Sao Domingos",CV-SD,municipality,,90.3,,,3,Atlantic/Cape_Verde,FALSE,1132416615
