city,city_ascii,city_alt,lat,lng,country,iso2,iso3,admin_name,admin_name_ascii,admin_code,admin_type,capital,density,population,population_proper,ranking,timezone,same_name,id
Douala,Douala,Doula|Duala,4.0500,9.7000,Cameroon,CM,CMR,Littoral,Littoral,CM-LT,region,admin,3202.3,5768400,5768400,1,Africa/Douala,FALSE,1120494607
Yaoundé,Yaounde,Jaúnde,3.8667,11.5167,Cameroon,CM,CMR,Centre,Centre,CM-CE,region,primary,15364.4,2440462,2440462,1,Africa/Douala,FALSE,1120298240
Bamenda,Bamenda,,5.9614,10.1517,Cameroon,CM,CMR,North-West,North-West,CM-NW,region,admin,400.4,2000000,348766,1,Africa/Douala,FALSE,1120909610
Garoua,Garoua,Garua,9.3000,13.4000,Cameroon,CM,CMR,Nord,Nord,CM-NO,region,admin,123.4,600000,600000,2,Africa/Douala,FALSE,1120803808
Bafoussam,Bafoussam,Bafousam|Befoussam|Bafusam,5.4667,10.4167,Cameroon,CM,CMR,Ouest,Ouest,CM-OU,region,admin,595.2,600000,239287,2,Africa/Douala,FALSE,1120435460
Maroua,Maroua,Marua,10.5971,14.3157,Cameroon,CM,CMR,Extrême-Nord,Extreme-Nord,CM-EN,region,admin,212.6,201371,201371,2,Africa/Douala,FALSE,1120956931
Ngaoundéré,Ngaoundere,Ngaundere,7.3167,13.5833,Cameroon,CM,CMR,Adamaoua,Adamaoua,CM-AD,region,admin,30.7,189800,189800,2,Africa/Douala,FALSE,1120011020
Nkongsamba,Nkongsamba,Nkongsomba,4.9500,9.9333,Cameroon,CM,CMR,Littoral,Littoral,CM-LT,region,,103.6,135405,135405,2,Africa/Douala,FALSE,1120972098
Bibémi,Bibemi,Bibéme,9.3167,13.8833,Cameroon,CM,CMR,Nord,Nord,CM-NO,region,,123.4,133191,133191,2,Africa/Douala,FALSE,1120285705
Buea,Buea,,4.1667,9.2333,Cameroon,CM,CMR,South-West,South-West,CM-SW,region,admin,384.1,131325,131325,2,Africa/Douala,FALSE,1120497849
Kousséri,Kousseri,"Kusseri|Fort-Foureau|Fort Fureau",12.0833,15.0333,Cameroon,CM,CMR,Extrême-Nord,Extreme-Nord,CM-EN,region,,63.7,101246,101246,2,Africa/Douala,FALSE,1120996697
Bogo,Bogo,,10.7340,14.6080,Cameroon,CM,CMR,Extrême-Nord,Extreme-Nord,CM-EN,region,,212.6,95230,95230,3,Africa/Douala,FALSE,1120371347
Bertoua,Bertoua,Bertua|Gamane,4.5833,13.6833,Cameroon,CM,CMR,Est,Est,CM-ES,region,admin,16.7,88462,88462,2,Africa/Douala,FALSE,1120406967
Widekum,Widekum,,5.8717,9.7706,Cameroon,CM,CMR,North-West,North-West,CM-NW,region,,8.8,86822,86822,3,Africa/Douala,FALSE,1120813839
Maga,Maga,,10.8500,14.9333,Cameroon,CM,CMR,Extrême-Nord,Extreme-Nord,CM-EN,region,,132.2,85100,85100,3,Africa/Douala,FALSE,1120666970
Foumban,Foumban,Foumbam|Fumban,5.7167,10.9167,Cameroon,CM,CMR,Ouest,Ouest,CM-OU,region,,85.3,83522,83522,3,Africa/Douala,FALSE,1120088650
Bafut,Bafut,,6.0833,10.1000,Cameroon,CM,CMR,North-West,North-West,CM-NW,region,,400.4,80305,80305,3,Africa/Douala,FALSE,1120828506
Kumbo,Kumbo,,6.2050,10.6850,Cameroon,CM,CMR,North-West,North-West,CM-NW,region,,210.9,80212,80212,3,Africa/Douala,FALSE,1120679288
Eséka,Eseka,,3.6500,10.7667,Cameroon,CM,CMR,Centre,Centre,CM-CE,region,,26.1,79500,79500,3,Africa/Douala,FALSE,1120064220
Tiko,Tiko,,4.0750,9.3600,Cameroon,CM,CMR,South-West,South-West,CM-SW,region,,384.1,78885,78885,3,Africa/Douala,FALSE,1120287576
Ébolowa,Ebolowa,Ebolova,2.9167,11.1500,Cameroon,CM,CMR,Sud,Sud,CM-SU,region,admin,32.8,76885,76885,2,Africa/Douala,FALSE,1120924207
Dschang,Dschang,Djang|Tchang|Dchang|Chang,5.4500,10.0667,Cameroon,CM,CMR,Ouest,Ouest,CM-OU,region,,292.1,76524,76524,3,Africa/Douala,FALSE,1120569504
Edéa,Edea,,3.8000,10.1333,Cameroon,CM,CMR,Littoral,Littoral,CM-LT,region,,21.2,73128,73128,3,Africa/Douala,FALSE,1120546542
Tibati,Tibati,,6.4667,12.6333,Cameroon,CM,CMR,Adamaoua,Adamaoua,CM-AD,region,,17.6,72081,72081,3,Africa/Douala,FALSE,1120299131
Melong,Melong,,5.1211,9.9528,Cameroon,CM,CMR,Littoral,Littoral,CM-LT,region,,103.6,71189,71189,3,Africa/Douala,FALSE,1120198694
Bafia,Bafia,"Bafiā Ngitakuba",4.7500,11.2167,Cameroon,CM,CMR,Centre,Centre,CM-CE,region,,33.0,69270,69270,3,Africa/Douala,FALSE,1120310806
Guider,Guider,Guidder|Gider,9.9342,13.9486,Cameroon,CM,CMR,Nord,Nord,CM-NO,region,,158.9,65165,65165,3,Africa/Douala,FALSE,1120662630
Sangmélima,Sangmelima,Sangmelina,2.9333,11.9833,Cameroon,CM,CMR,Sud,Sud,CM-SU,region,,14.7,64227,64227,3,Africa/Douala,FALSE,1120387598
Mbalmayo,Mbalmayo,Mbalmajo,3.5167,11.5000,Cameroon,CM,CMR,Centre,Centre,CM-CE,region,,39.5,60091,60091,3,Africa/Douala,FALSE,1120049681
Kribi,Kribi,,2.9350,9.9100,Cameroon,CM,CMR,Sud,Sud,CM-SU,region,,26.9,60000,60000,3,Africa/Douala,FALSE,1120360100
Foumbot,Foumbot,Foumbat,5.5000,10.6333,Cameroon,CM,CMR,Ouest,Ouest,CM-OU,region,,85.3,57367,57367,3,Africa/Douala,FALSE,1120775025
Mora,Mora,,11.0500,14.1500,Cameroon,CM,CMR,Extrême-Nord,Extreme-Nord,CM-EN,region,,179.2,53667,53667,3,Africa/Douala,FALSE,1120392077
Baham,Baham,,5.3333,10.4000,Cameroon,CM,CMR,Ouest,Ouest,CM-OU,region,,237.3,51500,51500,3,Africa/Douala,FALSE,1120072101
Mbouda,Mbouda,,5.6333,10.2500,Cameroon,CM,CMR,Ouest,Ouest,CM-OU,region,,339.3,49313,49313,3,Africa/Douala,FALSE,1120195491
Loum,Loum,Lum,4.7180,9.7300,Cameroon,CM,CMR,Littoral,Littoral,CM-LT,region,,103.6,47305,47305,3,Africa/Douala,FALSE,1120110128
"Baba I","Baba I",Baba,6.0622,10.4903,Cameroon,CM,CMR,North-West,North-West,CM-NW,region,,272.4,45000,45000,3,Africa/Douala,FALSE,1120222398
Yagoua,Yagoua,Yagua|Jágua,10.3428,15.2406,Cameroon,CM,CMR,Extrême-Nord,Extreme-Nord,CM-EN,region,,132.2,41957,41957,3,Africa/Douala,FALSE,1120388576
Meïganga,Meiganga,Meiganda,6.5300,14.3700,Cameroon,CM,CMR,Adamaoua,Adamaoua,CM-AD,region,,16.1,41314,41314,3,Africa/Douala,FALSE,1120789508
Mokolo,Mokolo,,10.7400,13.8000,Cameroon,CM,CMR,Extrême-Nord,Extreme-Nord,CM-EN,region,,266.8,40168,40168,3,Africa/Douala,FALSE,1120289631
Bamessing,Bamessing,,5.9847,10.3603,Cameroon,CM,CMR,North-West,North-West,CM-NW,region,,400.4,40000,40000,3,Africa/Douala,FALSE,1120344122
Obala,Obala,,4.1667,11.5333,Cameroon,CM,CMR,Centre,Centre,CM-CE,region,,98.0,37888,37888,3,Africa/Douala,FALSE,1120045790
Bamendjou,Bamendjou,,5.4000,10.3167,Cameroon,CM,CMR,Ouest,Ouest,CM-OU,region,,144.4,37547,37547,3,Africa/Douala,FALSE,1120189135
Monatélé,Monatele,,4.2667,11.2000,Cameroon,CM,CMR,Centre,Centre,CM-CE,region,,85.9,36933,36933,3,Africa/Douala,FALSE,1120594177
Mamfe,Mamfe,,5.7667,9.2833,Cameroon,CM,CMR,South-West,South-West,CM-SW,region,,27.9,36500,36500,3,Africa/Douala,FALSE,1120298819
Ngaoundal,Ngaoundal,,6.5000,13.2667,Cameroon,CM,CMR,Adamaoua,Adamaoua,CM-AD,region,,17.6,34971,34971,3,Africa/Douala,FALSE,1120312039
Biwong,Biwong,,3.1333,11.1500,Cameroon,CM,CMR,Sud,Sud,CM-SU,region,,23.78,34374,34374,3,Africa/Douala,FALSE,1120534976
Batouri,Batouri,Baturi,4.4333,14.3667,Cameroon,CM,CMR,Est,Est,CM-ES,region,,5.8,33594,33594,3,Africa/Douala,FALSE,1120380999
Bafang,Bafang,,5.1500,10.1833,Cameroon,CM,CMR,Ouest,Ouest,CM-OU,region,,135.3,33342,33342,3,Africa/Douala,FALSE,1120889812
Batcha,Batcha,,5.1500,10.1833,Cameroon,CM,CMR,Ouest,Ouest,CM-OU,region,,135.3,33324,33324,3,Africa/Douala,FALSE,1120337666
Messaména,Messamena,Mesaména,3.7333,12.8333,Cameroon,CM,CMR,Est,Est,CM-ES,region,,6.5,32282,32282,3,Africa/Douala,FALSE,1120403736
Kumba,Kumba,,4.6333,9.4500,Cameroon,CM,CMR,South-West,South-West,CM-SW,region,,178.5,31672,31672,3,Africa/Douala,FALSE,1120492761
Kaelé,Kaele,Jarua’s,10.1000,14.4500,Cameroon,CM,CMR,Extrême-Nord,Extreme-Nord,CM-EN,region,,138.5,30609,30609,3,Africa/Douala,FALSE,1120553788
"Nanga Eboko","Nanga Eboko",,4.6708,12.3731,Cameroon,CM,CMR,Centre,Centre,CM-CE,region,,4.3,29814,29814,3,Africa/Douala,FALSE,1120540405
Mbanga,Mbanga,M’Bangé,4.5092,9.5681,Cameroon,CM,CMR,Littoral,Littoral,CM-LT,region,,103.6,29732,29732,3,Africa/Douala,TRUE,1120507574
Manjo,Manjo,,4.8500,9.8167,Cameroon,CM,CMR,Littoral,Littoral,CM-LT,region,,103.6,29683,29683,3,Africa/Douala,FALSE,1120935317
Figuil,Figuil,Fīgil,9.7667,13.9667,Cameroon,CM,CMR,Nord,Nord,CM-NO,region,,158.9,29399,29399,3,Africa/Douala,FALSE,1120977247
Pitoa,Pitoa,Piloa|Pitowa,9.3833,13.5333,Cameroon,CM,CMR,Nord,Nord,CM-NO,region,,123.4,28636,28636,3,Africa/Douala,FALSE,1120762308
Lagdo,Lagdo,,9.0500,13.7333,Cameroon,CM,CMR,Nord,Nord,CM-NO,region,,123.4,28239,28239,3,Africa/Douala,FALSE,1120762160
Nguti,Nguti,,5.3167,9.4167,Cameroon,CM,CMR,South-West,South-West,CM-SW,region,,18.8,27151,27151,3,Africa/Douala,FALSE,1120701627
Limbe,Limbe,Victoria,4.0167,9.2167,Cameroon,CM,CMR,South-West,South-West,CM-SW,region,,384.1,26988,26988,3,Africa/Douala,FALSE,1120635273
Bamessi,Bamessi,Babessi,6.0333,10.5792,Cameroon,CM,CMR,North-West,North-West,CM-NW,region,,272.4,26802,26802,3,Africa/Douala,FALSE,1120836103
Kalfou,Kalfou,Kalfu,10.2833,14.9333,Cameroon,CM,CMR,Extrême-Nord,Extreme-Nord,CM-EN,region,,132.2,26223,26223,3,Africa/Douala,FALSE,1120297396
Wum,Wum,,6.3833,10.0667,Cameroon,CM,CMR,North-West,North-West,CM-NW,region,,48.2,26123,26123,3,Africa/Douala,FALSE,1120557987
Yokadouma,Yokadouma,Youkadouma,3.5167,15.0500,Cameroon,CM,CMR,Est,Est,CM-ES,region,,5.1,24430,24430,3,Africa/Douala,FALSE,1120416546
Touboro,Touboro,,7.7708,15.3567,Cameroon,CM,CMR,Nord,Nord,CM-NO,region,,20.2,23196,23196,3,Africa/Douala,FALSE,1120000456
Ayos,Ayos,Ajŏs,3.9069,12.5272,Cameroon,CM,CMR,Centre,Centre,CM-CE,region,,19.8,22899,22899,3,Africa/Douala,FALSE,1120902688
"Garoua Boulaï","Garoua Boulai",,5.8833,14.5500,Cameroon,CM,CMR,Est,Est,CM-ES,region,,16.7,22882,22882,3,Africa/Douala,FALSE,1120290274
Bélabo,Belabo,,4.9333,13.3000,Cameroon,CM,CMR,Est,Est,CM-ES,region,,16.7,22553,22553,3,Africa/Douala,FALSE,1120106572
Mbandjok,Mbandjok,Mbandjock,4.4500,11.9000,Cameroon,CM,CMR,Centre,Centre,CM-CE,region,,10.6,21841,21841,3,Africa/Douala,FALSE,1120826552
Akonolinga,Akonolinga,Akomolinga,3.7667,12.2500,Cameroon,CM,CMR,Centre,Centre,CM-CE,region,,19.8,21299,21299,3,Africa/Douala,FALSE,1120103788
Bambalang,Bambalang,,5.8867,10.5331,Cameroon,CM,CMR,North-West,North-West,CM-NW,region,,272.4,20863,20863,3,Africa/Douala,FALSE,1120261303
Kekem,Kekem,,5.1667,10.0333,Cameroon,CM,CMR,Ouest,Ouest,CM-OU,region,,135.3,20579,20579,3,Africa/Douala,FALSE,1120134625
Nkoteng,Nkoteng,,4.5167,12.0333,Cameroon,CM,CMR,Centre,Centre,CM-CE,region,,10.6,20100,20100,3,Africa/Douala,FALSE,1120935035
Bamukumbit,Bamukumbit,,5.8167,10.4167,Cameroon,CM,CMR,North-West,North-West,CM-NW,region,,272.4,20000,20000,3,Africa/Douala,FALSE,1120063479
Bamumkumbit,Bamumkumbit,Bamunkumbit,5.8167,10.4167,Cameroon,CM,CMR,Ouest,Ouest,CM-OU,region,,305.6,20000,20000,3,Africa/Douala,FALSE,1120980462
"Abong Mbang","Abong Mbang",,3.9833,13.1667,Cameroon,CM,CMR,Est,Est,CM-ES,region,,6.8,18700,18700,3,Africa/Douala,FALSE,1120726386
Bafanji,Bafanji,Bafani,5.8361,10.4000,Cameroon,CM,CMR,North-West,North-West,CM-NW,region,,272.4,17890,17890,3,Africa/Douala,FALSE,1120039159
Diang,Diang,,4.5833,13.3500,Cameroon,CM,CMR,Est,Est,CM-ES,region,,16.7,15795,15795,3,Africa/Douala,FALSE,1120665597
Ngoulemakong,Ngoulemakong,Ngūlemakong,3.0833,11.4333,Cameroon,CM,CMR,Sud,Sud,CM-SU,region,,32.8,14675,14675,3,Africa/Douala,FALSE,1120215656
Yoko,Yoko,Joko,5.5924,12.3158,Cameroon,CM,CMR,Centre,Centre,CM-CE,region,,6.8,12332,12332,3,Africa/Douala,FALSE,1120361153
Ngou,Ngou,Bangou|Banjou,5.2000,10.3833,Cameroon,CM,CMR,Ouest,Ouest,CM-OU,region,,237.3,12000,12000,3,Africa/Douala,FALSE,1120597405
Tefam,Tefam,Batoufam,5.2667,10.4667,Cameroon,CM,CMR,Ouest,Ouest,CM-OU,region,,69.8,12000,12000,3,Africa/Douala,FALSE,1120869867
Mfou,Mfou,,3.9600,11.9300,Cameroon,CM,CMR,Centre,Centre,CM-CE,region,,53.4,10533,10533,3,Africa/Douala,FALSE,1120739101
Balikumbat,Balikumbat,,5.8928,10.3597,Cameroon,CM,CMR,North-West,North-West,CM-NW,region,,272.4,10163,10163,3,Africa/Douala,FALSE,1120000865
Olamzé,Olamze,,2.2167,11.0833,Cameroon,CM,CMR,Sud,Sud,CM-SU,region,,16.0,8518,8518,4,Africa/Douala,FALSE,1120708879
Kontcha,Kontcha,Kontscha|Koncha,7.9667,12.2333,Cameroon,CM,CMR,Adamaoua,Adamaoua,CM-AD,region,,12.4,8018,8018,4,Africa/Douala,FALSE,1120016766
Bamali,Bamali,Bamale,5.9525,10.4375,Cameroon,CM,CMR,North-West,North-West,CM-NW,region,,272.4,7690,7690,3,Africa/Douala,FALSE,1120444710
Bandjoun,Bandjoun,,5.3500,10.4000,Cameroon,CM,CMR,Ouest,Ouest,CM-OU,region,,25.1,6872,6872,3,Africa/Douala,FALSE,1120913349
Makary,Makary,Mafaté|Mafete|Makari,12.5742,14.4539,Cameroon,CM,CMR,Extrême-Nord,Extreme-Nord,CM-EN,region,,63.7,6287,6287,4,Africa/Douala,FALSE,1120983848
Aiyomojok,Aiyomojok,,5.7504,8.9833,Cameroon,CM,CMR,South-West,South-West,CM-SW,region,,27.9,5798,5798,4,Africa/Douala,FALSE,1120658014
Bana,Bana,,5.1500,10.2667,Cameroon,CM,CMR,Ouest,Ouest,CM-OU,region,,43.7,5727,5727,4,Africa/Douala,FALSE,1120321556
Bandrefam,Bandrefam,,5.2167,10.4833,Cameroon,CM,CMR,Ouest,Ouest,CM-OU,region,,294.1,5000,5000,3,Africa/Douala,FALSE,1120603094
Bali-Gashu,Bali-Gashu,,5.8144,10.3889,Cameroon,CM,CMR,North-West,North-West,CM-NW,region,,325.4,4102,4102,3,Africa/Douala,FALSE,1120656649
Mbé,Mbe,M’Baï,7.8500,13.6000,Cameroon,CM,CMR,Nord,Nord,CM-NO,region,,30.7,3950,3950,4,Africa/Douala,FALSE,1120400000
Ntui,Ntui,Ntwi|N’Dui,4.4500,11.6333,Cameroon,CM,CMR,Centre,Centre,CM-CE,region,,6.5,2800,2800,4,Africa/Douala,FALSE,1120334280
Kalaldi,Kalaldi,,6.5000,14.0667,Cameroon,CM,CMR,Adamaoua,Adamaoua,CM-AD,region,,16.1,2344,2344,3,Africa/Douala,FALSE,1120846511
Dembo,Dembo,,9.7106,13.5497,Cameroon,CM,CMR,Nord,Nord,CM-NO,region,,123.4,2284,2284,4,Africa/Douala,FALSE,1120788248
Ribao,Ribao,Nana’s,6.5000,11.4333,Cameroon,CM,CMR,Adamaoua,Adamaoua,CM-AD,region,,40.3,2073,2073,3,Africa/Douala,FALSE,1120292001
Tinto,Tinto,,5.5453,9.5894,Cameroon,CM,CMR,South-West,South-West,CM-SW,region,,1.7,2046,2046,4,Africa/Douala,FALSE,1120456840
Lindo,Lindo,,3.7500,11.1000,Cameroon,CM,CMR,Centre,Centre,CM-CE,region,,26.1,1973,1973,3,Africa/Douala,FALSE,1120816158
Lokoti,Lokoti,Lokoli,6.3667,14.3333,Cameroon,CM,CMR,Adamaoua,Adamaoua,CM-AD,region,,16.1,1956,1956,4,Africa/Douala,FALSE,1120920104
Gadjiwan,Gadjiwan,Gayivayo|Gayivao|Gājiwáu|Gadjwan|Gayioau,7.6500,12.3833,Cameroon,CM,CMR,Adamaoua,Adamaoua,CM-AD,region,,12.4,1681,1681,3,Africa/Douala,FALSE,1120201928
Tello,Tello,,7.1667,14.1833,Cameroon,CM,CMR,Adamaoua,Adamaoua,CM-AD,region,,30.7,1659,1659,4,Africa/Douala,FALSE,1120726394
Ngaouyanga,Ngaouyanga,Gaoyanga|Goyanga,7.9000,13.6000,Cameroon,CM,CMR,Adamaoua,Adamaoua,CM-AD,region,,30.7,1598,1598,4,Africa/Douala,FALSE,1120302844
Ambam,Ambam,,2.3833,11.2833,Cameroon,CM,CMR,Sud,Sud,CM-SU,region,,16.0,1596,1596,3,Africa/Douala,FALSE,1120379198
Awaé,Awae,"Awaé I",3.8833,11.8833,Cameroon,CM,CMR,Centre,Centre,CM-CE,region,,53.4,1588,1588,4,Africa/Douala,TRUE,1120143866
Bayara,Bayara,,6.9667,14.4667,Cameroon,CM,CMR,Adamaoua,Adamaoua,CM-AD,region,,30.7,1479,1479,4,Africa/Douala,FALSE,1120000082
Bali-Gangsin,Bali-Gangsin,,5.8211,10.3583,Cameroon,CM,CMR,North-West,North-West,CM-NW,region,,272.4,1080,1080,3,Africa/Douala,FALSE,1120429317
Gankoumbol,Gankoumbol,Gaukoumboum|Gaukumbal|Gamkoumbon,6.2667,14.3667,Cameroon,CM,CMR,Adamaoua,Adamaoua,CM-AD,region,,16.1,1048,1048,3,Africa/Douala,FALSE,1120125844
Toukouroua,Toukouroua,Takoura|Tukurūa|Tukorua,6.6333,11.6833,Cameroon,CM,CMR,Adamaoua,Adamaoua,CM-AD,region,,40.3,998,998,3,Africa/Douala,FALSE,1120144111
Goumbéla,Goumbela,Gumbela|Gumbĭla|Gombila,6.6700,14.2000,Cameroon,CM,CMR,Adamaoua,Adamaoua,CM-AD,region,,16.1,894,894,4,Africa/Douala,FALSE,1120263722
"Bakari Bata","Bakari Bata",,6.9333,14.6000,Cameroon,CM,CMR,Adamaoua,Adamaoua,CM-AD,region,,30.7,879,879,4,Africa/Douala,FALSE,1120267591
Malombo,Malombo,Molombo,6.8667,13.7000,Cameroon,CM,CMR,Adamaoua,Adamaoua,CM-AD,region,,30.7,839,839,4,Africa/Douala,FALSE,1120672985
Achama,Achama,,5.9523,9.7407,Cameroon,CM,CMR,North-West,North-West,CM-NW,region,,80.9,834,834,3,Africa/Douala,FALSE,1120155949
Daré,Dare,,7.0400,15.0300,Cameroon,CM,CMR,Adamaoua,Adamaoua,CM-AD,region,,16.1,803,803,3,Africa/Douala,FALSE,1120479762
Néminaka,Neminaka,Némounaka,6.8833,14.1000,Cameroon,CM,CMR,Adamaoua,Adamaoua,CM-AD,region,,30.7,694,694,4,Africa/Douala,FALSE,1120248626
Dankali,Dankali,,6.2400,14.1500,Cameroon,CM,CMR,Adamaoua,Adamaoua,CM-AD,region,,16.1,620,620,4,Africa/Douala,FALSE,1120336434
Cha,Cha,,6.4781,10.2294,Cameroon,CM,CMR,North-West,North-West,CM-NW,region,,48.2,593,593,4,Africa/Douala,FALSE,1120113483
Bounjoukoura,Bounjoukoura,,6.8500,11.6167,Cameroon,CM,CMR,Adamaoua,Adamaoua,CM-AD,region,,40.3,536,536,3,Africa/Douala,FALSE,1120493442
Louguereo,Louguereo,Louguéréo|Lougéréo,10.5168,13.8950,Cameroon,CM,CMR,Extrême-Nord,Extreme-Nord,CM-EN,region,,266.8,503,503,3,Africa/Douala,FALSE,1120415914
Lompta,Lompta,,7.0500,12.5333,Cameroon,CM,CMR,Adamaoua,Adamaoua,CM-AD,region,,12.4,500,500,3,Africa/Douala,FALSE,1120109213
Ngoulmékong,Ngoulmekong,,3.8258,12.7417,Cameroon,CM,CMR,Est,Est,CM-ES,region,,6.8,446,446,4,Africa/Douala,FALSE,1120858995
Koriong,Koriong,,6.9667,14.5000,Cameroon,CM,CMR,Adamaoua,Adamaoua,CM-AD,region,,30.7,445,445,4,Africa/Douala,FALSE,1120858523
Minim,Minim,Ménim,6.9683,12.8702,Cameroon,CM,CMR,Adamaoua,Adamaoua,CM-AD,region,,30.7,432,432,4,Africa/Douala,FALSE,1120172746
Babongo,Babongo,Dabongo,6.8100,14.1800,Cameroon,CM,CMR,Adamaoua,Adamaoua,CM-AD,region,,22.4,360,360,3,Africa/Douala,FALSE,1120167474
Matakoro,Matakoro,,7.5167,13.2500,Cameroon,CM,CMR,Adamaoua,Adamaoua,CM-AD,region,,30.7,312,312,3,Africa/Douala,FALSE,1120471492
Bembaran,Bembaran,,6.1400,14.2200,Cameroon,CM,CMR,Adamaoua,Adamaoua,CM-AD,region,,16.1,271,271,3,Africa/Douala,FALSE,1120183158
Bobodji,Bobodji,,6.9833,13.0167,Cameroon,CM,CMR,Adamaoua,Adamaoua,CM-AD,region,,30.7,269,269,3,Africa/Douala,FALSE,1120794603
"Nkolobang II","Nkolobang II",,4.1800,11.2600,Cameroon,CM,CMR,Centre,Centre,CM-CE,region,,98.0,172,172,4,Africa/Douala,FALSE,1120977655
Chétok,Chetok,,10.8686,13.8516,Cameroon,CM,CMR,Extrême-Nord,Extreme-Nord,CM-EN,region,,266.8,,,3,Africa/Douala,FALSE,1120146986
Karba,Karba,,10.0432,14.1529,Cameroon,CM,CMR,Nord,Nord,CM-NO,region,,158.9,,,4,Africa/Douala,FALSE,1120196695
Nigba,Nigba,,8.1275,13.5752,Cameroon,CM,CMR,Nord,Nord,CM-NO,region,,20.2,,,4,Africa/Douala,FALSE,1120714808
Bayang,Bayang,,3.6833,10.4333,Cameroon,CM,CMR,Centre,Centre,CM-CE,region,,26.1,,,4,Africa/Douala,FALSE,1120233558
Goétou,Goetou,,5.0833,12.0833,Cameroon,CM,CMR,Centre,Centre,CM-CE,region,,6.8,,,5,Africa/Douala,FALSE,1120203685
Doualayel,Doualayel,"Petit Douala|Douala",7.0167,12.6667,Cameroon,CM,CMR,Adamaoua,Adamaoua,CM-AD,region,,12.4,,,4,Africa/Douala,FALSE,1120753609
"Nimbango Kolbanou","Nimbango Kolbanou",,8.5402,12.4644,Cameroon,CM,CMR,Nord,Nord,CM-NO,region,,6.8,,,5,Africa/Douala,FALSE,1120630073
Nari,Nari,,10.0475,13.5585,Cameroon,CM,CMR,Nord,Nord,CM-NO,region,,158.9,,,4,Africa/Douala,FALSE,1120703546
Kanbang,Kanbang,,10.8279,14.2191,Cameroon,CM,CMR,Extrême-Nord,Extreme-Nord,CM-EN,region,,179.2,,,4,Africa/Douala,FALSE,1120214322
Ndoknak,Ndoknak,,4.6560,9.8982,Cameroon,CM,CMR,Littoral,Littoral,CM-LT,region,,5.5,,,5,Africa/Douala,FALSE,1120300430
Douane,Douane,,2.3833,11.2667,Cameroon,CM,CMR,Sud,Sud,CM-SU,region,,16.0,,,4,Africa/Douala,FALSE,1120586860
Etala,Etala,,5.1967,9.6284,Cameroon,CM,CMR,South-West,South-West,CM-SW,region,,38.7,,,4,Africa/Douala,FALSE,1120052405
Sanyere,Sanyere,,5.7870,10.0146,Cameroon,CM,CMR,North-West,North-West,CM-NW,region,,400.4,,,3,Africa/Douala,FALSE,1120888682
Baboate,Baboate,,5.2044,10.1811,Cameroon,CM,CMR,Ouest,Ouest,CM-OU,region,,135.3,,,4,Africa/Douala,FALSE,1120025465
Lengwo,Lengwo,,5.4751,10.4560,Cameroon,CM,CMR,Ouest,Ouest,CM-OU,region,,1199.8,,,3,Africa/Douala,FALSE,1120377943
Hérazaya,Herazaya,,12.0802,15.0169,Cameroon,CM,CMR,Extrême-Nord,Extreme-Nord,CM-EN,region,,63.7,,,4,Africa/Douala,FALSE,1120074495
Ngoundou,Ngoundou,,3.2167,12.1333,Cameroon,CM,CMR,Sud,Sud,CM-SU,region,,14.7,,,4,Africa/Douala,FALSE,1120300936
Sakao,Sakao,,10.3714,14.7808,Cameroon,CM,CMR,Extrême-Nord,Extreme-Nord,CM-EN,region,,138.5,,,4,Africa/Douala,FALSE,1120626113
Babada,Babada,,10.6084,14.0667,Cameroon,CM,CMR,Extrême-Nord,Extreme-Nord,CM-EN,region,,212.6,,,3,Africa/Douala,FALSE,1120122434
"Nawango I","Nawango I",,4.5513,8.6465,Cameroon,CM,CMR,South-West,South-West,CM-SW,region,,24.2,,,4,Africa/Douala,FALSE,1120328694
Nkoutoungwen,Nkoutoungwen,,5.7336,10.7400,Cameroon,CM,CMR,Ouest,Ouest,CM-OU,region,,85.3,,,4,Africa/Douala,FALSE,1120528012
"Dougmo I","Dougmo I",Dougmo,12.5853,14.4941,Cameroon,CM,CMR,Extrême-Nord,Extreme-Nord,CM-EN,region,,63.7,,,4,Africa/Douala,FALSE,1120346102
Boulbala,Boulbala,,9.7012,13.4020,Cameroon,CM,CMR,Nord,Nord,CM-NO,region,,123.4,,,4,Africa/Douala,FALSE,1120418731
Tamaï,Tamai,,4.6000,12.0500,Cameroon,CM,CMR,Centre,Centre,CM-CE,region,,10.6,,,4,Africa/Douala,FALSE,1120260471
Nen,Nen,,5.8270,9.8332,Cameroon,CM,CMR,North-West,North-West,CM-NW,region,,80.9,,,4,Africa/Douala,FALSE,1120256516
Mataré,Matare,,7.4833,13.2333,Cameroon,CM,CMR,Adamaoua,Adamaoua,CM-AD,region,,30.7,,,4,Africa/Douala,FALSE,1120422783
Pama,Pama,,3.2833,10.0833,Cameroon,CM,CMR,Sud,Sud,CM-SU,region,,26.9,,,4,Africa/Douala,FALSE,1120339372
"Bamtem Manjané","Bamtem Manjane",,5.8348,10.2594,Cameroon,CM,CMR,North-West,North-West,CM-NW,region,,400.4,,,3,Africa/Douala,FALSE,1120233898
Gouloua,Gouloua,,10.6152,14.0352,Cameroon,CM,CMR,Extrême-Nord,Extreme-Nord,CM-EN,region,,212.6,,,3,Africa/Douala,FALSE,1120165195
Ebang,Ebang,,6.0061,9.8004,Cameroon,CM,CMR,North-West,North-West,CM-NW,region,,80.9,,,4,Africa/Douala,FALSE,1120414650
Epolo,Epolo,,3.6428,9.7994,Cameroon,CM,CMR,Littoral,Littoral,CM-LT,region,,21.2,,,4,Africa/Douala,FALSE,1120496262
Ngaba,Ngaba,,10.8248,14.5384,Cameroon,CM,CMR,Extrême-Nord,Extreme-Nord,CM-EN,region,,212.6,,,3,Africa/Douala,FALSE,1120370546
"Mayo Loudou","Mayo Loudou",,9.2054,13.9673,Cameroon,CM,CMR,Nord,Nord,CM-NO,region,,123.4,,,4,Africa/Douala,FALSE,1120123054
Wafango,Wafango,,8.9839,13.6986,Cameroon,CM,CMR,Nord,Nord,CM-NO,region,,123.4,,,4,Africa/Douala,FALSE,1120333758
Nkoadoum,Nkoadoum,,2.6000,11.3167,Cameroon,CM,CMR,Sud,Sud,CM-SU,region,,16.0,,,4,Africa/Douala,FALSE,1120378853
Maloup,Maloup,,5.5294,10.8413,Cameroon,CM,CMR,Ouest,Ouest,CM-OU,region,,85.3,,,4,Africa/Douala,FALSE,1120629735
"Sandji I","Sandji I",Sandji,4.3000,14.8667,Cameroon,CM,CMR,Est,Est,CM-ES,region,,15.1,,,4,Africa/Douala,FALSE,1120622024
Noubou,Noubou,,10.3247,14.1188,Cameroon,CM,CMR,Extrême-Nord,Extreme-Nord,CM-EN,region,,140.9,,,4,Africa/Douala,FALSE,1120709630
Baidiga,Baidiga,,7.4578,15.4252,Cameroon,CM,CMR,Nord,Nord,CM-NO,region,,20.2,,,4,Africa/Douala,FALSE,1120460184
Mboni,Mboni,,4.2500,12.7333,Cameroon,CM,CMR,Centre,Centre,CM-CE,region,,19.8,,,4,Africa/Douala,FALSE,1120922843
Bian,Bian,,8.0667,13.8667,Cameroon,CM,CMR,Nord,Nord,CM-NO,region,,20.2,,,4,Africa/Douala,FALSE,1120071418
Soumi,Soumi,,8.5708,13.0055,Cameroon,CM,CMR,Nord,Nord,CM-NO,region,,6.8,,,5,Africa/Douala,FALSE,1120405613
Guéjé,Gueje,,10.8479,13.8515,Cameroon,CM,CMR,Extrême-Nord,Extreme-Nord,CM-EN,region,,266.8,,,3,Africa/Douala,FALSE,1120445430
Mogorfo,Mogorfo,,10.4500,15.1500,Cameroon,CM,CMR,Extrême-Nord,Extreme-Nord,CM-EN,region,,132.2,,,4,Africa/Douala,FALSE,1120700226
Doumsi,Doumsi,,9.9050,13.3860,Cameroon,CM,CMR,Nord,Nord,CM-NO,region,,123.4,,,4,Africa/Douala,FALSE,1120124445
Fonkouankem,Fonkouankem,,5.1655,10.0988,Cameroon,CM,CMR,Ouest,Ouest,CM-OU,region,,135.3,,,4,Africa/Douala,FALSE,1120440658
Alangana,Alangana,,4.1667,12.4500,Cameroon,CM,CMR,Centre,Centre,CM-CE,region,,19.8,,,4,Africa/Douala,FALSE,1120129218
Masore,Masore,,4.6548,8.9940,Cameroon,CM,CMR,South-West,South-West,CM-SW,region,,24.2,,,4,Africa/Douala,FALSE,1120342605
Alawa,Alawa,Rhalaoua,11.1113,14.8547,Cameroon,CM,CMR,Extrême-Nord,Extreme-Nord,CM-EN,region,,63.7,,,4,Africa/Douala,FALSE,1120784356
Dongongo,Dongongo,,4.1500,14.6333,Cameroon,CM,CMR,Est,Est,CM-ES,region,,15.1,,,4,Africa/Douala,FALSE,1120178737
"Asoumondélé I","Asoumondele I","Assoumondélé I",2.2000,13.8500,Cameroon,CM,CMR,Est,Est,CM-ES,region,,6.8,,,5,Africa/Douala,FALSE,1120566110
"Ouro Zangui","Ouro Zangui",,10.5112,14.5220,Cameroon,CM,CMR,Extrême-Nord,Extreme-Nord,CM-EN,region,,212.6,,,3,Africa/Douala,FALSE,1120030118
Fifinda,Fifinda,,3.2500,10.0500,Cameroon,CM,CMR,Sud,Sud,CM-SU,region,,26.9,,,4,Africa/Douala,FALSE,1120749358
Oudaray,Oudaray,,10.8148,13.8267,Cameroon,CM,CMR,Extrême-Nord,Extreme-Nord,CM-EN,region,,266.8,,,3,Africa/Douala,FALSE,1120018572
Ngoulminanga,Ngoulminanga,,3.7667,11.9333,Cameroon,CM,CMR,Centre,Centre,CM-CE,region,,45.4,,,4,Africa/Douala,FALSE,1120439433
"Mayo B’okki","Mayo B'okki","Mayo Boki",8.6754,13.5343,Cameroon,CM,CMR,Nord,Nord,CM-NO,region,,123.4,,,4,Africa/Douala,FALSE,1120318113
Mandapen,Mandapen,,5.4284,10.9292,Cameroon,CM,CMR,Ouest,Ouest,CM-OU,region,,85.3,,,4,Africa/Douala,FALSE,1120845341
Wébako,Webako,,8.6521,13.0353,Cameroon,CM,CMR,Nord,Nord,CM-NO,region,,6.8,,,5,Africa/Douala,FALSE,1120862800
Djenka,Djenka,Njenka,5.8982,10.0299,Cameroon,CM,CMR,North-West,North-West,CM-NW,region,,400.4,,,3,Africa/Douala,FALSE,1120954384
Madingrinn,Madingrinn,Goïtam|Madingring,8.4559,15.0071,Cameroon,CM,CMR,Nord,Nord,CM-NO,region,,20.2,,,4,Africa/Douala,FALSE,1120448132
Ngarkawa,Ngarkawa,,12.6810,14.5048,Cameroon,CM,CMR,Extrême-Nord,Extreme-Nord,CM-EN,region,,63.7,,,4,Africa/Douala,FALSE,1120556467
Takoulouwébé,Takoulouwebe,Takoulououebe,12.4890,14.7778,Cameroon,CM,CMR,Extrême-Nord,Extreme-Nord,CM-EN,region,,63.7,,,4,Africa/Douala,FALSE,1120849096
"Ngoum Petel","Ngoum Petel",,6.6667,11.6667,Cameroon,CM,CMR,Adamaoua,Adamaoua,CM-AD,region,,40.3,,,4,Africa/Douala,FALSE,1120531850
Louka,Louka,,7.1000,13.2000,Cameroon,CM,CMR,Adamaoua,Adamaoua,CM-AD,region,,30.7,,,4,Africa/Douala,FALSE,1120188992
Menlekwèt,Menlekwet,,5.5151,10.1193,Cameroon,CM,CMR,Ouest,Ouest,CM-OU,region,,240.1,,,3,Africa/Douala,FALSE,1120862998
Maka,Maka,Maca,4.1333,9.6167,Cameroon,CM,CMR,Littoral,Littoral,CM-LT,region,,771.8,,,3,Africa/Douala,FALSE,1120234049
Davay,Davay,,10.7764,13.8787,Cameroon,CM,CMR,Extrême-Nord,Extreme-Nord,CM-EN,region,,266.8,,,3,Africa/Douala,FALSE,1120795539
Mourak,Mourak,Moukak,11.6231,15.0426,Cameroon,CM,CMR,Extrême-Nord,Extreme-Nord,CM-EN,region,,63.7,,,4,Africa/Douala,FALSE,1120741961
Mbanda,Mbanda,,3.7975,9.8822,Cameroon,CM,CMR,Littoral,Littoral,CM-LT,region,,21.2,,,4,Africa/Douala,FALSE,1120641440
Mbanda,Mbanda,,4.1000,10.6000,Cameroon,CM,CMR,Littoral,Littoral,CM-LT,region,,21.2,,,4,Africa/Douala,TRUE,1120574583
Paliré,Palire,,9.6667,13.3333,Cameroon,CM,CMR,Nord,Nord,CM-NO,region,,123.4,,,4,Africa/Douala,FALSE,1120458046
Lakba,Lakba,,8.2369,13.6419,Cameroon,CM,CMR,Nord,Nord,CM-NO,region,,20.2,,,4,Africa/Douala,FALSE,1120414443
Sang,Sang,"Sang II",5.4043,10.1972,Cameroon,CM,CMR,Ouest,Ouest,CM-OU,region,,240.1,,,3,Africa/Douala,FALSE,1120747668
Yangaï,Yangai,,6.9667,14.2667,Cameroon,CM,CMR,Adamaoua,Adamaoua,CM-AD,region,,30.7,,,4,Africa/Douala,FALSE,1120704729
Fambe,Fambe,,5.1580,10.6014,Cameroon,CM,CMR,Ouest,Ouest,CM-OU,region,,74.2,,,4,Africa/Douala,FALSE,1120136044
Bandounga,Bandounga,Bandoba,4.9833,10.5500,Cameroon,CM,CMR,Ouest,Ouest,CM-OU,region,,74.2,,,4,Africa/Douala,FALSE,1120637761
"Malam Wadjao","Malam Wadjao",,10.8764,14.5645,Cameroon,CM,CMR,Extrême-Nord,Extreme-Nord,CM-EN,region,,212.6,,,3,Africa/Douala,FALSE,1120238479
"Ouro Ousmanou","Ouro Ousmanou",,9.6167,13.2500,Cameroon,CM,CMR,Nord,Nord,CM-NO,region,,123.4,,,4,Africa/Douala,FALSE,1120798131
Ekonjo,Ekonjo,,4.0648,9.1644,Cameroon,CM,CMR,South-West,South-West,CM-SW,region,,384.1,,,3,Africa/Douala,FALSE,1120557870
Ntamkouop,Ntamkouop,,5.5847,10.6400,Cameroon,CM,CMR,Ouest,Ouest,CM-OU,region,,85.3,,,4,Africa/Douala,FALSE,1120568699
Ndemveng,Ndemveng,,5.2706,10.1910,Cameroon,CM,CMR,Ouest,Ouest,CM-OU,region,,135.3,,,4,Africa/Douala,FALSE,1120704607
Adigande,Adigande,,6.5096,9.6936,Cameroon,CM,CMR,South-West,South-West,CM-SW,region,,42.9,,,4,Africa/Douala,FALSE,1120597367
Ebomane,Ebomane,,3.4500,11.9333,Cameroon,CM,CMR,Centre,Centre,CM-CE,region,,19.8,,,4,Africa/Douala,FALSE,1120827093
"Minkang II","Minkang II",,2.8167,12.1000,Cameroon,CM,CMR,Sud,Sud,CM-SU,region,,14.7,,,4,Africa/Douala,FALSE,1120098978
Bidé-Moundang,Bide-Moundang,,9.4638,13.9932,Cameroon,CM,CMR,Nord,Nord,CM-NO,region,,123.4,,,4,Africa/Douala,FALSE,1120891198
Singba,Singba,,8.3222,13.3243,Cameroon,CM,CMR,Nord,Nord,CM-NO,region,,6.8,,,5,Africa/Douala,FALSE,1120305761
Bakem,Bakem,,4.9667,10.0500,Cameroon,CM,CMR,Littoral,Littoral,CM-LT,region,,103.6,,,4,Africa/Douala,FALSE,1120047781
Bakem,Bakem,,4.7000,10.0167,Cameroon,CM,CMR,Littoral,Littoral,CM-LT,region,,5.5,,,5,Africa/Douala,TRUE,1120244033
Gazawa,Gazawa,Gassaoua|Gassoua|Gasaua|Gazaoua,10.5308,14.1404,Cameroon,CM,CMR,Extrême-Nord,Extreme-Nord,CM-EN,region,,212.6,,,3,Africa/Douala,FALSE,1120583718
Zoétélé,Zoetele,,2.3833,12.1333,Cameroon,CM,CMR,Sud,Sud,CM-SU,region,,14.7,,,4,Africa/Douala,FALSE,1120723505
Zoétélé,Zoetele,Zoatélé,3.2500,11.8833,Cameroon,CM,CMR,Sud,Sud,CM-SU,region,,14.7,,,4,Africa/Douala,TRUE,1120918513
Tembé,Tembe,,2.7833,15.2500,Cameroon,CM,CMR,Est,Est,CM-ES,region,,5.1,,,5,Africa/Douala,FALSE,1120052342
Bilon,Bilon,,3.3000,11.3500,Cameroon,CM,CMR,Centre,Centre,CM-CE,region,,39.5,,,4,Africa/Douala,FALSE,1120372756
Nkam,Nkam,,4.3500,10.6667,Cameroon,CM,CMR,Littoral,Littoral,CM-LT,region,,21.2,,,4,Africa/Douala,FALSE,1120438474
Baduma,Baduma,,4.8314,9.4587,Cameroon,CM,CMR,South-West,South-West,CM-SW,region,,178.5,,,4,Africa/Douala,FALSE,1120637336
Baduma,Baduma,,4.5706,9.5095,Cameroon,CM,CMR,South-West,South-West,CM-SW,region,,178.5,,,4,Africa/Douala,TRUE,1120755461
Nkolmaka,Nkolmaka,Kolmaka|Nkolmēka,3.5167,11.8167,Cameroon,CM,CMR,Centre,Centre,CM-CE,region,,35.9,,,4,Africa/Douala,FALSE,1120388929
Dissambak,Dissambak,,10.7970,13.8966,Cameroon,CM,CMR,Extrême-Nord,Extreme-Nord,CM-EN,region,,266.8,,,3,Africa/Douala,FALSE,1120402300
Mboula,Mboula,,2.2000,9.9833,Cameroon,CM,CMR,Sud,Sud,CM-SU,region,,26.9,,,4,Africa/Douala,FALSE,1120668400
Okoyong,Okoyong,,5.7249,9.3499,Cameroon,CM,CMR,South-West,South-West,CM-SW,region,,27.9,,,4,Africa/Douala,FALSE,1120432385
Kompina,Kompina,"Nkong Pina",4.3540,9.5851,Cameroon,CM,CMR,Littoral,Littoral,CM-LT,region,,103.6,,,4,Africa/Douala,FALSE,1120915885
Ntébézok,Ntebezok,,2.4333,10.4333,Cameroon,CM,CMR,Sud,Sud,CM-SU,region,,16.0,,,4,Africa/Douala,FALSE,1120211851
Faménasi,Famenasi,,4.2667,11.6167,Cameroon,CM,CMR,Centre,Centre,CM-CE,region,,98.0,,,4,Africa/Douala,FALSE,1120004351
Mvé,Mve,,4.2667,12.3333,Cameroon,CM,CMR,Centre,Centre,CM-CE,region,,10.6,,,4,Africa/Douala,FALSE,1120879536
Ekoumtik,Ekoumtik,,3.8500,11.2167,Cameroon,CM,CMR,Centre,Centre,CM-CE,region,,98.0,,,4,Africa/Douala,FALSE,1120129344
Bekili,Bekili,,4.6172,9.5114,Cameroon,CM,CMR,South-West,South-West,CM-SW,region,,178.5,,,4,Africa/Douala,FALSE,1120640864
Bouga,Bouga,,7.8667,14.4833,Cameroon,CM,CMR,Nord,Nord,CM-NO,region,,20.2,,,4,Africa/Douala,FALSE,1120880262
"Katola Haoussa","Katola Haoussa",,12.7972,14.5448,Cameroon,CM,CMR,Extrême-Nord,Extreme-Nord,CM-EN,region,,63.7,,,4,Africa/Douala,FALSE,1120179947
Ekoangombé,Ekoangombe,,3.9667,11.0333,Cameroon,CM,CMR,Centre,Centre,CM-CE,region,,26.1,,,4,Africa/Douala,FALSE,1120326033
Madakoua,Madakoua,,10.9013,13.8504,Cameroon,CM,CMR,Extrême-Nord,Extreme-Nord,CM-EN,region,,266.8,,,3,Africa/Douala,FALSE,1120747096
"Leng Tombo","Leng Tombo",,4.0333,12.7500,Cameroon,CM,CMR,Centre,Centre,CM-CE,region,,19.8,,,4,Africa/Douala,FALSE,1120603896
"Bilobé II","Bilobe II",Bilobé,2.7833,10.4333,Cameroon,CM,CMR,Sud,Sud,CM-SU,region,,26.9,,,4,Africa/Douala,FALSE,1120766720
Mfouri,Mfouri,Metchié,5.1816,10.0084,Cameroon,CM,CMR,Ouest,Ouest,CM-OU,region,,135.3,,,4,Africa/Douala,FALSE,1120179215
Mboun,Mboun,,3.5167,12.4667,Cameroon,CM,CMR,Sud,Sud,CM-SU,region,,14.7,,,4,Africa/Douala,FALSE,1120256638
Libobi,Libobi,,4.0833,11.0500,Cameroon,CM,CMR,Centre,Centre,CM-CE,region,,26.1,,,4,Africa/Douala,FALSE,1120245644
Massampo,Massampo,,7.0333,13.7000,Cameroon,CM,CMR,Adamaoua,Adamaoua,CM-AD,region,,30.7,,,4,Africa/Douala,FALSE,1120009746
Ngbouasa,Ngbouasa,Ngbwassa,2.4000,12.5167,Cameroon,CM,CMR,Sud,Sud,CM-SU,region,,14.7,,,4,Africa/Douala,FALSE,1120519923
Babubok,Babubok,Babubo,5.1597,9.6548,Cameroon,CM,CMR,South-West,South-West,CM-SW,region,,38.7,,,4,Africa/Douala,FALSE,1120452347
"Bai Sombe","Bai Sombe",,4.4521,9.1526,Cameroon,CM,CMR,South-West,South-West,CM-SW,region,,178.5,,,4,Africa/Douala,FALSE,1120543445
Mahohi,Mahohi,,4.1014,9.8438,Cameroon,CM,CMR,Littoral,Littoral,CM-LT,region,,3202.3,,,2,Africa/Douala,FALSE,1120602606
Kébé,Kebe,,11.8306,14.6247,Cameroon,CM,CMR,Extrême-Nord,Extreme-Nord,CM-EN,region,,63.7,,,4,Africa/Douala,FALSE,1120150944
Ayi,Ayi,,6.1676,9.7532,Cameroon,CM,CMR,North-West,North-West,CM-NW,region,,80.9,,,4,Africa/Douala,FALSE,1120167845
Mboua,Mboua,Mboa,4.4167,14.2667,Cameroon,CM,CMR,Est,Est,CM-ES,region,,15.1,,,4,Africa/Douala,FALSE,1120032910
Dumbo,Dumbo,Badzumbo,6.6833,10.5167,Cameroon,CM,CMR,North-West,North-West,CM-NW,region,,73.7,,,4,Africa/Douala,FALSE,1120662398
"Ouassa Bamvélé","Ouassa Bamvele",Ouassa,4.9000,12.6000,Cameroon,CM,CMR,Centre,Centre,CM-CE,region,,10.6,,,4,Africa/Douala,FALSE,1120760798
Mounko,Mounko,,5.0413,10.0348,Cameroon,CM,CMR,Littoral,Littoral,CM-LT,region,,103.6,,,4,Africa/Douala,FALSE,1120432854
Tiguéré,Tiguere,,9.5258,14.0683,Cameroon,CM,CMR,Nord,Nord,CM-NO,region,,123.4,,,4,Africa/Douala,FALSE,1120693849
Mufako,Mufako,Mofako,5.1994,9.0322,Cameroon,CM,CMR,South-West,South-West,CM-SW,region,,24.2,,,4,Africa/Douala,FALSE,1120976208
Mufako,Mufako,,5.0500,9.1984,Cameroon,CM,CMR,South-West,South-West,CM-SW,region,,24.2,,,4,Africa/Douala,TRUE,1120397988
Kilguim,Kilguim,,10.2033,14.4965,Cameroon,CM,CMR,Extrême-Nord,Extreme-Nord,CM-EN,region,,138.5,,,4,Africa/Douala,FALSE,1120911783
Rompo,Rompo,,9.7649,13.9481,Cameroon,CM,CMR,Nord,Nord,CM-NO,region,,158.9,,,4,Africa/Douala,FALSE,1120662724
Menyoumékombo,Menyoumekombo,,3.9667,11.7833,Cameroon,CM,CMR,Centre,Centre,CM-CE,region,,53.4,,,4,Africa/Douala,FALSE,1120775484
Keadimako,Keadimako,,3.0500,14.0500,Cameroon,CM,CMR,Est,Est,CM-ES,region,,6.8,,,5,Africa/Douala,FALSE,1120532690
"Kabo Kabir","Kabo Kabir",,12.1040,14.7352,Cameroon,CM,CMR,Extrême-Nord,Extreme-Nord,CM-EN,region,,63.7,,,4,Africa/Douala,FALSE,1120939995
"Tchuélekwé II","Tchuelekwe II",,5.5630,10.1484,Cameroon,CM,CMR,Ouest,Ouest,CM-OU,region,,338.8,,,3,Africa/Douala,FALSE,1120540218
Doundéré,Doundere,,9.8752,13.5263,Cameroon,CM,CMR,Nord,Nord,CM-NO,region,,123.4,,,4,Africa/Douala,FALSE,1120000027
Amadoukchi,Amadoukchi,,12.5210,14.7593,Cameroon,CM,CMR,Extrême-Nord,Extreme-Nord,CM-EN,region,,63.7,,,4,Africa/Douala,FALSE,1120756274
Logpom,Logpom,,4.0840,9.7675,Cameroon,CM,CMR,Littoral,Littoral,CM-LT,region,,3202.3,,,2,Africa/Douala,FALSE,1120829351
Adoumri,Adoumri,Adoumré|Adumre,9.2530,13.7743,Cameroon,CM,CMR,Nord,Nord,CM-NO,region,,123.4,,,4,Africa/Douala,FALSE,1120768782
Sonkot,Sonkot,,4.8833,12.5167,Cameroon,CM,CMR,Centre,Centre,CM-CE,region,,10.6,,,4,Africa/Douala,FALSE,1120187940
Balveï,Balvei,,11.0833,14.8500,Cameroon,CM,CMR,Extrême-Nord,Extreme-Nord,CM-EN,region,,63.7,,,4,Africa/Douala,FALSE,1120673666
"Lafia Saouakin","Lafia Saouakin","Lafia Sawakin",12.5653,14.5335,Cameroon,CM,CMR,Extrême-Nord,Extreme-Nord,CM-EN,region,,63.7,,,4,Africa/Douala,FALSE,1120722388
Achang,Achang,,5.9953,9.7905,Cameroon,CM,CMR,North-West,North-West,CM-NW,region,,80.9,,,4,Africa/Douala,FALSE,1120828129
Mbaki,Mbaki,N’Baki,5.1000,13.4500,Cameroon,CM,CMR,Est,Est,CM-ES,region,,16.7,,,4,Africa/Douala,FALSE,1120930517
Barndaki,Barndaki,,9.3451,12.9738,Cameroon,CM,CMR,Nord,Nord,CM-NO,region,,123.4,,,4,Africa/Douala,FALSE,1120000110
"Garé Ardo","Gare Ardo",,9.1133,13.8943,Cameroon,CM,CMR,Nord,Nord,CM-NO,region,,123.4,,,4,Africa/Douala,FALSE,1120553297
Malbéti,Malbeti,,7.9167,12.3667,Cameroon,CM,CMR,Adamaoua,Adamaoua,CM-AD,region,,12.4,,,4,Africa/Douala,FALSE,1120203719
Mendong,Mendong,,2.2500,11.2667,Cameroon,CM,CMR,Sud,Sud,CM-SU,region,,16.0,,,4,Africa/Douala,FALSE,1120835756
Krenak,Krenak,"Doubabé Krénak",12.1549,14.8133,Cameroon,CM,CMR,Extrême-Nord,Extreme-Nord,CM-EN,region,,63.7,,,4,Africa/Douala,FALSE,1120897564
Krenak,Krenak,,12.3629,14.4689,Cameroon,CM,CMR,Extrême-Nord,Extreme-Nord,CM-EN,region,,63.7,,,4,Africa/Douala,TRUE,1120116813
Founjora,Founjora,,7.3500,14.7333,Cameroon,CM,CMR,Nord,Nord,CM-NO,region,,20.2,,,4,Africa/Douala,FALSE,1120329076
Biba,Biba,,2.7500,11.7167,Cameroon,CM,CMR,Sud,Sud,CM-SU,region,,32.8,,,4,Africa/Douala,FALSE,1120346815
Biba,Biba,,2.7667,11.3000,Cameroon,CM,CMR,Sud,Sud,CM-SU,region,,32.8,,,4,Africa/Douala,TRUE,1120107780
Biba,Biba,,2.5000,11.1333,Cameroon,CM,CMR,Sud,Sud,CM-SU,region,,16.0,,,4,Africa/Douala,TRUE,1120522357
Biba,Biba,,3.3000,12.1000,Cameroon,CM,CMR,Sud,Sud,CM-SU,region,,14.7,,,4,Africa/Douala,TRUE,1120041011
Biba,Biba,,3.1500,12.3000,Cameroon,CM,CMR,Sud,Sud,CM-SU,region,,14.7,,,4,Africa/Douala,TRUE,1120369338
Taroua,Taroua,,8.2635,13.0099,Cameroon,CM,CMR,Nord,Nord,CM-NO,region,,6.8,,,5,Africa/Douala,FALSE,1120185287
Mvangué,Mvangue,,2.9667,11.5167,Cameroon,CM,CMR,Sud,Sud,CM-SU,region,,32.8,,,4,Africa/Douala,FALSE,1120452860
"Big Kombo","Big Kombo",,4.0279,9.4443,Cameroon,CM,CMR,Littoral,Littoral,CM-LT,region,,3202.3,,,2,Africa/Douala,FALSE,1120060111
Elom,Elom,,2.7833,10.2500,Cameroon,CM,CMR,Sud,Sud,CM-SU,region,,26.9,,,4,Africa/Douala,FALSE,1120091962
Élom,Elom,,2.7167,12.1833,Cameroon,CM,CMR,Sud,Sud,CM-SU,region,,14.7,,,4,Africa/Douala,TRUE,1120446436
Nepié,Nepie,,5.4967,10.2924,Cameroon,CM,CMR,Ouest,Ouest,CM-OU,region,,240.1,,,3,Africa/Douala,FALSE,1120063616
Olom,Olom,,3.7833,11.9000,Cameroon,CM,CMR,Centre,Centre,CM-CE,region,,39.5,,,4,Africa/Douala,FALSE,1120301527
Ngani,Ngani,,7.7000,15.3333,Cameroon,CM,CMR,Nord,Nord,CM-NO,region,,20.2,,,4,Africa/Douala,FALSE,1120161825
Nsaké,Nsake,,4.4032,9.8967,Cameroon,CM,CMR,Littoral,Littoral,CM-LT,region,,5.5,,,5,Africa/Douala,FALSE,1120734619
"Ofoumou Nselek I","Ofoumou Nselek I",,3.5500,11.3833,Cameroon,CM,CMR,Centre,Centre,CM-CE,region,,51.4,,,4,Africa/Douala,FALSE,1120137024
Ldoubam,Ldoubam,Libam|Loubam,10.8807,13.7218,Cameroon,CM,CMR,Extrême-Nord,Extreme-Nord,CM-EN,region,,266.8,,,3,Africa/Douala,FALSE,1120285808
Mbékomo,Mbekomo,,2.6000,10.9000,Cameroon,CM,CMR,Sud,Sud,CM-SU,region,,16.0,,,4,Africa/Douala,FALSE,1120276476
"Zimegong II","Zimegong II",,5.5303,10.2410,Cameroon,CM,CMR,Ouest,Ouest,CM-OU,region,,339.3,,,3,Africa/Douala,FALSE,1120044265
Fiala,Fiala,,5.5444,10.2305,Cameroon,CM,CMR,Ouest,Ouest,CM-OU,region,,339.3,,,3,Africa/Douala,FALSE,1120831544
Mum,Mum,,5.4969,10.7734,Cameroon,CM,CMR,Ouest,Ouest,CM-OU,region,,85.3,,,4,Africa/Douala,FALSE,1120150026
Bameteu,Bameteu,,5.5900,10.2772,Cameroon,CM,CMR,Ouest,Ouest,CM-OU,region,,339.3,,,3,Africa/Douala,FALSE,1120291342
"Fontsa Toula","Fontsa Toula",Fontsa|Touala,5.3262,10.0804,Cameroon,CM,CMR,Ouest,Ouest,CM-OU,region,,240.1,,,3,Africa/Douala,FALSE,1120014662
Etouha,Etouha,,3.6667,10.3000,Cameroon,CM,CMR,Littoral,Littoral,CM-LT,region,,21.2,,,4,Africa/Douala,FALSE,1120935949
"Ouro Bello","Ouro Bello",,10.4385,14.8590,Cameroon,CM,CMR,Extrême-Nord,Extreme-Nord,CM-EN,region,,138.5,,,4,Africa/Douala,FALSE,1120546975
Mégang,Megang,,5.5000,12.3833,Cameroon,CM,CMR,Centre,Centre,CM-CE,region,,6.8,,,5,Africa/Douala,FALSE,1120615584
Zok-Assembang,Zok-Assembang,,2.2500,9.9500,Cameroon,CM,CMR,Sud,Sud,CM-SU,region,,26.9,,,4,Africa/Douala,FALSE,1120508094
Donkéré,Donkere,,7.7667,12.2000,Cameroon,CM,CMR,Adamaoua,Adamaoua,CM-AD,region,,12.4,,,4,Africa/Douala,FALSE,1120510133
"Kong So","Kong So",,5.4915,10.3455,Cameroon,CM,CMR,Ouest,Ouest,CM-OU,region,,835.6,,,3,Africa/Douala,FALSE,1120082841
"Batsela I","Batsela I",,5.5753,10.2943,Cameroon,CM,CMR,Ouest,Ouest,CM-OU,region,,339.3,,,3,Africa/Douala,FALSE,1120287154
Ndekwai,Ndekwai,,5.6653,9.3006,Cameroon,CM,CMR,South-West,South-West,CM-SW,region,,27.9,,,4,Africa/Douala,FALSE,1120750264
"Ndonga Lougguéréo","Ndonga Lougguereo",Lougguéréo,9.3310,13.7644,Cameroon,CM,CMR,Nord,Nord,CM-NO,region,,123.4,,,4,Africa/Douala,FALSE,1120097774
Byane,Byane,,2.4833,10.7833,Cameroon,CM,CMR,Sud,Sud,CM-SU,region,,16.0,,,4,Africa/Douala,FALSE,1120232633
Meukaa,Meukaa,,2.7667,12.0167,Cameroon,CM,CMR,Sud,Sud,CM-SU,region,,14.7,,,4,Africa/Douala,FALSE,1120377428
Njinikom,Njinikom,Njnikom,6.2333,10.2833,Cameroon,CM,CMR,North-West,North-West,CM-NW,region,,83.0,,,4,Africa/Douala,FALSE,1120847891
"Matondo I","Matondo I",,4.8197,9.4622,Cameroon,CM,CMR,South-West,South-West,CM-SW,region,,178.5,,,4,Africa/Douala,FALSE,1120903526
Sokandé,Sokande,,6.9667,14.2500,Cameroon,CM,CMR,Adamaoua,Adamaoua,CM-AD,region,,30.7,,,4,Africa/Douala,FALSE,1120963785
Mabobé,Mabobe,,4.6306,9.9293,Cameroon,CM,CMR,Littoral,Littoral,CM-LT,region,,5.5,,,5,Africa/Douala,FALSE,1120473376
Lébé,Lebe,,4.0969,9.6508,Cameroon,CM,CMR,Littoral,Littoral,CM-LT,region,,3202.3,,,2,Africa/Douala,FALSE,1120008055
Bogso,Bogso,Mijem’s|Bog-Nsŏ,3.7333,10.8167,Cameroon,CM,CMR,Centre,Centre,CM-CE,region,,26.1,,,4,Africa/Douala,FALSE,1120638767
Ebougmenyou,Ebougmenyou,,3.5833,11.4500,Cameroon,CM,CMR,Centre,Centre,CM-CE,region,,51.4,,,4,Africa/Douala,FALSE,1120963567
Gadas,Gadas,,10.1856,14.4399,Cameroon,CM,CMR,Extrême-Nord,Extreme-Nord,CM-EN,region,,138.5,,,4,Africa/Douala,FALSE,1120029368
Djoudjoukou,Djoudjoukou,Djoudjouka|Djoudjouko,10.0189,13.4194,Cameroon,CM,CMR,Nord,Nord,CM-NO,region,,158.9,,,4,Africa/Douala,FALSE,1120734891
Niasar,Niasar,,7.5500,14.0500,Cameroon,CM,CMR,Adamaoua,Adamaoua,CM-AD,region,,24.3,,,4,Africa/Douala,FALSE,1120039305
Mvaézom,Mvaezom,,2.6000,12.0333,Cameroon,CM,CMR,Sud,Sud,CM-SU,region,,32.8,,,4,Africa/Douala,FALSE,1120050215
"Mayo Kéwé","Mayo Kewe",Maïkévé,10.2218,13.9069,Cameroon,CM,CMR,Extrême-Nord,Extreme-Nord,CM-EN,region,,266.8,,,3,Africa/Douala,FALSE,1120660159
Djamdoudi,Djamdoudi,,10.5049,14.0248,Cameroon,CM,CMR,Extrême-Nord,Extreme-Nord,CM-EN,region,,236.8,,,3,Africa/Douala,FALSE,1120101721
Bwéné,Bwene,,4.2927,9.8310,Cameroon,CM,CMR,Littoral,Littoral,CM-LT,region,,5.5,,,5,Africa/Douala,FALSE,1120852196
Bikoto,Bikoto,,4.0167,12.1167,Cameroon,CM,CMR,Centre,Centre,CM-CE,region,,27.5,,,4,Africa/Douala,FALSE,1120335105
"Ndoum Djandi","Ndoum Djandi",,6.2500,11.4667,Cameroon,CM,CMR,Adamaoua,Adamaoua,CM-AD,region,,40.3,,,4,Africa/Douala,FALSE,1120421109
Ouroum,Ouroum,,10.0136,13.2719,Cameroon,CM,CMR,Nord,Nord,CM-NO,region,,158.9,,,4,Africa/Douala,FALSE,1120879279
Tchisso,Tchisso,,5.3193,10.2259,Cameroon,CM,CMR,Ouest,Ouest,CM-OU,region,,135.3,,,4,Africa/Douala,FALSE,1120645504
"Njisse III","Njisse III",,5.7158,10.8772,Cameroon,CM,CMR,Ouest,Ouest,CM-OU,region,,85.3,,,4,Africa/Douala,FALSE,1120911467
Négou,Negou,,5.4610,10.4145,Cameroon,CM,CMR,Ouest,Ouest,CM-OU,region,,365.9,,,3,Africa/Douala,FALSE,1120614048
Jiler,Jiler,,10.9138,13.8972,Cameroon,CM,CMR,Extrême-Nord,Extreme-Nord,CM-EN,region,,266.8,,,3,Africa/Douala,FALSE,1120865166
Bakok,Bakok,,5.6100,10.3895,Cameroon,CM,CMR,Ouest,Ouest,CM-OU,region,,382.5,,,3,Africa/Douala,FALSE,1120781112
Bouambé,Bouambe,Buambe,2.8833,9.9000,Cameroon,CM,CMR,Sud,Sud,CM-SU,region,,26.9,,,4,Africa/Douala,FALSE,1120631883
Lahaï,Lahai,,11.0409,15.0526,Cameroon,CM,CMR,Extrême-Nord,Extreme-Nord,CM-EN,region,,40.4,,,4,Africa/Douala,FALSE,1120966822
Ngalan,Ngalan,,2.9333,11.1167,Cameroon,CM,CMR,Sud,Sud,CM-SU,region,,32.8,,,4,Africa/Douala,FALSE,1120184402
Nsa,Nsa,,5.5323,10.1539,Cameroon,CM,CMR,Ouest,Ouest,CM-OU,region,,339.3,,,3,Africa/Douala,FALSE,1120113241
Bodjinlé,Bodjinle,,5.6293,10.3119,Cameroon,CM,CMR,Ouest,Ouest,CM-OU,region,,339.3,,,3,Africa/Douala,FALSE,1120779526
Gomana,Gomana,,8.5303,13.1719,Cameroon,CM,CMR,Nord,Nord,CM-NO,region,,6.8,,,5,Africa/Douala,FALSE,1120478355
Dévé,Deve,,10.8200,13.9541,Cameroon,CM,CMR,Extrême-Nord,Extreme-Nord,CM-EN,region,,266.8,,,3,Africa/Douala,FALSE,1120457132
Barumbe,Barumbe,,5.5321,9.5828,Cameroon,CM,CMR,South-West,South-West,CM-SW,region,,27.9,,,4,Africa/Douala,FALSE,1120811103
Njombé,Njombe,Nyombé|Njombo,4.5862,9.6543,Cameroon,CM,CMR,Littoral,Littoral,CM-LT,region,,103.6,,,4,Africa/Douala,FALSE,1120431690
Eham,Eham,,5.7041,9.2195,Cameroon,CM,CMR,South-West,South-West,CM-SW,region,,27.9,,,4,Africa/Douala,FALSE,1120687961
Khwaya,Khwaya,Rohaya,11.3903,14.6406,Cameroon,CM,CMR,Extrême-Nord,Extreme-Nord,CM-EN,region,,63.7,,,4,Africa/Douala,FALSE,1120193158
Zoumbas,Zoumbas,,10.7901,13.9786,Cameroon,CM,CMR,Extrême-Nord,Extreme-Nord,CM-EN,region,,179.2,,,4,Africa/Douala,FALSE,1120982223
Tikoro,Tikoro,,4.7027,8.7004,Cameroon,CM,CMR,South-West,South-West,CM-SW,region,,24.2,,,4,Africa/Douala,FALSE,1120600003
Mbisé,Mbise,,10.8331,14.1319,Cameroon,CM,CMR,Extrême-Nord,Extreme-Nord,CM-EN,region,,179.2,,,4,Africa/Douala,FALSE,1120619167
Tochi,Tochi,,5.7393,10.1949,Cameroon,CM,CMR,Ouest,Ouest,CM-OU,region,,339.3,,,3,Africa/Douala,FALSE,1120486332
Bengond,Bengond,,4.1500,12.8833,Cameroon,CM,CMR,Est,Est,CM-ES,region,,6.8,,,5,Africa/Douala,FALSE,1120550499
Netam,Netam,,5.1306,10.5861,Cameroon,CM,CMR,Ouest,Ouest,CM-OU,region,,74.2,,,4,Africa/Douala,FALSE,1120458795
Bélay,Belay,,3.6167,12.9167,Cameroon,CM,CMR,Est,Est,CM-ES,region,,6.8,,,5,Africa/Douala,FALSE,1120826816
Avobengono,Avobengono,,2.6667,12.8833,Cameroon,CM,CMR,Sud,Sud,CM-SU,region,,14.7,,,4,Africa/Douala,FALSE,1120969147
Batoussop,Batoussop,,5.5525,10.2791,Cameroon,CM,CMR,Ouest,Ouest,CM-OU,region,,339.3,,,3,Africa/Douala,FALSE,1120213999
Yingui,Yingui,"Yngui I|Yngui|Yingi",4.5333,10.3000,Cameroon,CM,CMR,Littoral,Littoral,CM-LT,region,,5.5,,,4,Africa/Douala,FALSE,1120183547
Minkomilala,Minkomilala,,3.8833,11.7500,Cameroon,CM,CMR,Centre,Centre,CM-CE,region,,53.4,,,4,Africa/Douala,FALSE,1120398432
Minkomilala,Minkomilala,,4.0333,11.8000,Cameroon,CM,CMR,Centre,Centre,CM-CE,region,,53.4,,,4,Africa/Douala,TRUE,1120795961
Koba,Koba,,5.0582,9.3694,Cameroon,CM,CMR,South-West,South-West,CM-SW,region,,178.5,,,4,Africa/Douala,FALSE,1120432458
Nkolméké,Nkolmeke,,3.3500,12.4333,Cameroon,CM,CMR,Sud,Sud,CM-SU,region,,14.7,,,4,Africa/Douala,FALSE,1120410883
Poempoum,Poempoum,,3.1333,13.6500,Cameroon,CM,CMR,Est,Est,CM-ES,region,,6.8,,,5,Africa/Douala,FALSE,1120756484
Krenoya,Krenoya,Amkoundro,12.4286,14.5592,Cameroon,CM,CMR,Extrême-Nord,Extreme-Nord,CM-EN,region,,63.7,,,4,Africa/Douala,FALSE,1120122040
Pouksa,Pouksa,,8.2890,13.2310,Cameroon,CM,CMR,Nord,Nord,CM-NO,region,,6.8,,,5,Africa/Douala,FALSE,1120818616
"Tchado Kabir","Tchado Kabir",Tchirdo,12.6519,14.6150,Cameroon,CM,CMR,Extrême-Nord,Extreme-Nord,CM-EN,region,,63.7,,,4,Africa/Douala,FALSE,1120980423
Moko,Moko,,4.1577,9.4747,Cameroon,CM,CMR,South-West,South-West,CM-SW,region,,384.1,,,3,Africa/Douala,FALSE,1120802966
Moko,Moko,,4.8640,8.8964,Cameroon,CM,CMR,South-West,South-West,CM-SW,region,,24.2,,,4,Africa/Douala,TRUE,1120429999
Mboma,Mboma,,5.0046,10.1646,Cameroon,CM,CMR,Ouest,Ouest,CM-OU,region,,135.3,,,4,Africa/Douala,FALSE,1120943912
Ngouma,Ngouma,,10.4094,14.6035,Cameroon,CM,CMR,Extrême-Nord,Extreme-Nord,CM-EN,region,,138.5,,,4,Africa/Douala,FALSE,1120870332
Ngouma,Ngouma,N’Guma|Ngoma,12.6255,14.3005,Cameroon,CM,CMR,Extrême-Nord,Extreme-Nord,CM-EN,region,,63.7,,,4,Africa/Douala,TRUE,1120473896
Efoulan,Efoulan,,4.1333,12.8167,Cameroon,CM,CMR,Est,Est,CM-ES,region,,6.8,,,5,Africa/Douala,FALSE,1120635580
Efoulan,Efoulan,,3.9000,12.6167,Cameroon,CM,CMR,Est,Est,CM-ES,region,,6.8,,,5,Africa/Douala,TRUE,1120079673
Songmpek,Songmpek,,3.8500,10.8833,Cameroon,CM,CMR,Centre,Centre,CM-CE,region,,26.1,,,4,Africa/Douala,FALSE,1120595768
Dakidongo,Dakidongo,,8.4985,13.1057,Cameroon,CM,CMR,Nord,Nord,CM-NO,region,,6.8,,,5,Africa/Douala,FALSE,1120499558
Djeleng,Djeleng,Djéling,10.4604,13.9380,Cameroon,CM,CMR,Extrême-Nord,Extreme-Nord,CM-EN,region,,266.8,,,3,Africa/Douala,FALSE,1120947946
Otyongo,Otyongo,,6.3003,9.5180,Cameroon,CM,CMR,South-West,South-West,CM-SW,region,,27.9,,,4,Africa/Douala,FALSE,1120238824
Yanga,Yanga,,10.7397,14.9765,Cameroon,CM,CMR,Extrême-Nord,Extreme-Nord,CM-EN,region,,132.2,,,4,Africa/Douala,FALSE,1120660957
Boga,Boga,,3.9000,10.7833,Cameroon,CM,CMR,Centre,Centre,CM-CE,region,,26.1,,,4,Africa/Douala,FALSE,1120784353
Manka,Manka,,5.7333,11.5167,Cameroon,CM,CMR,Centre,Centre,CM-CE,region,,6.8,,,5,Africa/Douala,FALSE,1120167552
Njinga,Njinga,"Njinga I|Ndjinga",5.4833,10.4742,Cameroon,CM,CMR,Ouest,Ouest,CM-OU,region,,115.4,,,4,Africa/Douala,FALSE,1120965275
Njinga,Njinga,,5.5740,10.9873,Cameroon,CM,CMR,Ouest,Ouest,CM-OU,region,,85.3,,,4,Africa/Douala,TRUE,1120076017
Njinga,Njinga,,5.7502,10.6017,Cameroon,CM,CMR,Ouest,Ouest,CM-OU,region,,85.3,,,4,Africa/Douala,TRUE,1120283945
Boulé,Boule,,8.7006,13.1457,Cameroon,CM,CMR,Nord,Nord,CM-NO,region,,6.8,,,5,Africa/Douala,FALSE,1120542904
Guassanguel,Guassanguel,Gazinguet,7.2000,12.5333,Cameroon,CM,CMR,Adamaoua,Adamaoua,CM-AD,region,,12.4,,,4,Africa/Douala,FALSE,1120079274
Ajaman,Ajaman,Ajama|Afaman,5.3467,8.8995,Cameroon,CM,CMR,South-West,South-West,CM-SW,region,,24.2,,,4,Africa/Douala,FALSE,1120104766
"Mayel Sangue","Mayel Sangue",,9.0117,14.4139,Cameroon,CM,CMR,Nord,Nord,CM-NO,region,,20.2,,,4,Africa/Douala,FALSE,1120680422
Golom,Golom,,10.2228,14.1122,Cameroon,CM,CMR,Extrême-Nord,Extreme-Nord,CM-EN,region,,138.5,,,4,Africa/Douala,FALSE,1120095067
Téoudiré,Teoudire,,9.0074,13.9103,Cameroon,CM,CMR,Nord,Nord,CM-NO,region,,20.2,,,4,Africa/Douala,FALSE,1120091317
"Mayo Kéou","Mayo Keou",,9.7974,13.5653,Cameroon,CM,CMR,Nord,Nord,CM-NO,region,,123.4,,,4,Africa/Douala,FALSE,1120804732
Sodjoy,Sodjoy,So-Djay,9.7835,13.8004,Cameroon,CM,CMR,Nord,Nord,CM-NO,region,,158.9,,,4,Africa/Douala,FALSE,1120135206
"Oura Baba","Oura Baba",,9.8333,13.3833,Cameroon,CM,CMR,Nord,Nord,CM-NO,region,,123.4,,,4,Africa/Douala,FALSE,1120745250
Assia,Assia,,2.1833,11.0000,Cameroon,CM,CMR,Sud,Sud,CM-SU,region,,16.0,,,4,Africa/Douala,FALSE,1120021264
Moumba,Moumba,,4.7667,10.0000,Cameroon,CM,CMR,Littoral,Littoral,CM-LT,region,,103.6,,,4,Africa/Douala,FALSE,1120471862
Molobo,Molobo,,4.0167,14.3167,Cameroon,CM,CMR,Est,Est,CM-ES,region,,15.1,,,4,Africa/Douala,FALSE,1120719606
Sarambi,Sarambi,,5.5667,13.9167,Cameroon,CM,CMR,Est,Est,CM-ES,region,,16.7,,,4,Africa/Douala,FALSE,1120288162
Ngogon,Ngogon,,5.7973,10.4004,Cameroon,CM,CMR,Ouest,Ouest,CM-OU,region,,339.3,,,3,Africa/Douala,FALSE,1120231256
Passa,Passa,Pasa,10.2751,13.6016,Cameroon,CM,CMR,Extrême-Nord,Extreme-Nord,CM-EN,region,,266.8,,,3,Africa/Douala,FALSE,1120518599
"Forisane II","Forisane II",,4.5473,8.6586,Cameroon,CM,CMR,South-West,South-West,CM-SW,region,,24.2,,,4,Africa/Douala,FALSE,1120576778
Mako,Mako,Maka,5.3659,10.6619,Cameroon,CM,CMR,Ouest,Ouest,CM-OU,region,,85.3,,,4,Africa/Douala,FALSE,1120548634
Ngonbé,Ngonbe,,4.0667,10.5500,Cameroon,CM,CMR,Littoral,Littoral,CM-LT,region,,21.2,,,4,Africa/Douala,FALSE,1120003175
"Bachuo Akagbe","Bachuo Akagbe",Akagbe,5.6897,9.4383,Cameroon,CM,CMR,South-West,South-West,CM-SW,region,,27.9,,,3,Africa/Douala,FALSE,1120976955
Medjounou,Medjounou,Meydoum|Medjum,2.3833,11.6167,Cameroon,CM,CMR,Sud,Sud,CM-SU,region,,16.0,,,4,Africa/Douala,FALSE,1120253975
Medjounou,Medjounou,,2.7500,12.1667,Cameroon,CM,CMR,Sud,Sud,CM-SU,region,,14.7,,,4,Africa/Douala,TRUE,1120033455
Danaboui,Danaboui,,7.6393,15.5263,Cameroon,CM,CMR,Nord,Nord,CM-NO,region,,20.2,,,4,Africa/Douala,FALSE,1120767560
Seo,Seo,,5.6728,10.1964,Cameroon,CM,CMR,Ouest,Ouest,CM-OU,region,,339.3,,,3,Africa/Douala,FALSE,1120404807
Nkolosanga,Nkolosanga,,4.2833,11.2333,Cameroon,CM,CMR,Centre,Centre,CM-CE,region,,98.0,,,4,Africa/Douala,FALSE,1120357915
Ngamoki,Ngamoki,,5.0199,9.2072,Cameroon,CM,CMR,South-West,South-West,CM-SW,region,,24.2,,,4,Africa/Douala,FALSE,1120198418
Anpel,Anpel,,3.5167,13.4333,Cameroon,CM,CMR,Est,Est,CM-ES,region,,6.8,,,4,Africa/Douala,FALSE,1120334092
"Malan I","Malan I",,6.1667,12.8833,Cameroon,CM,CMR,Adamaoua,Adamaoua,CM-AD,region,,17.6,,,4,Africa/Douala,FALSE,1120680709
Ozom,Ozom,,3.6833,11.4667,Cameroon,CM,CMR,Centre,Centre,CM-CE,region,,51.4,,,4,Africa/Douala,FALSE,1120530436
Gayakéré,Gayakere,,10.8042,14.3127,Cameroon,CM,CMR,Extrême-Nord,Extreme-Nord,CM-EN,region,,212.6,,,3,Africa/Douala,FALSE,1120833885
Edzen,Edzen,,4.2833,11.4667,Cameroon,CM,CMR,Centre,Centre,CM-CE,region,,98.0,,,4,Africa/Douala,FALSE,1120211741
Mbogé,Mboge,,4.3167,12.7667,Cameroon,CM,CMR,Centre,Centre,CM-CE,region,,11.3,,,4,Africa/Douala,FALSE,1120184134
Biguila,Biguila,,10.0249,14.5180,Cameroon,CM,CMR,Extrême-Nord,Extreme-Nord,CM-EN,region,,138.5,,,4,Africa/Douala,FALSE,1120789451
Paté,Pate,,8.3000,12.9667,Cameroon,CM,CMR,Nord,Nord,CM-NO,region,,6.8,,,5,Africa/Douala,FALSE,1120018899
Lékek,Lekek,,3.7167,12.6667,Cameroon,CM,CMR,Est,Est,CM-ES,region,,6.8,,,5,Africa/Douala,FALSE,1120466553
Makak,Makak,,3.9833,11.2000,Cameroon,CM,CMR,Centre,Centre,CM-CE,region,,38.0,,,4,Africa/Douala,FALSE,1120339325
Makak,Makak,Mom-Nug’s|Maka,3.5500,11.0333,Cameroon,CM,CMR,Centre,Centre,CM-CE,region,,26.1,,,4,Africa/Douala,TRUE,1120535636
Makak,Makak,,3.6000,12.3833,Cameroon,CM,CMR,Centre,Centre,CM-CE,region,,19.8,,,4,Africa/Douala,TRUE,1120042997
Fomgha,Fomgha,Bafomgba,5.6764,10.2406,Cameroon,CM,CMR,Ouest,Ouest,CM-OU,region,,339.3,,,3,Africa/Douala,FALSE,1120767473
"Ntouesong V","Ntouesong V",,3.9667,11.6167,Cameroon,CM,CMR,Centre,Centre,CM-CE,region,,53.4,,,4,Africa/Douala,FALSE,1120764691
Bonapendé,Bonapende,Bondapendé,4.4097,9.8836,Cameroon,CM,CMR,Littoral,Littoral,CM-LT,region,,5.5,,,5,Africa/Douala,FALSE,1120784379
Mambaya,Mambaya,Manbeya|Mambeia,10.1475,14.1795,Cameroon,CM,CMR,Extrême-Nord,Extreme-Nord,CM-EN,region,,138.5,,,4,Africa/Douala,FALSE,1120459292
Tendé,Tende,,3.9425,9.4500,Cameroon,CM,CMR,Littoral,Littoral,CM-LT,region,,3202.3,,,2,Africa/Douala,FALSE,1120754096
Ndiguina,Ndiguina,,11.4872,14.6776,Cameroon,CM,CMR,Extrême-Nord,Extreme-Nord,CM-EN,region,,63.7,,,4,Africa/Douala,FALSE,1120646432
"Osimb I","Osimb I",,4.6000,11.0333,Cameroon,CM,CMR,Centre,Centre,CM-CE,region,,33.0,,,4,Africa/Douala,FALSE,1120682603
Goualongoy,Goualongoy,,10.7527,13.9260,Cameroon,CM,CMR,Extrême-Nord,Extreme-Nord,CM-EN,region,,266.8,,,3,Africa/Douala,FALSE,1120715973
Bisa,Bisa,Mbissa,8.6643,14.9719,Cameroon,CM,CMR,Nord,Nord,CM-NO,region,,20.2,,,4,Africa/Douala,FALSE,1120719960
Bwegam,Bwegam,,6.3488,9.9082,Cameroon,CM,CMR,North-West,North-West,CM-NW,region,,48.2,,,4,Africa/Douala,FALSE,1120821760
Kaday,Kaday,Kadeï,10.5627,14.7532,Cameroon,CM,CMR,Extrême-Nord,Extreme-Nord,CM-EN,region,,138.5,,,4,Africa/Douala,FALSE,1120669777
"Warou I","Warou I",,12.5203,14.2761,Cameroon,CM,CMR,Extrême-Nord,Extreme-Nord,CM-EN,region,,63.7,,,4,Africa/Douala,FALSE,1120356647
Loko,Loko,Tikin’s|Logo,10.0453,15.2909,Cameroon,CM,CMR,Extrême-Nord,Extreme-Nord,CM-EN,region,,132.2,,,4,Africa/Douala,FALSE,1120085432
Dougoudougou,Dougoudougou,Dŭgŭdŭgu|Saëoa,7.9000,12.6833,Cameroon,CM,CMR,Nord,Nord,CM-NO,region,,6.8,,,5,Africa/Douala,FALSE,1120889485
Pemgou,Pemgou,,9.6057,13.5873,Cameroon,CM,CMR,Nord,Nord,CM-NO,region,,123.4,,,4,Africa/Douala,FALSE,1120832192
Metiykpwale,Metiykpwale,,2.8500,11.5000,Cameroon,CM,CMR,Sud,Sud,CM-SU,region,,32.8,,,4,Africa/Douala,FALSE,1120791851
Diwala,Diwala,,3.6000,12.7167,Cameroon,CM,CMR,Est,Est,CM-ES,region,,6.8,,,5,Africa/Douala,FALSE,1120591600
Limbo,Limbo,,5.2378,9.7586,Cameroon,CM,CMR,South-West,South-West,CM-SW,region,,63.7,,,4,Africa/Douala,FALSE,1120690523
"Dibi Manbéré","Dibi Manbere",,6.9000,14.4167,Cameroon,CM,CMR,Adamaoua,Adamaoua,CM-AD,region,,30.7,,,4,Africa/Douala,FALSE,1120037612
Ouanten,Ouanten,Ouenden|Ouanden,5.3167,14.2500,Cameroon,CM,CMR,Est,Est,CM-ES,region,,16.7,,,4,Africa/Douala,FALSE,1120627424
Lé,Le,,3.8167,12.5000,Cameroon,CM,CMR,Centre,Centre,CM-CE,region,,19.6,,,4,Africa/Douala,FALSE,1120121015
Mtaz,Mtaz,,10.9050,13.7497,Cameroon,CM,CMR,Extrême-Nord,Extreme-Nord,CM-EN,region,,266.8,,,3,Africa/Douala,FALSE,1120778238
Bitsokmam,Bitsokmam,,3.0500,11.5167,Cameroon,CM,CMR,Sud,Sud,CM-SU,region,,32.8,,,4,Africa/Douala,FALSE,1120771236
Sarma,Sarma,,10.4072,14.2892,Cameroon,CM,CMR,Extrême-Nord,Extreme-Nord,CM-EN,region,,138.5,,,4,Africa/Douala,FALSE,1120483264
"Njiloum II","Njiloum II",,5.8004,10.8875,Cameroon,CM,CMR,Ouest,Ouest,CM-OU,region,,85.3,,,4,Africa/Douala,FALSE,1120964655
Moula,Moula,,5.4920,10.0999,Cameroon,CM,CMR,Ouest,Ouest,CM-OU,region,,240.1,,,3,Africa/Douala,FALSE,1120768732
Fangbilone,Fangbilone,,4.3833,12.2500,Cameroon,CM,CMR,Centre,Centre,CM-CE,region,,10.6,,,4,Africa/Douala,FALSE,1120040152
Biboa,Biboa,,4.4333,12.6167,Cameroon,CM,CMR,Centre,Centre,CM-CE,region,,10.6,,,4,Africa/Douala,FALSE,1120068367
Mandjakma,Mandjakma,,10.0133,14.9034,Cameroon,CM,CMR,Extrême-Nord,Extreme-Nord,CM-EN,region,,132.2,,,4,Africa/Douala,FALSE,1120930836
Tsela,Tsela,,5.6081,10.1659,Cameroon,CM,CMR,Ouest,Ouest,CM-OU,region,,339.3,,,3,Africa/Douala,FALSE,1120720415
Tsela,Tsela,,5.5230,10.2049,Cameroon,CM,CMR,Ouest,Ouest,CM-OU,region,,339.3,,,3,Africa/Douala,TRUE,1120454808
Tséla,Tsela,,5.2194,10.4424,Cameroon,CM,CMR,Ouest,Ouest,CM-OU,region,,115.4,,,4,Africa/Douala,TRUE,1120891445
Lounboko,Lounboko,,8.1044,15.0767,Cameroon,CM,CMR,Nord,Nord,CM-NO,region,,20.2,,,4,Africa/Douala,FALSE,1120836221
Diba,Diba,,12.1093,14.6750,Cameroon,CM,CMR,Extrême-Nord,Extreme-Nord,CM-EN,region,,63.7,,,4,Africa/Douala,FALSE,1120478211
Pipa,Pipa,,8.4115,13.2395,Cameroon,CM,CMR,Nord,Nord,CM-NO,region,,6.8,,,5,Africa/Douala,FALSE,1120273643
Houva,Houva,,10.8000,13.8110,Cameroon,CM,CMR,Extrême-Nord,Extreme-Nord,CM-EN,region,,266.8,,,3,Africa/Douala,FALSE,1120843492
Fombé,Fombe,,5.4672,10.3279,Cameroon,CM,CMR,Ouest,Ouest,CM-OU,region,,240.1,,,3,Africa/Douala,FALSE,1120993121
Etognang,Etognang,,4.6667,12.4333,Cameroon,CM,CMR,Centre,Centre,CM-CE,region,,10.6,,,4,Africa/Douala,FALSE,1120270795
Adoum,Adoum,,2.8833,11.1333,Cameroon,CM,CMR,Sud,Sud,CM-SU,region,,32.8,,,4,Africa/Douala,FALSE,1120814499
Adoum,Adoum,,2.5500,11.8000,Cameroon,CM,CMR,Sud,Sud,CM-SU,region,,32.8,,,4,Africa/Douala,TRUE,1120760112
Manbaka,Manbaka,,6.8500,14.1333,Cameroon,CM,CMR,Adamaoua,Adamaoua,CM-AD,region,,30.7,,,4,Africa/Douala,FALSE,1120930446
Moudoukoua,Moudoukoua,Moudougoua,10.9432,13.7865,Cameroon,CM,CMR,Extrême-Nord,Extreme-Nord,CM-EN,region,,266.8,,,3,Africa/Douala,FALSE,1120247146
Bougi,Bougi,,8.4323,13.3541,Cameroon,CM,CMR,Nord,Nord,CM-NO,region,,6.8,,,5,Africa/Douala,FALSE,1120288554
Salangué,Salangue,,4.1000,12.8167,Cameroon,CM,CMR,Est,Est,CM-ES,region,,6.8,,,5,Africa/Douala,FALSE,1120221252
Ntabako,Ntabako,,4.6590,9.8128,Cameroon,CM,CMR,Littoral,Littoral,CM-LT,region,,103.6,,,4,Africa/Douala,FALSE,1120052626
"Lala II","Lala II",Lala,4.8500,14.3167,Cameroon,CM,CMR,Est,Est,CM-ES,region,,15.1,,,4,Africa/Douala,FALSE,1120970647
Mviglimengalé,Mviglimengale,,2.4000,10.5333,Cameroon,CM,CMR,Sud,Sud,CM-SU,region,,16.0,,,4,Africa/Douala,FALSE,1120963052
Bamendjing,Bamendjing,Bamindjin,5.7053,10.4848,Cameroon,CM,CMR,Ouest,Ouest,CM-OU,region,,339.3,,,3,Africa/Douala,FALSE,1120515965
Soupta-Bani,Soupta-Bani,,9.9107,13.8680,Cameroon,CM,CMR,Nord,Nord,CM-NO,region,,158.9,,,4,Africa/Douala,FALSE,1120458504
Njonji,Njonji,Njonje|Nyonge|Ndjondje|Ndjondge|Ndyondye|Nyonye,4.1364,8.9896,Cameroon,CM,CMR,South-West,South-West,CM-SW,region,,384.1,,,3,Africa/Douala,FALSE,1120305091
Fouchip,Fouchip,,5.2607,10.4631,Cameroon,CM,CMR,Ouest,Ouest,CM-OU,region,,115.4,,,4,Africa/Douala,FALSE,1120087574
"Ndégo III","Ndego III",,12.5655,14.3443,Cameroon,CM,CMR,Extrême-Nord,Extreme-Nord,CM-EN,region,,63.7,,,4,Africa/Douala,FALSE,1120337274
Goymadji,Goymadji,,8.8852,14.3563,Cameroon,CM,CMR,Nord,Nord,CM-NO,region,,20.2,,,4,Africa/Douala,FALSE,1120989207
"Ouro Bobboy","Ouro Bobboy",,9.1513,13.6799,Cameroon,CM,CMR,Nord,Nord,CM-NO,region,,123.4,,,4,Africa/Douala,FALSE,1120961595
Ngariwa,Ngariwa,,9.7474,13.5494,Cameroon,CM,CMR,Nord,Nord,CM-NO,region,,123.4,,,4,Africa/Douala,FALSE,1120967627
"Toudouro Nibango","Toudouro Nibango",,10.4775,13.8161,Cameroon,CM,CMR,Extrême-Nord,Extreme-Nord,CM-EN,region,,266.8,,,3,Africa/Douala,FALSE,1120555855
Bissé,Bisse,Bisé,9.1420,14.2561,Cameroon,CM,CMR,Nord,Nord,CM-NO,region,,20.2,,,4,Africa/Douala,FALSE,1120808490
Alobzok,Alobzok,,4.3970,9.5712,Cameroon,CM,CMR,Littoral,Littoral,CM-LT,region,,103.6,,,4,Africa/Douala,FALSE,1120588855
Deyna,Deyna,,6.2667,14.3667,Cameroon,CM,CMR,Adamaoua,Adamaoua,CM-AD,region,,16.1,,,4,Africa/Douala,FALSE,1120572838
Laro,Laro,,8.2833,12.3000,Cameroon,CM,CMR,Nord,Nord,CM-NO,region,,6.8,,,5,Africa/Douala,FALSE,1120983025
Mbor,Mbor,,6.4000,11.3167,Cameroon,CM,CMR,Adamaoua,Adamaoua,CM-AD,region,,40.3,,,4,Africa/Douala,FALSE,1120388162
Wadjétouna,Wadjetouna,,12.0374,14.9911,Cameroon,CM,CMR,Extrême-Nord,Extreme-Nord,CM-EN,region,,63.7,,,4,Africa/Douala,FALSE,1120273383
"Nkondougou I","Nkondougou I",Nkong-Dougou,3.6500,11.4000,Cameroon,CM,CMR,Centre,Centre,CM-CE,region,,51.4,,,4,Africa/Douala,FALSE,1120715371
Alen,Alen,,2.2167,11.3667,Cameroon,CM,CMR,Sud,Sud,CM-SU,region,,32.0,,,4,Africa/Libreville,FALSE,1120977570
Alen,Alen,,2.3667,10.5833,Cameroon,CM,CMR,Sud,Sud,CM-SU,region,,16.0,,,4,Africa/Douala,TRUE,1120768683
Alen,Alen,,2.7667,11.1000,Cameroon,CM,CMR,Sud,Sud,CM-SU,region,,16.0,,,4,Africa/Douala,TRUE,1120043452
Alen,Alen,,2.4333,10.4333,Cameroon,CM,CMR,Sud,Sud,CM-SU,region,,16.0,,,4,Africa/Douala,TRUE,1120942416
Alen,Alen,,2.2167,11.0333,Cameroon,CM,CMR,Sud,Sud,CM-SU,region,,16.0,,,4,Africa/Douala,TRUE,1120860156
Alen,Alen,,3.3500,12.2500,Cameroon,CM,CMR,Sud,Sud,CM-SU,region,,14.7,,,4,Africa/Douala,TRUE,1120563337
Alen,Alen,,3.2000,12.1333,Cameroon,CM,CMR,Sud,Sud,CM-SU,region,,14.7,,,4,Africa/Douala,TRUE,1120000013
"Lepipi III","Lepipi III",,5.5064,10.2122,Cameroon,CM,CMR,Ouest,Ouest,CM-OU,region,,278.3,,,3,Africa/Douala,FALSE,1120046727
Houdjouloum,Houdjouloum,,10.6720,14.2294,Cameroon,CM,CMR,Extrême-Nord,Extreme-Nord,CM-EN,region,,212.6,,,3,Africa/Douala,FALSE,1120333625
Garap,Garap,,5.8727,10.6752,Cameroon,CM,CMR,Ouest,Ouest,CM-OU,region,,85.3,,,4,Africa/Douala,FALSE,1120068781
Ntongé,Ntonge,,4.7667,10.2000,Cameroon,CM,CMR,Littoral,Littoral,CM-LT,region,,5.5,,,5,Africa/Douala,FALSE,1120122907
Akpassang,Akpassang,"Ekundukundu II",4.9819,8.7063,Cameroon,CM,CMR,South-West,South-West,CM-SW,region,,24.2,,,4,Africa/Douala,FALSE,1120408987
Poulatari,Poulatari,,11.1755,14.0054,Cameroon,CM,CMR,Extrême-Nord,Extreme-Nord,CM-EN,region,,179.2,,,4,Africa/Douala,FALSE,1120376572
Atog-Boga,Atog-Boga,Atok-Boga,3.3333,10.5167,Cameroon,CM,CMR,Sud,Sud,CM-SU,region,,26.9,,,4,Africa/Douala,FALSE,1120537070
Koum,Koum,,4.4583,9.7855,Cameroon,CM,CMR,Littoral,Littoral,CM-LT,region,,45.8,,,4,Africa/Douala,FALSE,1120523279
Akokam,Akokam,,2.7833,10.2333,Cameroon,CM,CMR,Sud,Sud,CM-SU,region,,26.9,,,4,Africa/Douala,FALSE,1120781586
Otéré,Otere,,8.4996,13.0416,Cameroon,CM,CMR,Nord,Nord,CM-NO,region,,6.8,,,5,Africa/Douala,FALSE,1120718585
Bamedjo,Bamedjo,,5.2977,10.1955,Cameroon,CM,CMR,Ouest,Ouest,CM-OU,region,,135.3,,,4,Africa/Douala,FALSE,1120520361
Biting,Biting,,3.8500,11.5500,Cameroon,CM,CMR,Centre,Centre,CM-CE,region,,16124.7,,,2,Africa/Douala,FALSE,1120272755
Igawa,Igawa,,11.1343,14.1417,Cameroon,CM,CMR,Extrême-Nord,Extreme-Nord,CM-EN,region,,179.2,,,4,Africa/Douala,FALSE,1120323863
Nsungli,Nsungli,,6.5333,10.7333,Cameroon,CM,CMR,North-West,North-West,CM-NW,region,,73.7,,,4,Africa/Douala,FALSE,1120360227
Nsanki,Nsanki,Sankié,5.0584,10.7942,Cameroon,CM,CMR,Ouest,Ouest,CM-OU,region,,74.2,,,4,Africa/Douala,FALSE,1120247663
Mekwecha,Mekwecha,,5.8682,9.6190,Cameroon,CM,CMR,South-West,South-West,CM-SW,region,,27.9,,,4,Africa/Douala,FALSE,1120005018
Souargué,Souargue,,12.6356,14.2738,Cameroon,CM,CMR,Extrême-Nord,Extreme-Nord,CM-EN,region,,63.7,,,4,Africa/Douala,FALSE,1120230119
Koudou,Koudou,,3.7333,12.5667,Cameroon,CM,CMR,Centre,Centre,CM-CE,region,,19.8,,,4,Africa/Douala,FALSE,1120797978
Ati,Ati,,5.8097,9.7062,Cameroon,CM,CMR,South-West,South-West,CM-SW,region,,27.9,,,4,Africa/Douala,FALSE,1120240602
Lalémoto,Lalemoto,,2.5833,9.8333,Cameroon,CM,CMR,Sud,Sud,CM-SU,region,,26.9,,,4,Africa/Douala,FALSE,1120535477
Nzala’,Nzala',,5.3286,10.0616,Cameroon,CM,CMR,Ouest,Ouest,CM-OU,region,,240.1,,,3,Africa/Douala,FALSE,1120079650
Njitet,Njitet,,5.8982,10.6886,Cameroon,CM,CMR,Ouest,Ouest,CM-OU,region,,85.3,,,4,Africa/Douala,FALSE,1120348517
Toundouroum,Toundouroum,,10.5301,14.4306,Cameroon,CM,CMR,Extrême-Nord,Extreme-Nord,CM-EN,region,,212.6,,,3,Africa/Douala,FALSE,1120556686
Nloayong,Nloayong,,2.3833,10.0333,Cameroon,CM,CMR,Sud,Sud,CM-SU,region,,26.9,,,4,Africa/Douala,FALSE,1120446425
Larma,Larma,Lorina,10.0309,13.7865,Cameroon,CM,CMR,Nord,Nord,CM-NO,region,,158.9,,,4,Africa/Douala,FALSE,1120679363
"Massoumbou Carrefour","Massoumbou Carrefour",,4.1249,9.8301,Cameroon,CM,CMR,Littoral,Littoral,CM-LT,region,,3202.3,,,2,Africa/Douala,FALSE,1120557521
"Fakélé I","Fakele I",,3.4833,11.6000,Cameroon,CM,CMR,Centre,Centre,CM-CE,region,,39.5,,,4,Africa/Douala,FALSE,1120440150
Atoutchang,Atoutchang,,5.4237,10.0759,Cameroon,CM,CMR,Ouest,Ouest,CM-OU,region,,240.1,,,3,Africa/Douala,FALSE,1120973199
Roum,Roum,,4.7333,11.1333,Cameroon,CM,CMR,Centre,Centre,CM-CE,region,,33.0,,,4,Africa/Douala,FALSE,1120047633
Emini,Emini,,4.1000,12.0167,Cameroon,CM,CMR,Centre,Centre,CM-CE,region,,53.4,,,4,Africa/Douala,FALSE,1120081562
Emini,Emini,,3.9000,12.4667,Cameroon,CM,CMR,Centre,Centre,CM-CE,region,,19.8,,,4,Africa/Douala,TRUE,1120065139
Ewangabi,Ewangabi,,5.8833,9.6833,Cameroon,CM,CMR,North-West,North-West,CM-NW,region,,80.9,,,4,Africa/Douala,FALSE,1120297963
Anoyé,Anoye,Anoé,4.4000,14.2833,Cameroon,CM,CMR,Est,Est,CM-ES,region,,15.1,,,4,Africa/Douala,FALSE,1120342836
Djogone,Djogone,,11.9685,14.6472,Cameroon,CM,CMR,Extrême-Nord,Extreme-Nord,CM-EN,region,,73.5,,,4,Africa/Lagos,FALSE,1120874969
"Mantem I","Mantem I",,4.8247,9.7738,Cameroon,CM,CMR,Littoral,Littoral,CM-LT,region,,103.6,,,4,Africa/Douala,FALSE,1120648129
Ndakla,Ndakla,Ndoukla,10.1227,14.7672,Cameroon,CM,CMR,Extrême-Nord,Extreme-Nord,CM-EN,region,,138.5,,,4,Africa/Douala,FALSE,1120405172
Balungu,Balungu,,4.2724,9.3220,Cameroon,CM,CMR,South-West,South-West,CM-SW,region,,384.1,,,3,Africa/Douala,FALSE,1120999036
Miréo,Mireo,,10.6448,13.9519,Cameroon,CM,CMR,Extrême-Nord,Extreme-Nord,CM-EN,region,,266.8,,,3,Africa/Douala,FALSE,1120082028
Mamba,Mamba,,5.9156,10.9761,Cameroon,CM,CMR,Ouest,Ouest,CM-OU,region,,85.3,,,4,Africa/Douala,FALSE,1120137166
Abang,Abang,,2.9167,11.1167,Cameroon,CM,CMR,Sud,Sud,CM-SU,region,,32.8,,,4,Africa/Douala,FALSE,1120240939
Abang,Abang,,2.5000,11.6333,Cameroon,CM,CMR,Sud,Sud,CM-SU,region,,32.8,,,4,Africa/Douala,TRUE,1120387103
Abang,Abang,,2.4167,10.3667,Cameroon,CM,CMR,Sud,Sud,CM-SU,region,,18.5,,,4,Africa/Douala,TRUE,1120392004
Abang,Abang,,2.3500,11.2500,Cameroon,CM,CMR,Sud,Sud,CM-SU,region,,16.0,,,4,Africa/Douala,TRUE,1120367368
Abang,Abang,,2.1833,10.4833,Cameroon,CM,CMR,Sud,Sud,CM-SU,region,,16.0,,,4,Africa/Douala,TRUE,1120596574
Abang,Abang,,2.5833,11.0333,Cameroon,CM,CMR,Sud,Sud,CM-SU,region,,16.0,,,4,Africa/Douala,TRUE,1120728722
Abang,Abang,,2.4333,10.7167,Cameroon,CM,CMR,Sud,Sud,CM-SU,region,,16.0,,,4,Africa/Douala,TRUE,1120212899
Abang,Abang,,2.3667,10.6333,Cameroon,CM,CMR,Sud,Sud,CM-SU,region,,16.0,,,4,Africa/Douala,TRUE,1120508283
Ntibonkwé,Ntibonkwe,,3.5000,13.0167,Cameroon,CM,CMR,Est,Est,CM-ES,region,,6.8,,,5,Africa/Douala,FALSE,1120661206
Tororo,Tororo,,10.0551,13.3698,Cameroon,CM,CMR,Nord,Nord,CM-NO,region,,158.9,,,4,Africa/Douala,FALSE,1120691220
Minbang,Minbang,Mimbang|Mimkang,2.8167,12.0667,Cameroon,CM,CMR,Sud,Sud,CM-SU,region,,14.7,,,4,Africa/Douala,FALSE,1120552190
Badoumka,Badoumka,Bandoumka,5.1973,10.1559,Cameroon,CM,CMR,Ouest,Ouest,CM-OU,region,,135.3,,,4,Africa/Douala,FALSE,1120394432
Mintyaminyoumin,Mintyaminyoumin,,3.0167,12.0333,Cameroon,CM,CMR,Sud,Sud,CM-SU,region,,14.7,,,4,Africa/Douala,FALSE,1120947202
"Santa Mbu","Santa Mbu",,5.7872,10.1560,Cameroon,CM,CMR,North-West,North-West,CM-NW,region,,400.4,,,3,Africa/Douala,FALSE,1120541325
Baldama,Baldama,,10.9898,14.0688,Cameroon,CM,CMR,Extrême-Nord,Extreme-Nord,CM-EN,region,,179.2,,,4,Africa/Douala,FALSE,1120518127
"Meta I","Meta I",,5.4967,10.2282,Cameroon,CM,CMR,Ouest,Ouest,CM-OU,region,,240.1,,,3,Africa/Douala,FALSE,1120515274
Touopou,Touopou,,5.4196,10.0300,Cameroon,CM,CMR,Ouest,Ouest,CM-OU,region,,240.1,,,3,Africa/Douala,FALSE,1120292606
Biamo,Biamo,,4.7667,11.2167,Cameroon,CM,CMR,Centre,Centre,CM-CE,region,,33.0,,,4,Africa/Douala,FALSE,1120639242
Barkala,Barkala,,11.3771,14.4668,Cameroon,CM,CMR,Extrême-Nord,Extreme-Nord,CM-EN,region,,63.7,,,4,Africa/Douala,FALSE,1120938894
Boumedjé,Boumedje,"Ouro-Boumodge|Ouro Ba",8.9513,13.3935,Cameroon,CM,CMR,Nord,Nord,CM-NO,region,,123.4,,,4,Africa/Douala,FALSE,1120735820
"Oyak I","Oyak I",,3.4833,11.5000,Cameroon,CM,CMR,Centre,Centre,CM-CE,region,,39.5,,,4,Africa/Douala,FALSE,1120887731
Soulfa,Soulfa,Sulfa,12.3969,14.4662,Cameroon,CM,CMR,Extrême-Nord,Extreme-Nord,CM-EN,region,,63.7,,,4,Africa/Douala,FALSE,1120353561
"Djamba Kouli","Djamba Kouli",,10.3956,14.1627,Cameroon,CM,CMR,Extrême-Nord,Extreme-Nord,CM-EN,region,,212.6,,,3,Africa/Douala,FALSE,1120378827
Ecole,Ecole,,11.0292,13.8123,Cameroon,CM,CMR,Extrême-Nord,Extreme-Nord,CM-EN,region,,266.8,,,3,Africa/Douala,FALSE,1120740313
Nkoufen,Nkoufen,Kouffen,5.3531,10.6293,Cameroon,CM,CMR,Ouest,Ouest,CM-OU,region,,85.3,,,4,Africa/Douala,FALSE,1120911866
Nkoufen,Nkoufen,Koufen,5.6434,10.9032,Cameroon,CM,CMR,Ouest,Ouest,CM-OU,region,,85.3,,,4,Africa/Douala,TRUE,1120736273
Zengoaga,Zengoaga,,4.6333,12.6333,Cameroon,CM,CMR,Centre,Centre,CM-CE,region,,10.6,,,4,Africa/Douala,FALSE,1120608599
Goudéri,Gouderi,,11.2185,13.9587,Cameroon,CM,CMR,Extrême-Nord,Extreme-Nord,CM-EN,region,,179.2,,,4,Africa/Douala,FALSE,1120616472
Ndjaïndi,Ndjaindi,,10.5572,13.8949,Cameroon,CM,CMR,Extrême-Nord,Extreme-Nord,CM-EN,region,,266.8,,,3,Africa/Douala,FALSE,1120260918
Mobange,Mobange,Mubenge,4.0833,9.0000,Cameroon,CM,CMR,South-West,South-West,CM-SW,region,,384.1,,,3,Africa/Douala,FALSE,1120184499
Eyiantoum,Eyiantoum,,2.2333,11.1333,Cameroon,CM,CMR,Sud,Sud,CM-SU,region,,16.0,,,4,Africa/Douala,FALSE,1120334575
Loumbout,Loumbout,,5.5699,10.6560,Cameroon,CM,CMR,Ouest,Ouest,CM-OU,region,,85.3,,,4,Africa/Douala,FALSE,1120486817
"Obang I","Obang I",,3.0667,11.2333,Cameroon,CM,CMR,Sud,Sud,CM-SU,region,,32.8,,,4,Africa/Douala,FALSE,1120965325
Pango,Pango,,5.1833,10.3667,Cameroon,CM,CMR,Ouest,Ouest,CM-OU,region,,237.1,,,3,Africa/Douala,FALSE,1120134420
Sker,Sker,,11.3323,15.0275,Cameroon,CM,CMR,Extrême-Nord,Extreme-Nord,CM-EN,region,,63.7,,,4,Africa/Douala,FALSE,1120894325
Okola,Okola,,4.0167,11.3667,Cameroon,CM,CMR,Centre,Centre,CM-CE,region,,98.0,,,4,Africa/Douala,FALSE,1120079389
Ngoulminanga,Ngoulminanga,,3.5333,12.9000,Cameroon,CM,CMR,Est,Est,CM-ES,region,,6.8,,,5,Africa/Douala,FALSE,1120868439
Ngasa,Ngasa,,4.9500,14.5667,Cameroon,CM,CMR,Est,Est,CM-ES,region,,15.1,,,4,Africa/Douala,FALSE,1120599916
Fagoudoum,Fagoudoum,,10.6444,13.8857,Cameroon,CM,CMR,Extrême-Nord,Extreme-Nord,CM-EN,region,,266.8,,,3,Africa/Douala,FALSE,1120522123
Kosseldje,Kosseldje,,9.9099,14.0065,Cameroon,CM,CMR,Nord,Nord,CM-NO,region,,158.9,,,4,Africa/Douala,FALSE,1120519484
Mofako,Mofako,Mafako,4.8541,9.2546,Cameroon,CM,CMR,South-West,South-West,CM-SW,region,,24.2,,,4,Africa/Douala,FALSE,1120955145
Nkokem,Nkokem,,4.5442,9.8808,Cameroon,CM,CMR,Littoral,Littoral,CM-LT,region,,5.5,,,5,Africa/Douala,FALSE,1120818027
Mbé,Mbe,,12.2825,14.6127,Cameroon,CM,CMR,Extrême-Nord,Extreme-Nord,CM-EN,region,,63.7,,,4,Africa/Douala,FALSE,1120798727
Ngoum,Ngoum,,12.8231,14.5551,Cameroon,CM,CMR,Extrême-Nord,Extreme-Nord,CM-EN,region,,63.7,,,4,Africa/Douala,FALSE,1120935646
Tumbu,Tumbu,Tuml,6.9000,10.2000,Cameroon,CM,CMR,North-West,North-West,CM-NW,region,,40.5,,,4,Africa/Douala,FALSE,1120004115
Boumi,Boumi,,8.4278,13.3874,Cameroon,CM,CMR,Nord,Nord,CM-NO,region,,6.8,,,5,Africa/Douala,FALSE,1120461027
Mbengé,Mbenge,Mbengué,3.6500,10.4167,Cameroon,CM,CMR,Centre,Centre,CM-CE,region,,26.1,,,4,Africa/Douala,FALSE,1120183582
"Bélaka Mboum","Belaka Mboum",,7.7667,14.5167,Cameroon,CM,CMR,Nord,Nord,CM-NO,region,,20.2,,,4,Africa/Douala,FALSE,1120880188
Dangra,Dangra,,10.2799,13.5486,Cameroon,CM,CMR,Extrême-Nord,Extreme-Nord,CM-EN,region,,266.8,,,3,Africa/Douala,FALSE,1120823092
Ngarao,Ngarao,,10.5581,14.1134,Cameroon,CM,CMR,Extrême-Nord,Extreme-Nord,CM-EN,region,,212.6,,,3,Africa/Douala,FALSE,1120936911
Gao,Gao,,7.5722,15.1574,Cameroon,CM,CMR,Nord,Nord,CM-NO,region,,20.2,,,4,Africa/Douala,FALSE,1120589524
Ngoum,Ngoum,,2.0167,15.6000,Cameroon,CM,CMR,Est,Est,CM-ES,region,,5.1,,,5,Africa/Douala,FALSE,1120019992
"Aboudangala Chia","Aboudangala Chia","Abou Dangala",12.6679,14.5349,Cameroon,CM,CMR,Extrême-Nord,Extreme-Nord,CM-EN,region,,63.7,,,4,Africa/Douala,FALSE,1120644124
Kwiding,Kwiding,,5.7800,10.0167,Cameroon,CM,CMR,North-West,North-West,CM-NW,region,,400.4,,,3,Africa/Douala,FALSE,1120966024
Otélé,Otele,Otellé|Ottélé,3.5833,11.2500,Cameroon,CM,CMR,Centre,Centre,CM-CE,region,,50.5,,,4,Africa/Douala,FALSE,1120883296
Bibinda,Bibinda,,3.5167,12.4667,Cameroon,CM,CMR,Sud,Sud,CM-SU,region,,14.7,,,4,Africa/Douala,FALSE,1120854364
"Laatét III","Laatet III",,5.6091,10.2732,Cameroon,CM,CMR,Ouest,Ouest,CM-OU,region,,339.3,,,3,Africa/Douala,FALSE,1120446848
Rep,Rep,Rep-Béka,7.3167,13.3833,Cameroon,CM,CMR,Adamaoua,Adamaoua,CM-AD,region,,30.7,,,4,Africa/Douala,FALSE,1120758724
Bokwa,Bokwa,Boko,10.2281,13.6542,Cameroon,CM,CMR,Extrême-Nord,Extreme-Nord,CM-EN,region,,266.8,,,3,Africa/Douala,FALSE,1120547893
Bonangang,Bonangang,,4.1042,9.7391,Cameroon,CM,CMR,Littoral,Littoral,CM-LT,region,,3202.3,,,2,Africa/Douala,FALSE,1120875603
Minkoumou,Minkoumou,,4.1333,11.7833,Cameroon,CM,CMR,Centre,Centre,CM-CE,region,,53.4,,,4,Africa/Douala,FALSE,1120400399
Nkouonja,Nkouonja,,5.5342,10.6642,Cameroon,CM,CMR,Ouest,Ouest,CM-OU,region,,85.3,,,4,Africa/Douala,FALSE,1120312522
Nkouonja,Nkouonja,,5.5516,10.9595,Cameroon,CM,CMR,Ouest,Ouest,CM-OU,region,,85.3,,,4,Africa/Douala,TRUE,1120634637
Bian,Bian,,3.9167,10.5833,Cameroon,CM,CMR,Littoral,Littoral,CM-LT,region,,21.2,,,4,Africa/Douala,FALSE,1120542335
Djouzé,Djouze,,2.7333,12.6333,Cameroon,CM,CMR,Sud,Sud,CM-SU,region,,14.7,,,4,Africa/Douala,FALSE,1120371564
Tsinza’,Tsinza',,5.4956,10.0421,Cameroon,CM,CMR,Ouest,Ouest,CM-OU,region,,240.1,,,3,Africa/Douala,FALSE,1120986678
Tako,Tako,,8.4941,13.1080,Cameroon,CM,CMR,Nord,Nord,CM-NO,region,,6.8,,,5,Africa/Douala,FALSE,1120059836
Ekouméyek,Ekoumeyek,,3.3833,11.2500,Cameroon,CM,CMR,Centre,Centre,CM-CE,region,,39.5,,,4,Africa/Douala,FALSE,1120437935
Nguesek,Nguesek,,7.7500,13.7500,Cameroon,CM,CMR,Nord,Nord,CM-NO,region,,20.2,,,4,Africa/Douala,FALSE,1120825065
Dawaya,Dawaya,Daouaya,11.0007,14.9764,Cameroon,CM,CMR,Extrême-Nord,Extreme-Nord,CM-EN,region,,63.7,,,4,Africa/Douala,FALSE,1120823645
"Touki II","Touki II",Touki,4.2333,14.3833,Cameroon,CM,CMR,Est,Est,CM-ES,region,,15.1,,,4,Africa/Douala,FALSE,1120594040
Zintchué,Zintchue,,5.6303,10.1842,Cameroon,CM,CMR,Ouest,Ouest,CM-OU,region,,339.3,,,3,Africa/Douala,FALSE,1120995345
Goumley,Goumley,Goumleï,10.4172,14.8320,Cameroon,CM,CMR,Extrême-Nord,Extreme-Nord,CM-EN,region,,138.5,,,4,Africa/Douala,FALSE,1120936197
Koukounou,Koukounou,,3.9667,11.6667,Cameroon,CM,CMR,Centre,Centre,CM-CE,region,,53.4,,,4,Africa/Douala,FALSE,1120859006
Nkoumekwene,Nkoumekwene,,5.7460,10.9271,Cameroon,CM,CMR,Ouest,Ouest,CM-OU,region,,85.3,,,4,Africa/Douala,FALSE,1120082343
Mémé,Meme,,10.9781,14.2417,Cameroon,CM,CMR,Extrême-Nord,Extreme-Nord,CM-EN,region,,179.2,,,4,Africa/Douala,FALSE,1120794219
Tsakoum,Tsakoum,,9.9443,13.3236,Cameroon,CM,CMR,Nord,Nord,CM-NO,region,,123.4,,,4,Africa/Douala,FALSE,1120678143
Bakoissié,Bakoissie,Bakossi,5.9833,14.4333,Cameroon,CM,CMR,Est,Est,CM-ES,region,,16.7,,,4,Africa/Douala,FALSE,1120985915
Njinso,Njinso,,5.8146,10.9962,Cameroon,CM,CMR,Ouest,Ouest,CM-OU,region,,85.3,,,4,Africa/Douala,FALSE,1120473935
Lougéré,Lougere,,8.5642,13.0413,Cameroon,CM,CMR,Nord,Nord,CM-NO,region,,6.8,,,5,Africa/Douala,FALSE,1120346855
Yaragoto,Yaragoto,,10.4692,14.3604,Cameroon,CM,CMR,Extrême-Nord,Extreme-Nord,CM-EN,region,,138.5,,,4,Africa/Douala,FALSE,1120537777
Focam,Focam,,5.4049,9.9736,Cameroon,CM,CMR,Ouest,Ouest,CM-OU,region,,240.1,,,3,Africa/Douala,FALSE,1120840149
Fadjawa,Fadjawa,Fadjaoua,12.6197,14.6254,Cameroon,CM,CMR,Extrême-Nord,Extreme-Nord,CM-EN,region,,63.7,,,4,Africa/Douala,FALSE,1120242163
"Ngamé I","Ngame I",,12.2363,14.7262,Cameroon,CM,CMR,Extrême-Nord,Extreme-Nord,CM-EN,region,,63.7,,,4,Africa/Douala,FALSE,1120153179
Maouak,Maouak,,10.8796,13.9123,Cameroon,CM,CMR,Extrême-Nord,Extreme-Nord,CM-EN,region,,266.8,,,3,Africa/Douala,FALSE,1120060889
Moukouké,Moukouke,Moukoumé,3.7522,9.6025,Cameroon,CM,CMR,Littoral,Littoral,CM-LT,region,,21.2,,,4,Africa/Douala,FALSE,1120372376
Dagayang,Dagayang,,10.1848,14.2698,Cameroon,CM,CMR,Extrême-Nord,Extreme-Nord,CM-EN,region,,138.5,,,4,Africa/Douala,FALSE,1120149830
Koufta,Koufta,,10.9070,13.9371,Cameroon,CM,CMR,Extrême-Nord,Extreme-Nord,CM-EN,region,,265.2,,,3,Africa/Douala,FALSE,1120487938
Oloa,Oloa,,3.7167,11.5000,Cameroon,CM,CMR,Centre,Centre,CM-CE,region,,9526.4,,,2,Africa/Douala,FALSE,1120067534
Egba,Egba,Hegba,3.9833,11.0833,Cameroon,CM,CMR,Centre,Centre,CM-CE,region,,26.1,,,4,Africa/Douala,FALSE,1120915668
Owe,Owe,"Owe Yoke",4.2986,9.3806,Cameroon,CM,CMR,South-West,South-West,CM-SW,region,,384.1,,,3,Africa/Douala,FALSE,1120125745
Batadji,Batadji,,6.2309,9.8628,Cameroon,CM,CMR,North-West,North-West,CM-NW,region,,48.2,,,4,Africa/Douala,FALSE,1120738788
Mbouraba,Mbouraba,,10.0375,13.3639,Cameroon,CM,CMR,Nord,Nord,CM-NO,region,,158.9,,,4,Africa/Douala,FALSE,1120999265
Samaboua,Samaboua,Samabouéa,3.6478,9.6453,Cameroon,CM,CMR,Littoral,Littoral,CM-LT,region,,21.2,,,4,Africa/Douala,FALSE,1120891786
Djimli,Djimli,,9.2787,13.6472,Cameroon,CM,CMR,Nord,Nord,CM-NO,region,,123.4,,,4,Africa/Douala,FALSE,1120720469
Vaydavay,Vaydavay,,10.7998,13.8407,Cameroon,CM,CMR,Extrême-Nord,Extreme-Nord,CM-EN,region,,266.8,,,3,Africa/Douala,FALSE,1120123284
Goulmo,Goulmo,,12.5541,14.2833,Cameroon,CM,CMR,Extrême-Nord,Extreme-Nord,CM-EN,region,,63.7,,,4,Africa/Douala,FALSE,1120378930
"Manswen Mambeng","Manswen Mambeng","Mansouen|Mansouen Mambain",5.4684,10.9180,Cameroon,CM,CMR,Ouest,Ouest,CM-OU,region,,85.3,,,4,Africa/Douala,FALSE,1120169901
Pamfuetlé,Pamfuetle,,5.6392,10.7023,Cameroon,CM,CMR,Ouest,Ouest,CM-OU,region,,85.3,,,4,Africa/Douala,FALSE,1120939428
Kossel,Kossel,,9.2880,12.9223,Cameroon,CM,CMR,Nord,Nord,CM-NO,region,,123.4,,,4,Africa/Douala,FALSE,1120301182
Komboura,Komboura,Kombouro,7.7833,14.4667,Cameroon,CM,CMR,Nord,Nord,CM-NO,region,,20.2,,,4,Africa/Douala,FALSE,1120912173
Njipouo’che,Njipouo'che,,5.7330,10.7524,Cameroon,CM,CMR,Ouest,Ouest,CM-OU,region,,85.3,,,4,Africa/Douala,FALSE,1120262715
Mambo,Mambo,,5.5398,9.8158,Cameroon,CM,CMR,South-West,South-West,CM-SW,region,,27.9,,,4,Africa/Douala,FALSE,1120285908
Yalam,Yalam,,9.8565,13.2921,Cameroon,CM,CMR,Nord,Nord,CM-NO,region,,123.4,,,4,Africa/Douala,FALSE,1120889003
Gouna,Gouna,,10.0020,14.9709,Cameroon,CM,CMR,Extrême-Nord,Extreme-Nord,CM-EN,region,,132.2,,,4,Africa/Douala,FALSE,1120754132
Métadiam,Metadiam,,8.2500,13.0631,Cameroon,CM,CMR,Nord,Nord,CM-NO,region,,6.8,,,5,Africa/Douala,FALSE,1120522020
Mengou,Mengou,,3.9000,12.1333,Cameroon,CM,CMR,Centre,Centre,CM-CE,region,,19.8,,,4,Africa/Douala,FALSE,1120066003
Bokulang,Bokulang,Sokulang,4.1051,9.4890,Cameroon,CM,CMR,Littoral,Littoral,CM-LT,region,,3202.3,,,2,Africa/Douala,FALSE,1120251439
"Ngali I","Ngali I",,4.0167,11.5833,Cameroon,CM,CMR,Centre,Centre,CM-CE,region,,96.5,,,4,Africa/Douala,FALSE,1120574715
Nanja,Nanja,,4.6400,8.6603,Cameroon,CM,CMR,South-West,South-West,CM-SW,region,,24.2,,,4,Africa/Douala,FALSE,1120180426
Garam,Garam,,10.0500,15.3000,Cameroon,CM,CMR,Extrême-Nord,Extreme-Nord,CM-EN,region,,132.2,,,4,Africa/Douala,FALSE,1120106216
"Bai Dieka","Bai Dieka",,4.4833,9.1333,Cameroon,CM,CMR,South-West,South-West,CM-SW,region,,24.2,,,4,Africa/Douala,FALSE,1120348419
Denglé,Dengle,,5.7667,12.4000,Cameroon,CM,CMR,Centre,Centre,CM-CE,region,,6.8,,,5,Africa/Douala,FALSE,1120626850
Edibinjok,Edibinjok,,4.6888,9.6412,Cameroon,CM,CMR,South-West,South-West,CM-SW,region,,38.7,,,4,Africa/Douala,FALSE,1120069470
Ofoumselek,Ofoumselek,,3.9833,11.7167,Cameroon,CM,CMR,Centre,Centre,CM-CE,region,,53.4,,,4,Africa/Douala,FALSE,1120136787
Nkito,Nkito,,2.6667,11.3333,Cameroon,CM,CMR,Sud,Sud,CM-SU,region,,16.0,,,4,Africa/Douala,FALSE,1120330252
"Ekékam III","Ekekam III",,3.8833,11.3667,Cameroon,CM,CMR,Centre,Centre,CM-CE,region,,98.0,,,4,Africa/Douala,FALSE,1120867538
Zakaliao,Zakaliao,,10.6542,14.2413,Cameroon,CM,CMR,Extrême-Nord,Extreme-Nord,CM-EN,region,,212.6,,,3,Africa/Douala,FALSE,1120758097
Boulgou,Boulgou,,9.4409,13.4694,Cameroon,CM,CMR,Nord,Nord,CM-NO,region,,123.4,,,4,Africa/Douala,FALSE,1120859330
Mbanka,Mbanka,,5.8527,10.3352,Cameroon,CM,CMR,North-West,North-West,CM-NW,region,,272.4,,,3,Africa/Douala,FALSE,1120268822
Mbanka,Mbanka,,5.9750,10.4581,Cameroon,CM,CMR,North-West,North-West,CM-NW,region,,272.4,,,3,Africa/Douala,TRUE,1120398475
"Jbba Goma","Jbba Goma",,10.3079,14.0235,Cameroon,CM,CMR,Extrême-Nord,Extreme-Nord,CM-EN,region,,212.6,,,3,Africa/Douala,FALSE,1120829388
"Mama II","Mama II",,4.6500,14.5667,Cameroon,CM,CMR,Est,Est,CM-ES,region,,15.1,,,4,Africa/Douala,FALSE,1120200422
Gagi,Gagi,,8.4256,13.3052,Cameroon,CM,CMR,Nord,Nord,CM-NO,region,,6.8,,,5,Africa/Douala,FALSE,1120201442
Ganboukou,Ganboukou,Gamboukou,7.5667,13.6833,Cameroon,CM,CMR,Adamaoua,Adamaoua,CM-AD,region,,30.7,,,4,Africa/Douala,FALSE,1120508299
Soukoula,Soukoula,,11.0833,14.0667,Cameroon,CM,CMR,Extrême-Nord,Extreme-Nord,CM-EN,region,,179.2,,,4,Africa/Douala,FALSE,1120610814
"El Birké","El Birke",,12.0065,14.9874,Cameroon,CM,CMR,Extrême-Nord,Extreme-Nord,CM-EN,region,,63.7,,,4,Africa/Douala,FALSE,1120790880
Bigdi,Bigdi,Bïkdi,10.0300,15.1844,Cameroon,CM,CMR,Extrême-Nord,Extreme-Nord,CM-EN,region,,132.2,,,4,Africa/Douala,FALSE,1120374246
Banga,Banga,,10.4434,14.8763,Cameroon,CM,CMR,Extrême-Nord,Extreme-Nord,CM-EN,region,,138.1,,,4,Africa/Douala,FALSE,1120583699
Butu,Butu,,4.7812,9.3254,Cameroon,CM,CMR,South-West,South-West,CM-SW,region,,178.5,,,4,Africa/Douala,FALSE,1120151248
Benahundu,Benahundu,,6.4258,9.8867,Cameroon,CM,CMR,North-West,North-West,CM-NW,region,,48.2,,,4,Africa/Douala,FALSE,1120937042
Ngarindembo,Ngarindembo,,4.4000,14.6333,Cameroon,CM,CMR,Est,Est,CM-ES,region,,15.1,,,4,Africa/Douala,FALSE,1120382354
Banga,Banga,Mbanga,4.1167,14.8667,Cameroon,CM,CMR,Est,Est,CM-ES,region,,15.1,,,4,Africa/Douala,FALSE,1120005856
Éko,Eko,Ekoh,3.6667,13.1000,Cameroon,CM,CMR,Est,Est,CM-ES,region,,6.8,,,5,Africa/Douala,FALSE,1120484541
Koulomaré,Koulomare,,10.4403,14.2280,Cameroon,CM,CMR,Extrême-Nord,Extreme-Nord,CM-EN,region,,212.6,,,3,Africa/Douala,FALSE,1120297957
Grélié,Grelie,Gréllé,12.3858,14.4984,Cameroon,CM,CMR,Extrême-Nord,Extreme-Nord,CM-EN,region,,63.7,,,4,Africa/Douala,FALSE,1120622302
Grelié,Grelie,,12.5154,14.6529,Cameroon,CM,CMR,Extrême-Nord,Extreme-Nord,CM-EN,region,,63.7,,,4,Africa/Douala,TRUE,1120998495
Bebein,Bebein,Bibeñ,2.1833,11.1833,Cameroon,CM,CMR,Sud,Sud,CM-SU,region,,52.2,,,4,Africa/Malabo,FALSE,1120983990
Méré,Mere,,6.8167,12.6833,Cameroon,CM,CMR,Adamaoua,Adamaoua,CM-AD,region,,17.6,,,4,Africa/Douala,FALSE,1120307196
Méré,Mere,,7.6500,12.9500,Cameroon,CM,CMR,Adamaoua,Adamaoua,CM-AD,region,,9.0,,,5,Africa/Douala,TRUE,1120282745
Tokonbéré,Tokonbere,Tokombéré,10.8635,14.1496,Cameroon,CM,CMR,Extrême-Nord,Extreme-Nord,CM-EN,region,,179.2,,,4,Africa/Douala,FALSE,1120539885
Ndoktima,Ndoktima,,3.3808,9.9931,Cameroon,CM,CMR,Littoral,Littoral,CM-LT,region,,21.2,,,4,Africa/Douala,FALSE,1120037814
La’tchié,La'tchie,,5.4856,10.3225,Cameroon,CM,CMR,Ouest,Ouest,CM-OU,region,,240.1,,,3,Africa/Douala,FALSE,1120643405
Kout,Kout,,3.0333,12.2833,Cameroon,CM,CMR,Sud,Sud,CM-SU,region,,14.7,,,4,Africa/Douala,FALSE,1120066406
Tilbit,Tilbit,Tilbi,10.1853,13.9224,Cameroon,CM,CMR,Nord,Nord,CM-NO,region,,158.9,,,4,Africa/Douala,FALSE,1120034924
Ourogarga,Ourogarga,,9.3721,12.8860,Cameroon,CM,CMR,Nord,Nord,CM-NO,region,,123.4,,,4,Africa/Douala,FALSE,1120908895
Mbinda,Mbinda,,5.4683,8.8745,Cameroon,CM,CMR,South-West,South-West,CM-SW,region,,27.9,,,4,Africa/Douala,FALSE,1120683858
Mbinda,Mbinda,,5.4620,9.2918,Cameroon,CM,CMR,South-West,South-West,CM-SW,region,,27.9,,,4,Africa/Douala,TRUE,1120053462
Nkoltombo,Nkoltombo,,3.3833,11.8167,Cameroon,CM,CMR,Centre,Centre,CM-CE,region,,39.3,,,4,Africa/Douala,FALSE,1120858652
Sepsabané,Sepsabane,,12.4999,14.3477,Cameroon,CM,CMR,Extrême-Nord,Extreme-Nord,CM-EN,region,,63.7,,,4,Africa/Douala,FALSE,1120548207
Fotang,Fotang,,5.6750,10.0412,Cameroon,CM,CMR,South-West,South-West,CM-SW,region,,203.4,,,3,Africa/Douala,FALSE,1120402821
Femloum,Femloum,,5.7353,10.8786,Cameroon,CM,CMR,Ouest,Ouest,CM-OU,region,,85.3,,,4,Africa/Douala,FALSE,1120006962
Fouli,Fouli,,10.0038,14.3150,Cameroon,CM,CMR,Extrême-Nord,Extreme-Nord,CM-EN,region,,117.0,,,4,Africa/Douala,FALSE,1120432297
"Epéda I","Epeda I",,5.9333,12.8000,Cameroon,CM,CMR,Centre,Centre,CM-CE,region,,6.8,,,5,Africa/Douala,FALSE,1120887568
Nkolnget,Nkolnget,,3.8333,11.2000,Cameroon,CM,CMR,Centre,Centre,CM-CE,region,,98.0,,,4,Africa/Douala,FALSE,1120105110
Nkolnget,Nkolnget,,3.8833,11.9167,Cameroon,CM,CMR,Centre,Centre,CM-CE,region,,53.4,,,4,Africa/Douala,TRUE,1120574114
Nkolnget,Nkolnget,,3.7500,11.6333,Cameroon,CM,CMR,Centre,Centre,CM-CE,region,,53.4,,,4,Africa/Douala,TRUE,1120508822
Nkolnget,Nkolnget,,3.4833,11.5167,Cameroon,CM,CMR,Centre,Centre,CM-CE,region,,39.5,,,4,Africa/Douala,TRUE,1120052412
Nkolnget,Nkolnget,,3.6500,11.9167,Cameroon,CM,CMR,Centre,Centre,CM-CE,region,,39.5,,,4,Africa/Douala,TRUE,1120915109
Djongi,Djongi,,8.2572,13.0329,Cameroon,CM,CMR,Nord,Nord,CM-NO,region,,6.8,,,5,Africa/Douala,FALSE,1120436748
Menye,Menye,,5.5275,10.1482,Cameroon,CM,CMR,Ouest,Ouest,CM-OU,region,,305.1,,,3,Africa/Douala,FALSE,1120993564
Nkolmékouma,Nkolmekouma,,4.0000,11.4000,Cameroon,CM,CMR,Centre,Centre,CM-CE,region,,98.0,,,4,Africa/Douala,FALSE,1120501866
Madakar,Madakar,,10.9894,13.8673,Cameroon,CM,CMR,Extrême-Nord,Extreme-Nord,CM-EN,region,,266.8,,,3,Africa/Douala,FALSE,1120639546
Madakar,Madakar,,10.8491,13.8782,Cameroon,CM,CMR,Extrême-Nord,Extreme-Nord,CM-EN,region,,266.8,,,3,Africa/Douala,TRUE,1120790539
Mbalam,Mbalam,Balam,7.3167,13.7333,Cameroon,CM,CMR,Adamaoua,Adamaoua,CM-AD,region,,30.7,,,4,Africa/Douala,FALSE,1120976010
Mbazoa,Mbazoa,,4.3333,11.4500,Cameroon,CM,CMR,Centre,Centre,CM-CE,region,,98.0,,,4,Africa/Douala,FALSE,1120744139
Bayenti,Bayenti,,5.3517,9.4101,Cameroon,CM,CMR,South-West,South-West,CM-SW,region,,32.6,,,4,Africa/Douala,FALSE,1120940740
"Batéka Malembé","Bateka Malembe",,2.1500,15.3500,Cameroon,CM,CMR,Est,Est,CM-ES,region,,5.1,,,5,Africa/Douala,FALSE,1120468267
Mbangou,Mbangou,,4.4500,14.1500,Cameroon,CM,CMR,Est,Est,CM-ES,region,,15.1,,,4,Africa/Douala,FALSE,1120697535
Congo,Congo,"Beka Congo",6.7500,14.5667,Cameroon,CM,CMR,Adamaoua,Adamaoua,CM-AD,region,,16.1,,,4,Africa/Douala,FALSE,1120374604
Bondong,Bondong,,6.3784,9.9691,Cameroon,CM,CMR,North-West,North-West,CM-NW,region,,48.2,,,4,Africa/Douala,FALSE,1120827661
Bametou,Bametou,,5.5348,10.3718,Cameroon,CM,CMR,Ouest,Ouest,CM-OU,region,,1248.2,,,3,Africa/Douala,FALSE,1120491629
Ivie,Ivie,,11.4172,15.0581,Cameroon,CM,CMR,Extrême-Nord,Extreme-Nord,CM-EN,region,,63.7,,,4,Africa/Douala,FALSE,1120028717
Yapéré,Yapere,,10.0053,13.8392,Cameroon,CM,CMR,Nord,Nord,CM-NO,region,,158.9,,,4,Africa/Douala,FALSE,1120846899
Kaya,Kaya,Keïa,10.4388,14.7522,Cameroon,CM,CMR,Extrême-Nord,Extreme-Nord,CM-EN,region,,138.5,,,4,Africa/Douala,FALSE,1120208720
"Ekout Mintoum","Ekout Mintoum",,2.4000,10.0500,Cameroon,CM,CMR,Sud,Sud,CM-SU,region,,26.9,,,4,Africa/Douala,FALSE,1120584048
Marka,Marka,,8.4577,13.2762,Cameroon,CM,CMR,Nord,Nord,CM-NO,region,,6.8,,,5,Africa/Douala,FALSE,1120653993
Badongo,Badongo,,8.5207,13.2515,Cameroon,CM,CMR,Nord,Nord,CM-NO,region,,6.8,,,5,Africa/Douala,FALSE,1120430051
Koba,Koba,,5.0423,10.1650,Cameroon,CM,CMR,Ouest,Ouest,CM-OU,region,,135.3,,,4,Africa/Douala,FALSE,1120616551
Bidjombo,Bidjombo,,3.7333,12.6500,Cameroon,CM,CMR,Est,Est,CM-ES,region,,6.8,,,5,Africa/Douala,FALSE,1120503695
"Etam Koma","Etam Koma",,4.3500,11.3167,Cameroon,CM,CMR,Centre,Centre,CM-CE,region,,98.0,,,4,Africa/Douala,FALSE,1120567186
Ndoudja,Ndoudja,,9.4703,13.4767,Cameroon,CM,CMR,Nord,Nord,CM-NO,region,,123.4,,,4,Africa/Douala,FALSE,1120085192
"Bad es Sèm","Bad es Sem",,9.2810,14.3518,Cameroon,CM,CMR,Nord,Nord,CM-NO,region,,20.2,,,4,Africa/Douala,FALSE,1120507776
So,So,,3.6000,12.0833,Cameroon,CM,CMR,Centre,Centre,CM-CE,region,,19.8,,,4,Africa/Douala,FALSE,1120835217
Kouang,Kouang,,5.0667,10.5000,Cameroon,CM,CMR,Ouest,Ouest,CM-OU,region,,74.2,,,4,Africa/Douala,FALSE,1120066860
Géri,Geri,,8.1516,13.3049,Cameroon,CM,CMR,Nord,Nord,CM-NO,region,,6.8,,,5,Africa/Douala,FALSE,1120512170
Géri,Geri,,8.5441,13.3553,Cameroon,CM,CMR,Nord,Nord,CM-NO,region,,6.8,,,5,Africa/Douala,TRUE,1120822701
Géri,Geri,,8.1580,13.3510,Cameroon,CM,CMR,Nord,Nord,CM-NO,region,,6.8,,,5,Africa/Douala,TRUE,1120795197
Nlono,Nlono,,2.3333,11.4000,Cameroon,CM,CMR,Sud,Sud,CM-SU,region,,16.0,,,4,Africa/Douala,FALSE,1120960672
Togheu,Togheu,,5.3662,10.3488,Cameroon,CM,CMR,Ouest,Ouest,CM-OU,region,,237.3,,,3,Africa/Douala,FALSE,1120837755
Batalao,Batalao,,10.8941,13.7546,Cameroon,CM,CMR,Extrême-Nord,Extreme-Nord,CM-EN,region,,266.8,,,3,Africa/Douala,FALSE,1120060340
Mango,Mango,,4.1500,11.0833,Cameroon,CM,CMR,Centre,Centre,CM-CE,region,,26.1,,,4,Africa/Douala,FALSE,1120036582
Memvin,Memvin,,2.3333,11.0833,Cameroon,CM,CMR,Sud,Sud,CM-SU,region,,16.0,,,4,Africa/Douala,FALSE,1120096227
Gousda,Gousda,,10.8446,13.8329,Cameroon,CM,CMR,Extrême-Nord,Extreme-Nord,CM-EN,region,,266.8,,,3,Africa/Douala,FALSE,1120661890
Moulongo,Moulongo,"Village Molongo|Mulongo|Molongo",3.5989,9.7253,Cameroon,CM,CMR,Littoral,Littoral,CM-LT,region,,21.2,,,4,Africa/Douala,FALSE,1120106137
Béla,Bela,,12.1667,14.7333,Cameroon,CM,CMR,Extrême-Nord,Extreme-Nord,CM-EN,region,,63.7,,,4,Africa/Douala,FALSE,1120721728
"Bongolo II","Bongolo II",,3.0833,10.8833,Cameroon,CM,CMR,Sud,Sud,CM-SU,region,,32.8,,,4,Africa/Douala,FALSE,1120217743
"Ouro Babaya","Ouro Babaya",,10.9646,14.5117,Cameroon,CM,CMR,Extrême-Nord,Extreme-Nord,CM-EN,region,,212.6,,,3,Africa/Douala,FALSE,1120158585
Toulepé,Toulepe,,5.4734,10.0728,Cameroon,CM,CMR,Ouest,Ouest,CM-OU,region,,240.1,,,3,Africa/Douala,FALSE,1120935468
Nansap,Nansap,,5.6125,10.3985,Cameroon,CM,CMR,Ouest,Ouest,CM-OU,region,,464.2,,,3,Africa/Douala,FALSE,1120126927
Munji,Munji,,6.4833,10.3167,Cameroon,CM,CMR,North-West,North-West,CM-NW,region,,48.2,,,4,Africa/Douala,FALSE,1120964163
Molombor,Molombor,,10.1991,14.0814,Cameroon,CM,CMR,Extrême-Nord,Extreme-Nord,CM-EN,region,,138.5,,,4,Africa/Douala,FALSE,1120658012
Biwolé,Biwole,,4.3500,12.1500,Cameroon,CM,CMR,Centre,Centre,CM-CE,region,,10.6,,,4,Africa/Douala,FALSE,1120191460
Mefou,Mefou,,5.5526,10.1933,Cameroon,CM,CMR,Ouest,Ouest,CM-OU,region,,339.3,,,3,Africa/Douala,FALSE,1120116241
Kilda,Kilda,,10.8323,13.8991,Cameroon,CM,CMR,Extrême-Nord,Extreme-Nord,CM-EN,region,,266.8,,,3,Africa/Douala,FALSE,1120749632
Egnioumélé,Egnioumele,,2.7667,11.3333,Cameroon,CM,CMR,Sud,Sud,CM-SU,region,,32.8,,,4,Africa/Douala,FALSE,1120680585
Karagari,Karagari,,10.7475,14.4842,Cameroon,CM,CMR,Extrême-Nord,Extreme-Nord,CM-EN,region,,212.6,,,3,Africa/Douala,FALSE,1120047630
Boukouroy,Boukouroy,,10.6643,14.8043,Cameroon,CM,CMR,Extrême-Nord,Extreme-Nord,CM-EN,region,,132.2,,,4,Africa/Douala,FALSE,1120703665
"Ndokminokon I","Ndokminokon I",,4.3667,10.4500,Cameroon,CM,CMR,Littoral,Littoral,CM-LT,region,,5.5,,,5,Africa/Douala,FALSE,1120209079
Mengong,Mengong,,3.7000,11.4500,Cameroon,CM,CMR,Centre,Centre,CM-CE,region,,51.4,,,4,Africa/Douala,FALSE,1120278941
Lomié,Lomie,,3.1667,13.6167,Cameroon,CM,CMR,Est,Est,CM-ES,region,,6.8,,,3,Africa/Douala,FALSE,1120698683
Atong,Atong,,2.4000,11.7500,Cameroon,CM,CMR,Sud,Sud,CM-SU,region,,32.8,,,4,Africa/Douala,FALSE,1120167155
Atong,Atong,,2.9667,12.1000,Cameroon,CM,CMR,Sud,Sud,CM-SU,region,,14.7,,,4,Africa/Douala,TRUE,1120458894
"Gali Abassi","Gali Abassi","Ouro Malmadou|Malamedou",8.7611,13.8178,Cameroon,CM,CMR,Nord,Nord,CM-NO,region,,20.2,,,4,Africa/Douala,FALSE,1120628621
Laodjogué,Laodjogue,Laodjogé,7.7951,15.4207,Cameroon,CM,CMR,Nord,Nord,CM-NO,region,,20.2,,,4,Africa/Douala,FALSE,1120258934
"Bamoun I","Bamoun I",,4.8833,10.8000,Cameroon,CM,CMR,Centre,Centre,CM-CE,region,,33.0,,,4,Africa/Douala,FALSE,1120665268
Messambé,Messambe,,2.8000,11.6333,Cameroon,CM,CMR,Sud,Sud,CM-SU,region,,32.8,,,4,Africa/Douala,FALSE,1120369467
Messambé,Messambe,,2.9667,10.6833,Cameroon,CM,CMR,Sud,Sud,CM-SU,region,,26.9,,,4,Africa/Douala,TRUE,1120034952
"Abassouni I","Abassouni I",Abasouni,12.6728,14.2785,Cameroon,CM,CMR,Extrême-Nord,Extreme-Nord,CM-EN,region,,63.7,,,4,Africa/Douala,FALSE,1120092229
Gosé,Gose,,8.5893,13.2111,Cameroon,CM,CMR,Nord,Nord,CM-NO,region,,6.8,,,5,Africa/Douala,FALSE,1120620706
Toumegou,Toumegou,,5.5651,10.2310,Cameroon,CM,CMR,Ouest,Ouest,CM-OU,region,,339.3,,,3,Africa/Douala,FALSE,1120633286
Mofolé,Mofole,,10.7340,13.8005,Cameroon,CM,CMR,Extrême-Nord,Extreme-Nord,CM-EN,region,,266.8,,,3,Africa/Douala,FALSE,1120476856
Man,Man,Maan,3.3833,10.7667,Cameroon,CM,CMR,Sud,Sud,CM-SU,region,,26.9,,,4,Africa/Douala,FALSE,1120015872
Mân,Man,,2.4667,11.4000,Cameroon,CM,CMR,Sud,Sud,CM-SU,region,,16.0,,,4,Africa/Douala,TRUE,1120760672
Ndigou,Ndigou,,6.8500,14.2667,Cameroon,CM,CMR,Adamaoua,Adamaoua,CM-AD,region,,30.7,,,4,Africa/Douala,FALSE,1120572877
Séaoua,Seaoua,,7.3333,14.2000,Cameroon,CM,CMR,Adamaoua,Adamaoua,CM-AD,region,,30.7,,,4,Africa/Douala,FALSE,1120987260
Nkouncha’,Nkouncha',,5.6962,10.6260,Cameroon,CM,CMR,Ouest,Ouest,CM-OU,region,,85.3,,,4,Africa/Douala,FALSE,1120534848
Niala,Niala,,4.0378,9.7646,Cameroon,CM,CMR,Littoral,Littoral,CM-LT,region,,3202.3,,,2,Africa/Douala,FALSE,1120114054
Balda,Balda,,10.8462,14.6578,Cameroon,CM,CMR,Extrême-Nord,Extreme-Nord,CM-EN,region,,212.6,,,3,Africa/Douala,FALSE,1120689319
Balda,Balda,,10.7095,14.0090,Cameroon,CM,CMR,Extrême-Nord,Extreme-Nord,CM-EN,region,,212.6,,,3,Africa/Douala,TRUE,1120765978
Bitang,Bitang,,4.6500,11.2000,Cameroon,CM,CMR,Centre,Centre,CM-CE,region,,33.0,,,4,Africa/Douala,FALSE,1120989491
"Ouro Bali","Ouro Bali",,9.0316,13.8693,Cameroon,CM,CMR,Nord,Nord,CM-NO,region,,20.2,,,4,Africa/Douala,FALSE,1120600613
Nkolondom,Nkolondom,,3.9500,11.5000,Cameroon,CM,CMR,Centre,Centre,CM-CE,region,,98.0,,,4,Africa/Douala,FALSE,1120828554
Baliama,Baliama,,4.6000,11.3167,Cameroon,CM,CMR,Centre,Centre,CM-CE,region,,33.0,,,4,Africa/Douala,FALSE,1120668458
Padé,Pade,,10.0300,14.8038,Cameroon,CM,CMR,Extrême-Nord,Extreme-Nord,CM-EN,region,,138.5,,,4,Africa/Douala,FALSE,1120189473
Ndjop,Ndjop,,5.1500,9.7833,Cameroon,CM,CMR,South-West,South-West,CM-SW,region,,38.7,,,4,Africa/Douala,FALSE,1120972958
Bakarissa,Bakarissa,,11.0684,13.9785,Cameroon,CM,CMR,Extrême-Nord,Extreme-Nord,CM-EN,region,,179.2,,,4,Africa/Douala,FALSE,1120367315
Minkan,Minkan,Minkané,3.0167,10.9167,Cameroon,CM,CMR,Sud,Sud,CM-SU,region,,32.8,,,4,Africa/Douala,FALSE,1120520624
Minkan,Minkan,,3.1500,11.1333,Cameroon,CM,CMR,Sud,Sud,CM-SU,region,,32.8,,,4,Africa/Douala,TRUE,1120042001
Minkan,Minkan,,2.3167,11.0000,Cameroon,CM,CMR,Sud,Sud,CM-SU,region,,16.0,,,4,Africa/Douala,TRUE,1120389584
Dakar,Dakar,,10.5773,14.2480,Cameroon,CM,CMR,Extrême-Nord,Extreme-Nord,CM-EN,region,,212.6,,,3,Africa/Douala,FALSE,1120417141
Victoria,Victoria,,4.0136,9.2145,Cameroon,CM,CMR,South-West,South-West,CM-SW,region,,384.1,,,3,Africa/Douala,FALSE,1120513788
Laa,Laa,,5.3189,10.0794,Cameroon,CM,CMR,Ouest,Ouest,CM-OU,region,,240.1,,,3,Africa/Douala,FALSE,1120341884
Akok,Akok,,3.9500,11.2500,Cameroon,CM,CMR,Centre,Centre,CM-CE,region,,98.0,,,4,Africa/Douala,FALSE,1120633926
Akok,Akok,,3.8667,11.6333,Cameroon,CM,CMR,Centre,Centre,CM-CE,region,,53.4,,,4,Africa/Douala,TRUE,1120297666
Akok,Akok,,3.2667,11.1667,Cameroon,CM,CMR,Centre,Centre,CM-CE,region,,39.5,,,4,Africa/Douala,TRUE,1120103542
"Leboudi I","Leboudi I",,3.9167,11.4500,Cameroon,CM,CMR,Centre,Centre,CM-CE,region,,98.0,,,4,Africa/Douala,FALSE,1120687912
Waïnerou,Wainerou,Ouainérou,8.8219,13.9871,Cameroon,CM,CMR,Nord,Nord,CM-NO,region,,20.2,,,4,Africa/Douala,FALSE,1120303176
Bilossi,Bilossi,,2.3333,11.4667,Cameroon,CM,CMR,Sud,Sud,CM-SU,region,,16.0,,,4,Africa/Douala,FALSE,1120487880
Njingouondam,Njingouondam,,5.5567,10.9876,Cameroon,CM,CMR,Ouest,Ouest,CM-OU,region,,85.3,,,4,Africa/Douala,FALSE,1120024125
Bidjong,Bidjong,Bidjang,3.1333,12.3000,Cameroon,CM,CMR,Sud,Sud,CM-SU,region,,14.7,,,4,Africa/Douala,FALSE,1120676936
Ntissa’,Ntissa',,5.3317,10.0132,Cameroon,CM,CMR,Ouest,Ouest,CM-OU,region,,240.1,,,3,Africa/Douala,FALSE,1120132073
Kokobuma,Kokobuma,,5.0773,9.4014,Cameroon,CM,CMR,South-West,South-West,CM-SW,region,,178.5,,,4,Africa/Douala,FALSE,1120641224
Fontain,Fontain,,5.7333,10.9167,Cameroon,CM,CMR,Ouest,Ouest,CM-OU,region,,85.3,,,4,Africa/Douala,FALSE,1120630172
Kongwe,Kongwe,,4.1185,9.5258,Cameroon,CM,CMR,South-West,South-West,CM-SW,region,,216.3,,,3,Africa/Douala,FALSE,1120391634
Badi,Badi,,9.5333,13.5667,Cameroon,CM,CMR,Nord,Nord,CM-NO,region,,123.4,,,4,Africa/Douala,FALSE,1120038945
Longo,Longo,,4.1667,11.8500,Cameroon,CM,CMR,Centre,Centre,CM-CE,region,,53.4,,,4,Africa/Douala,FALSE,1120959658
"Yenga Port Gentil","Yenga Port Gentil",,2.3500,15.3500,Cameroon,CM,CMR,Est,Est,CM-ES,region,,5.1,,,5,Africa/Douala,FALSE,1120319311
"Hina Marbak","Hina Marbak",Marbak|Hina,10.3659,13.8484,Cameroon,CM,CMR,Extrême-Nord,Extreme-Nord,CM-EN,region,,266.8,,,3,Africa/Douala,FALSE,1120220831
Fossong-Tsintchuèt,Fossong-Tsintchuet,Fossong-Tohuentcheu,5.5097,10.0091,Cameroon,CM,CMR,Ouest,Ouest,CM-OU,region,,240.1,,,3,Africa/Douala,FALSE,1120039257
"Ekona Yard","Ekona Yard",,4.2147,9.3392,Cameroon,CM,CMR,South-West,South-West,CM-SW,region,,384.1,,,3,Africa/Douala,FALSE,1120966093
Houli,Houli,,10.4500,13.6833,Cameroon,CM,CMR,Extrême-Nord,Extreme-Nord,CM-EN,region,,266.8,,,3,Africa/Douala,FALSE,1120852845
Aoudi,Aoudi,,8.3500,12.3167,Cameroon,CM,CMR,Nord,Nord,CM-NO,region,,6.8,,,5,Africa/Douala,FALSE,1120803131
Lougoye,Lougoye,,10.6706,14.9801,Cameroon,CM,CMR,Extrême-Nord,Extreme-Nord,CM-EN,region,,132.2,,,4,Africa/Douala,FALSE,1120109700
Diboué,Diboue,,10.2333,13.7000,Cameroon,CM,CMR,Extrême-Nord,Extreme-Nord,CM-EN,region,,260.6,,,3,Africa/Douala,FALSE,1120708577
"Arnado Niakoum","Arnado Niakoum",,6.5167,11.9167,Cameroon,CM,CMR,Adamaoua,Adamaoua,CM-AD,region,,40.3,,,4,Africa/Douala,FALSE,1120136522
Gagawa,Gagawa,Gakawa,9.2119,13.8510,Cameroon,CM,CMR,Nord,Nord,CM-NO,region,,123.4,,,4,Africa/Douala,FALSE,1120692554
Bessir,Bessir,,6.0006,12.2471,Cameroon,CM,CMR,Centre,Centre,CM-CE,region,,6.8,,,5,Africa/Douala,FALSE,1120332186
Nitcheu,Nitcheu,,5.1647,10.1456,Cameroon,CM,CMR,Ouest,Ouest,CM-OU,region,,135.3,,,4,Africa/Douala,FALSE,1120735501
Palabongo,Palabongo,,4.5921,9.5156,Cameroon,CM,CMR,South-West,South-West,CM-SW,region,,178.5,,,4,Africa/Douala,FALSE,1120393427
Hedjer,Hedjer,,10.5442,14.2540,Cameroon,CM,CMR,Extrême-Nord,Extreme-Nord,CM-EN,region,,212.6,,,3,Africa/Douala,FALSE,1120213164
Munugéba,Munugeba,,5.7533,10.2560,Cameroon,CM,CMR,North-West,North-West,CM-NW,region,,375.2,,,3,Africa/Douala,FALSE,1120838898
Toukwop,Toukwop,,5.4888,10.6799,Cameroon,CM,CMR,Ouest,Ouest,CM-OU,region,,85.3,,,4,Africa/Douala,FALSE,1120646715
Monkunlô,Monkunlo,,5.9403,10.4389,Cameroon,CM,CMR,North-West,North-West,CM-NW,region,,272.4,,,3,Africa/Douala,FALSE,1120221846
Gété,Gete,Nguété,4.2833,14.6000,Cameroon,CM,CMR,Est,Est,CM-ES,region,,15.1,,,4,Africa/Douala,FALSE,1120034147
Maléké,Maleke,,4.3112,9.5978,Cameroon,CM,CMR,Littoral,Littoral,CM-LT,region,,103.6,,,4,Africa/Douala,FALSE,1120101240
Lendé,Lende,,10.1766,13.5997,Cameroon,CM,CMR,Extrême-Nord,Extreme-Nord,CM-EN,region,,266.8,,,3,Africa/Douala,FALSE,1120233878
Nakéré,Nakere,"Mayo Nakéré",9.0603,14.0194,Cameroon,CM,CMR,Nord,Nord,CM-NO,region,,20.2,,,4,Africa/Douala,FALSE,1120471042
Boudang-Omobirisi,Boudang-Omobirisi,,9.1362,12.9655,Cameroon,CM,CMR,Nord,Nord,CM-NO,region,,123.4,,,4,Africa/Douala,FALSE,1120000113
Ouvrad,Ouvrad,,10.8113,13.8877,Cameroon,CM,CMR,Extrême-Nord,Extreme-Nord,CM-EN,region,,266.8,,,3,Africa/Douala,FALSE,1120015313
Kunjang,Kunjang,,6.6667,10.1000,Cameroon,CM,CMR,North-West,North-West,CM-NW,region,,48.2,,,4,Africa/Douala,FALSE,1120348919
Sambolabbo,Sambolabbo,Sambolabo|Sambolab,7.0833,11.9833,Cameroon,CM,CMR,Adamaoua,Adamaoua,CM-AD,region,,40.3,,,4,Africa/Douala,FALSE,1120256032
Sambolabbo,Sambolabbo,Sambolabo,7.5833,12.6167,Cameroon,CM,CMR,Adamaoua,Adamaoua,CM-AD,region,,12.4,,,4,Africa/Douala,TRUE,1120717549
"Lap Zekeng","Lap Zekeng",,5.4737,10.0189,Cameroon,CM,CMR,Ouest,Ouest,CM-OU,region,,240.1,,,3,Africa/Douala,FALSE,1120041605
Bipwai,Bipwai,,2.8167,11.2000,Cameroon,CM,CMR,Sud,Sud,CM-SU,region,,32.8,,,4,Africa/Douala,FALSE,1120446412
Atoui,Atoui,,2.9667,11.5333,Cameroon,CM,CMR,Sud,Sud,CM-SU,region,,32.8,,,4,Africa/Douala,FALSE,1120605613
Nangé,Nange,,7.0000,14.0167,Cameroon,CM,CMR,Adamaoua,Adamaoua,CM-AD,region,,30.7,,,4,Africa/Douala,FALSE,1120098005
