city,city_ascii,city_alt,lat,lng,country,iso2,iso3,admin_name,admin_name_ascii,admin_code,admin_type,capital,density,population,population_proper,ranking,timezone,same_name,id
"La Doré","La Dore",Rivière-au-Doré,48.7200,-72.6500,Canada,CA,CAN,Quebec,Quebec,CA-QC,province,,5.0,1453,1453,3,America/Toronto,FALSE,1124387334
"Bonnyville Beach","Bonnyville Beach",,54.2333,-110.8666,Canada,CA,CAN,Alberta,Alberta,CA-AB,province,,497.3,84,84,3,America/Edmonton,FALSE,1124849570
Alcona,Alcona,,50.0667,-91.7500,Canada,CA,CAN,Ontario,Ontario,CA-ON,province,,6.0,,,5,America/Winnipeg,FALSE,1124166178
Paterson,Paterson,,49.0240,-117.8414,Canada,CA,CAN,"British Columbia","British Columbia",CA-BC,province,,6.8,75,75,4,America/Vancouver,FALSE,1124000000
Highgate,Highgate,,52.8667,-108.4500,Canada,CA,CAN,Saskatchewan,Saskatchewan,CA-SK,province,,1.2,,,5,America/Swift_Current,FALSE,1124806601
Minudie,Minudie,,45.7746,-64.3508,Canada,CA,CAN,"Nova Scotia","Nova Scotia",CA-NS,province,,5.8,,,5,America/Halifax,FALSE,1124011526
Sellwood,Sellwood,,46.8500,-81.0167,Canada,CA,CAN,Ontario,Ontario,CA-ON,province,,0.2,,,5,America/Toronto,FALSE,1124000019
Hart,Hart,,49.1833,-105.6000,Canada,CA,CAN,Saskatchewan,Saskatchewan,CA-SK,province,,0.5,,,5,America/Regina,FALSE,1124462737
Odell,Odell,,46.7762,-67.4037,Canada,CA,CAN,"New Brunswick","New Brunswick",CA-NB,province,,1.0,,,5,America/Moncton,FALSE,1124372329
"Pilot Butte","Pilot Butte",,50.4667,-104.4167,Canada,CA,CAN,Saskatchewan,Saskatchewan,CA-SK,province,,462.3,2638,2638,3,America/Regina,FALSE,1124343267
Plainfield,Plainfield,,45.6593,-62.9257,Canada,CA,CAN,"Nova Scotia","Nova Scotia",CA-NS,province,,4.2,,,5,America/Halifax,FALSE,1124712797
"Davis Inlet","Davis Inlet",,55.8500,-60.8667,Canada,CA,CAN,"Newfoundland and Labrador","Newfoundland and Labrador",CA-NL,province,,0.0,,,5,America/Goose_Bay,FALSE,1124526248
Ouimet,Ouimet,,48.7500,-88.5833,Canada,CA,CAN,Ontario,Ontario,CA-ON,province,,3.6,,,5,America/Toronto,FALSE,1124030355
Ormiston,Ormiston,,49.7380,-105.3910,Canada,CA,CAN,Saskatchewan,Saskatchewan,CA-SK,province,,28.5,10,10,4,America/Regina,FALSE,1124000020
Admiral,Admiral,,49.7140,-108.0031,Canada,CA,CAN,Saskatchewan,Saskatchewan,CA-SK,province,,8.0,15,15,4,America/Swift_Current,FALSE,1124185657
Pinware,Pinware,,51.6219,-56.7139,Canada,CA,CAN,"Newfoundland and Labrador","Newfoundland and Labrador",CA-NL,province,,20.10,88,88,3,America/St_Johns,FALSE,1124000021
Sainte-Lucie-de-Beauregard,Sainte-Lucie-de-Beauregard,,46.7333,-70.0167,Canada,CA,CAN,Quebec,Quebec,CA-QC,province,,3.7,304,304,4,America/Toronto,FALSE,1124000022
"Hay Lakes","Hay Lakes",,53.1925,-113.0553,Canada,CA,CAN,Alberta,Alberta,CA-AB,province,,835.7,495,495,3,America/Edmonton,FALSE,1124891440
"McKillop No. 220","McKillop No. 220",,50.9804,-105.0059,Canada,CA,CAN,Saskatchewan,Saskatchewan,CA-SK,province,,1.10,732.00,732.00,4,America/Regina,FALSE,1124000023
"Sliding Hills No. 273","Sliding Hills No. 273",,51.5192,-102.2179,Canada,CA,CAN,Saskatchewan,Saskatchewan,CA-SK,province,,0.50,421.00,421.00,4,America/Regina,FALSE,1124000024
Ashfield-Colborne-Wawanosh,Ashfield-Colborne-Wawanosh,,43.8667,-81.6000,Canada,CA,CAN,Ontario,Ontario,CA-ON,province,,9.2,5422,5422,3,America/Toronto,FALSE,1124000025
Parkbeg,Parkbeg,,50.4500,-106.2667,Canada,CA,CAN,Saskatchewan,Saskatchewan,CA-SK,province,,0.5,,,5,America/Regina,FALSE,1124896448
"Ailsa Craig","Ailsa Craig",,43.1489,-81.5328,Canada,CA,CAN,Ontario,Ontario,CA-ON,province,,322.6,,,3,America/Toronto,FALSE,1124120644
"West Nipissing / Nipissing Ouest","West Nipissing / Nipissing Ouest",,46.3667,-79.9167,Canada,CA,CAN,Ontario,Ontario,CA-ON,province,,7.2,14364,14364,3,America/Toronto,FALSE,1124000026
"Yellow Grass","Yellow Grass",,49.8063,-104.1630,Canada,CA,CAN,Saskatchewan,Saskatchewan,CA-SK,province,,178.20,478.00,478.00,4,America/Regina,FALSE,1124422455
"Saint Peters","Saint Peters",,45.6913,-60.8386,Canada,CA,CAN,"Nova Scotia","Nova Scotia",CA-NS,province,,68.3,,,4,America/Glace_Bay,FALSE,1124131707
"Flat Island","Flat Island",,47.2667,-54.9167,Canada,CA,CAN,"Newfoundland and Labrador","Newfoundland and Labrador",CA-NL,province,,0.1,,,5,America/St_Johns,FALSE,1124730871
Clerval,Clerval,,48.7500,-79.4333,Canada,CA,CAN,Quebec,Quebec,CA-QC,province,,3.7,364,364,3,America/Toronto,FALSE,1124000027
Massueville,Massueville,"Saint Aimé",45.9167,-72.9333,Canada,CA,CAN,Quebec,Quebec,CA-QC,province,,312.5,516,516,3,America/Toronto,FALSE,1124185738
Tsawwassen,Tsawwassen,,49.0436,-123.0985,Canada,CA,CAN,"British Columbia","British Columbia",CA-BC,province,,343.3,23940,2256,3,America/Vancouver,FALSE,1124987555
"White Hill","White Hill",,45.4883,-62.7567,Canada,CA,CAN,"Nova Scotia","Nova Scotia",CA-NS,province,,9.0,,,5,America/Halifax,FALSE,1124155849
"East Mines","East Mines",,45.4333,-63.5167,Canada,CA,CAN,"Nova Scotia","Nova Scotia",CA-NS,province,,10.6,,,4,America/Halifax,FALSE,1124867895
"Port Elgin","Port Elgin",,46.0831,-64.1581,Canada,CA,CAN,"New Brunswick","New Brunswick",CA-NB,province,,153.5,408,408,3,America/Moncton,FALSE,1124973603
Waubaushene,Waubaushene,,44.7500,-79.7000,Canada,CA,CAN,Ontario,Ontario,CA-ON,province,,15.5,,,4,America/Toronto,FALSE,1124138872
Brower,Brower,,49.0167,-80.8333,Canada,CA,CAN,Ontario,Ontario,CA-ON,province,,3.7,,,5,America/Toronto,FALSE,1124378828
Edenwold,Edenwold,,50.6330,-104.2520,Canada,CA,CAN,Saskatchewan,Saskatchewan,CA-SK,province,,350.6,243,243,3,America/Regina,FALSE,1124000028
Saint-Maxime-du-Mont-Louis,Saint-Maxime-du-Mont-Louis,,49.2333,-65.7333,Canada,CA,CAN,Quebec,Quebec,CA-QC,province,,4.8,1118,1118,3,America/Toronto,FALSE,1124000029
Saint-Siméon,Saint-Simeon,,48.0667,-65.5667,Canada,CA,CAN,Quebec,Quebec,CA-QC,province,,20.9,1179,1179,4,America/Toronto,FALSE,1124797465
Kimberley,Kimberley,Kimberly,49.6697,-115.9775,Canada,CA,CAN,"British Columbia","British Columbia",CA-BC,province,,122.5,7425,7425,3,America/Edmonton,FALSE,1124170837
Leamington,Leamington,,42.0667,-82.5833,Canada,CA,CAN,Ontario,Ontario,CA-ON,province,,113.6,35730,29680,3,America/Toronto,FALSE,1124258797
Kuldo,Kuldo,,55.9333,-127.8833,Canada,CA,CAN,"British Columbia","British Columbia",CA-BC,province,,0.0,,,5,America/Vancouver,FALSE,1124546654
Seafoam,Seafoam,,45.7866,-62.9956,Canada,CA,CAN,"Nova Scotia","Nova Scotia",CA-NS,province,,13.4,,,4,America/Halifax,FALSE,1124179906
"Pelican Narrows","Pelican Narrows",,54.2500,-110.8833,Canada,CA,CAN,Alberta,Alberta,CA-AB,province,,208.4,151,151,3,America/Edmonton,FALSE,1124000030
Thurlow,Thurlow,"Shoal Bay",50.4500,-125.3667,Canada,CA,CAN,"British Columbia","British Columbia",CA-BC,province,,0.2,,,5,America/Vancouver,FALSE,1124700674
Boileau,Boileau,,45.9167,-74.7667,Canada,CA,CAN,Quebec,Quebec,CA-QC,province,,2.5,335,335,3,America/Toronto,FALSE,1124000031
"Lower Neguac","Lower Neguac",,47.2690,-65.0624,Canada,CA,CAN,"New Brunswick","New Brunswick",CA-NB,province,,79.4,,,4,America/Moncton,FALSE,1124510328
"Horse Islands","Horse Islands","Saint Barbe Islands",50.2000,-55.7333,Canada,CA,CAN,"Newfoundland and Labrador","Newfoundland and Labrador",CA-NL,province,,0.0,,,5,America/St_Johns,FALSE,1124407856
Malachi,Malachi,,49.9333,-94.9833,Canada,CA,CAN,Ontario,Ontario,CA-ON,province,,0.4,,,5,America/Winnipeg,FALSE,1124625018
Evanturel,Evanturel,,47.7833,-79.8333,Canada,CA,CAN,Ontario,Ontario,CA-ON,province,,5.0,449,449,4,America/Toronto,FALSE,1124000032
"Forrest Station","Forrest Station",,49.9667,-99.9500,Canada,CA,CAN,Manitoba,Manitoba,CA-MB,province,,4.7,,,5,America/Winnipeg,FALSE,1124650954
Crilly,Crilly,,48.7500,-92.2833,Canada,CA,CAN,Ontario,Ontario,CA-ON,province,,0.0,,,5,America/Winnipeg,FALSE,1124162488
"Rock Creek","Rock Creek",,49.0667,-118.9833,Canada,CA,CAN,"British Columbia","British Columbia",CA-BC,province,,1.9,,,5,America/Vancouver,FALSE,1124677904
"Two Hills","Two Hills",,53.7150,-111.7461,Canada,CA,CAN,Alberta,Alberta,CA-AB,province,,400.0,1379,1352,3,America/Edmonton,FALSE,1124512958
"Pond Inlet","Pond Inlet",Ponds|Mitimatilik|Tununiq,72.6808,-77.7503,Canada,CA,CAN,Nunavut,Nunavut,CA-NU,province,,9.30,1617.00,1617.00,4,America/Iqaluit,FALSE,1124788973
Rivington,Rivington,,45.7926,-74.6829,Canada,CA,CAN,Quebec,Quebec,CA-QC,province,,1.4,,,5,America/Toronto,FALSE,1124935824
Beaconia,Beaconia,,50.4333,-96.5667,Canada,CA,CAN,Manitoba,Manitoba,CA-MB,province,,10.7,,,4,America/Winnipeg,FALSE,1124011565
"Black Creek","Black Creek",,52.3000,-121.1167,Canada,CA,CAN,"British Columbia","British Columbia",CA-BC,province,,0.2,,,5,America/Vancouver,FALSE,1124108057
Saint-Rémi,Saint-Remi,,45.2667,-73.6167,Canada,CA,CAN,Quebec,Quebec,CA-QC,province,,92.2,7265,7265,3,America/Toronto,FALSE,1124638080
Delta,Delta,,44.6087,-76.1193,Canada,CA,CAN,Ontario,Ontario,CA-ON,province,,85.9,,,4,America/Toronto,FALSE,1124602637
Saint-André,Saint-Andre,,47.6833,-69.7333,Canada,CA,CAN,Quebec,Quebec,CA-QC,province,,9.2,1466,651,3,America/Toronto,FALSE,1124164912
Kowkash,Kowkash,,50.2500,-87.2167,Canada,CA,CAN,Ontario,Ontario,CA-ON,province,,0.0,,,5,America/Toronto,FALSE,1124538268
Thibault,Thibault,,47.5980,-67.3363,Canada,CA,CAN,"New Brunswick","New Brunswick",CA-NB,province,,3.3,,,5,America/Moncton,FALSE,1124369632
"Francis Harbour","Francis Harbour",,52.5500,-55.7333,Canada,CA,CAN,"Newfoundland and Labrador","Newfoundland and Labrador",CA-NL,province,,0.0,,,5,America/St_Johns,FALSE,1124271564
Cadogan,Cadogan,,52.3188,-110.4490,Canada,CA,CAN,Alberta,Alberta,CA-AB,province,,168.1,108,108,4,America/Edmonton,FALSE,1124000033
Sainte-Luce,Sainte-Luce,,48.5500,-68.3800,Canada,CA,CAN,Quebec,Quebec,CA-QC,province,,39.0,2851,2851,3,America/Toronto,FALSE,1124000034
Coderre,Coderre,,50.1350,-106.3840,Canada,CA,CAN,Saskatchewan,Saskatchewan,CA-SK,province,,35.1,30,30,3,America/Regina,FALSE,1124954924
"Moresby Camp","Moresby Camp",,53.0507,-132.0323,Canada,CA,CAN,"British Columbia","British Columbia",CA-BC,province,,0.0,,,5,America/Vancouver,FALSE,1124259362
"Harbour Main-Chapel's Cove-Lakeview","Harbour Main-Chapel's Cove-Lakeview",,47.4337,-53.1458,Canada,CA,CAN,"Newfoundland and Labrador","Newfoundland and Labrador",CA-NL,province,,50.6,1067,1067,3,America/St_Johns,FALSE,1124000035
"Flower Station","Flower Station",,45.1593,-76.6868,Canada,CA,CAN,Ontario,Ontario,CA-ON,province,,3.0,,,5,America/Toronto,FALSE,1124308854
Whitehead,Whitehead,,45.2588,-61.1291,Canada,CA,CAN,"Nova Scotia","Nova Scotia",CA-NS,province,,0.0,,,5,America/Glace_Bay,FALSE,1124741900
Sainte-Sophie-de-Lévrard,Sainte-Sophie-de-Levrard,,46.4300,-72.1200,Canada,CA,CAN,Quebec,Quebec,CA-QC,province,,8.7,733,733,4,America/Toronto,FALSE,1124664824
"Rocky Harbour","Rocky Harbour",,49.5944,-57.9194,Canada,CA,CAN,"Newfoundland and Labrador","Newfoundland and Labrador",CA-NL,province,,78.40,947,947,3,America/St_Johns,FALSE,1124000036
Seaforth,Seaforth,,43.5541,-81.3957,Canada,CA,CAN,Ontario,Ontario,CA-ON,province,,1775.6,2673,2673,3,America/Toronto,FALSE,1124848471
Egremont,Egremont,,54.0374,-113.1258,Canada,CA,CAN,Alberta,Alberta,CA-AB,province,,238.3,46,46,3,America/Edmonton,FALSE,1124495956
Manor,Manor,,49.6027,-102.0852,Canada,CA,CAN,Saskatchewan,Saskatchewan,CA-SK,province,,105.70,295.00,295.00,4,America/Regina,FALSE,1124616542
Saint-Mathieu,Saint-Mathieu,,45.3167,-73.5164,Canada,CA,CAN,Quebec,Quebec,CA-QC,province,,74.5,2339,2339,3,America/Toronto,FALSE,1124978563
"Flat River","Flat River",,46.0167,-62.8833,Canada,CA,CAN,"Prince Edward Island","Prince Edward Island",CA-PE,province,,6.9,,,5,America/Halifax,FALSE,1124647879
Osler,Osler,,52.3700,-106.5400,Canada,CA,CAN,Saskatchewan,Saskatchewan,CA-SK,province,,771.7,1251,1251,3,America/Regina,FALSE,1124000037
"Upper Liard","Upper Liard",,60.0531,-128.9168,Canada,CA,CAN,Yukon,Yukon,CA-YT,province,,21.80,125.00,125.00,4,America/Whitehorse,FALSE,1124000038
Perryvale,Perryvale,,54.4685,-113.3882,Canada,CA,CAN,Alberta,Alberta,CA-AB,province,,25.6,10,10,4,America/Edmonton,FALSE,1124096687
"Campobello Island","Campobello Island",,44.8833,-66.9333,Canada,CA,CAN,"New Brunswick","New Brunswick",CA-NB,province,,22.0,872,872,3,America/Moncton,FALSE,1124000039
Burgessville,Burgessville,,43.0250,-80.6540,Canada,CA,CAN,Ontario,Ontario,CA-ON,province,,86.3,,,4,America/Toronto,FALSE,1124072782
"Birch Cove","Birch Cove",,53.9485,-114.3636,Canada,CA,CAN,Alberta,Alberta,CA-AB,province,,148.7,45,45,4,America/Edmonton,FALSE,1124000040
Lac-Nominingue,Lac-Nominingue,Nominingue,46.4000,-75.0333,Canada,CA,CAN,Quebec,Quebec,CA-QC,province,,6.6,2019,2019,3,America/Toronto,FALSE,1124245371
"River Glade","River Glade",,45.9896,-65.1198,Canada,CA,CAN,"New Brunswick","New Brunswick",CA-NB,province,,25.1,,,4,America/Moncton,FALSE,1124759817
"Mount Carmel-Mitchells Brook-St. Catherine's","Mount Carmel-Mitchells Brook-St. Catherine's",,47.1864,-53.4231,Canada,CA,CAN,"Newfoundland and Labrador","Newfoundland and Labrador",CA-NL,province,,5.7,349,349,4,America/St_Johns,FALSE,1124000041
Spiritwood,Spiritwood,,53.3667,-107.5167,Canada,CA,CAN,Saskatchewan,Saskatchewan,CA-SK,province,,310.0,916,916,3,America/Swift_Current,FALSE,1124134358
Clinton,Clinton,,43.6181,-81.5414,Canada,CA,CAN,Ontario,Ontario,CA-ON,province,,1031.6,3113,3113,3,America/Toronto,FALSE,1124934847
Ottawa,Ottawa,,45.4247,-75.6950,Canada,CA,CAN,Ontario,Ontario,CA-ON,province,primary,364.9,1068821,1017449,1,America/Toronto,FALSE,1124399363
Pelham,Pelham,,43.0333,-79.3333,Canada,CA,CAN,Ontario,Ontario,CA-ON,province,,144.0,18192,18192,3,America/Toronto,FALSE,1124000042
Allainville,Allainville,,47.2299,-65.2692,Canada,CA,CAN,"New Brunswick","New Brunswick",CA-NB,province,,2.2,,,5,America/Moncton,FALSE,1124348353
Matapédia,Matapedia,,47.9667,-66.9500,Canada,CA,CAN,Quebec,Quebec,CA-QC,province,,9.0,645,645,3,America/Toronto,FALSE,1124005144
Devenish,Devenish,,55.5347,-111.1967,Canada,CA,CAN,Alberta,Alberta,CA-AB,province,,0.0,,,5,America/Edmonton,FALSE,1124393141
"Port George","Port George",,45.0167,-65.1667,Canada,CA,CAN,"Nova Scotia","Nova Scotia",CA-NS,province,,0,,,5,America/Halifax,FALSE,1124198615
"Le Moyne","Le Moyne",,45.5000,-73.5000,Canada,CA,CAN,Quebec,Quebec,CA-QC,province,,5072.6,,,2,America/Toronto,FALSE,1124564163
Vanderhoof,Vanderhoof,,54.0143,-124.0089,Canada,CA,CAN,"British Columbia","British Columbia",CA-BC,province,,81.0,4439,4439,3,America/Vancouver,FALSE,1124100075
"Pinto Creek No. 75","Pinto Creek No. 75",,49.6550,-107.0198,Canada,CA,CAN,Saskatchewan,Saskatchewan,CA-SK,province,,0.30,283.00,283.00,4,America/Regina,FALSE,1124000043
"Key Junction","Key Junction",,45.9833,-80.7167,Canada,CA,CAN,Ontario,Ontario,CA-ON,province,,0.0,,,5,America/Toronto,FALSE,1124320464
Thornlea,Thornlea,,47.6141,-53.7160,Canada,CA,CAN,"Newfoundland and Labrador","Newfoundland and Labrador",CA-NL,province,,34.7,61,61,4,America/St_Johns,FALSE,1124000044
"Fox Harbour","Fox Harbour",,47.3214,-53.8828,Canada,CA,CAN,"Newfoundland and Labrador","Newfoundland and Labrador",CA-NL,province,,12.70,252,252,3,America/St_Johns,FALSE,1124385530
"Saint Pierre de-Kent","Saint Pierre de-Kent",,46.5150,-64.7603,Canada,CA,CAN,"New Brunswick","New Brunswick",CA-NB,province,,17.0,,,4,America/Moncton,FALSE,1124022071
"Vermilion Chutes","Vermilion Chutes","Fort Vermilion Chutes",58.3667,-114.8500,Canada,CA,CAN,Alberta,Alberta,CA-AB,province,,0.0,,,5,America/Edmonton,FALSE,1124470058
Saint-François-de-l'Île-d'Orléans,Saint-Francois-de-l'Ile-d'Orleans,,47.0000,-70.8167,Canada,CA,CAN,Quebec,Quebec,CA-QC,province,,18.5,536,536,3,America/Toronto,FALSE,1124000045
"Nig Creek","Nig Creek",,57.1333,-121.3000,Canada,CA,CAN,"British Columbia","British Columbia",CA-BC,province,,0.0,,,5,America/Dawson_Creek,FALSE,1124954602
Roblin,Roblin,,44.3833,-77.0167,Canada,CA,CAN,Ontario,Ontario,CA-ON,province,,5.1,,,5,America/Toronto,FALSE,1124593617
Welwyn,Welwyn,,50.1932,-101.3123,Canada,CA,CAN,Saskatchewan,Saskatchewan,CA-SK,province,,208.1,133,133,3,America/Winnipeg,FALSE,1124000046
"Coral Rapids","Coral Rapids",,50.2000,-81.6667,Canada,CA,CAN,Ontario,Ontario,CA-ON,province,,0.0,,,5,America/Toronto,FALSE,1124909057
"Scarborough Township","Scarborough Township",,43.7833,-79.2500,Canada,CA,CAN,Ontario,Ontario,CA-ON,province,,6639.6,,,2,America/Toronto,FALSE,1124316320
Aylmer,Aylmer,,45.4000,-75.8500,Canada,CA,CAN,Quebec,Quebec,CA-QC,province,,2776.3,,,2,America/Toronto,FALSE,1124373925
Edgar,Edgar,,44.5167,-79.6167,Canada,CA,CAN,Ontario,Ontario,CA-ON,province,,33.1,,,4,America/Toronto,FALSE,1124569403
"Albert Canyon","Albert Canyon",,51.1333,-117.8667,Canada,CA,CAN,"British Columbia","British Columbia",CA-BC,province,,0.0,,,5,America/Vancouver,FALSE,1124586429
Bifrost-Riverton,Bifrost-Riverton,,51.0603,-97.1436,Canada,CA,CAN,Manitoba,Manitoba,CA-MB,province,,2.1,3378,3378,3,America/Winnipeg,FALSE,1124000047
Arborg,Arborg,,50.9075,-97.2182,Canada,CA,CAN,Manitoba,Manitoba,CA-MB,province,,611.0,1279,1222,3,America/Winnipeg,FALSE,1124353392
"Rock Harbour","Rock Harbour","Red Harbour",47.2928,-54.9972,Canada,CA,CAN,"Newfoundland and Labrador","Newfoundland and Labrador",CA-NL,province,,16.70,189,189,4,America/St_Johns,FALSE,1124477418
Georgina,Georgina,,44.3000,-79.4333,Canada,CA,CAN,Ontario,Ontario,CA-ON,province,,165.6,47642,47642,3,America/Toronto,FALSE,1124000048
Lac-des-Commissaires,Lac-des-Commissaires,"Lac-des-Commissaires Station|Lac des Commissaires",48.1500,-72.2167,Canada,CA,CAN,Quebec,Quebec,CA-QC,province,,0.3,,,5,America/Toronto,FALSE,1124292363
"Highland Park","Highland Park",,56.1167,-118.8500,Canada,CA,CAN,Alberta,Alberta,CA-AB,province,,0.9,,,5,America/Edmonton,FALSE,1124339412
"St. Louis","St. Louis","Saint Louis",46.8860,-64.1443,Canada,CA,CAN,"Prince Edward Island","Prince Edward Island",CA-PE,province,,133.9,83,83,4,America/Halifax,FALSE,1124231114
Sainte-Christine,Sainte-Christine,,45.6167,-72.4167,Canada,CA,CAN,Quebec,Quebec,CA-QC,province,,7.3,673,673,4,America/Toronto,FALSE,1124000049
Margo,Margo,,51.8258,-103.3369,Canada,CA,CAN,Saskatchewan,Saskatchewan,CA-SK,province,,132.1,90,90,3,America/Regina,FALSE,1124000050
"Saint Croix","Saint Croix",,45.2055,-67.1117,Canada,CA,CAN,"New Brunswick","New Brunswick",CA-NB,province,,8.40,657.00,657.00,4,America/Moncton,FALSE,1124966873
Totzke,Totzke,,52.2833,-105.6667,Canada,CA,CAN,Saskatchewan,Saskatchewan,CA-SK,province,,0.6,,,5,America/Regina,FALSE,1124114091
Paris,Paris,,63.8167,-138.6667,Canada,CA,CAN,Yukon,Yukon,CA-YT,province,,0.1,,,5,America/Dawson,FALSE,1124975757
Shawinigan-Sud,Shawinigan-Sud,Almaville,46.5286,-72.7515,Canada,CA,CAN,Quebec,Quebec,CA-QC,province,,1509.4,,,3,America/Toronto,FALSE,1124544125
Wigan,Wigan,,60.6500,-135.0000,Canada,CA,CAN,Yukon,Yukon,CA-YT,province,,9.0,,,5,America/Whitehorse,FALSE,1124614070
Sheslay,Sheslay,Egnell’s|Egnelle|Egnell,58.2579,-131.7792,Canada,CA,CAN,"British Columbia","British Columbia",CA-BC,province,,0.0,,,4,America/Vancouver,FALSE,1124676019
Prud'Homme,Prud'Homme,,52.3370,-105.8930,Canada,CA,CAN,Saskatchewan,Saskatchewan,CA-SK,province,,198.7,167,167,3,America/Regina,FALSE,1124000051
Saint-Athanase,Saint-Athanase,,47.4333,-69.4167,Canada,CA,CAN,Quebec,Quebec,CA-QC,province,,1.0,301,301,4,America/Toronto,FALSE,1124903566
Bethune,Bethune,,50.7167,-105.2167,Canada,CA,CAN,Saskatchewan,Saskatchewan,CA-SK,province,,383.1,399,399,3,America/Regina,FALSE,1124310945
Oderin,Oderin,,47.2833,-54.8167,Canada,CA,CAN,"Newfoundland and Labrador","Newfoundland and Labrador",CA-NL,province,,0,,,5,America/St_Johns,FALSE,1124846153
Ruscom,Ruscom,,42.2149,-82.6436,Canada,CA,CAN,Ontario,Ontario,CA-ON,province,,17.5,,,4,America/Toronto,FALSE,1124446614
"North Cowichan","North Cowichan",,48.8236,-123.7192,Canada,CA,CAN,"British Columbia","British Columbia",CA-BC,province,,163.7,31990,31990,3,America/Vancouver,FALSE,1124000052
Clearview,Clearview,,44.3981,-80.0742,Canada,CA,CAN,Ontario,Ontario,CA-ON,province,,25.4,14151,14151,3,America/Toronto,FALSE,1124000053
Tennycape,Tennycape,Tenycape|Tenecape,45.2241,-63.8600,Canada,CA,CAN,"Nova Scotia","Nova Scotia",CA-NS,province,,1.8,,,5,America/Halifax,FALSE,1124679666
Penny,Penny,,53.8333,-121.2667,Canada,CA,CAN,"British Columbia","British Columbia",CA-BC,province,,0.0,,,5,America/Vancouver,FALSE,1124278654
Caribou,Caribou,,59.4167,-97.7500,Canada,CA,CAN,Manitoba,Manitoba,CA-MB,province,,0.0,,,5,America/Winnipeg,FALSE,1124151881
Saint-Constant,Saint-Constant,,45.3700,-73.5700,Canada,CA,CAN,Quebec,Quebec,CA-QC,province,,524.9,29954,29954,3,America/Toronto,FALSE,1124000054
Craik,Craik,,51.0480,-105.8190,Canada,CA,CAN,Saskatchewan,Saskatchewan,CA-SK,province,,150.0,453,453,3,America/Regina,FALSE,1124000055
Saint-Moïse,Saint-Moise,,48.5167,-67.8500,Canada,CA,CAN,Quebec,Quebec,CA-QC,province,,5.2,577,577,4,America/Toronto,FALSE,1124282820
Waswanipi,Waswanipi,,49.7883,-75.9544,Canada,CA,CAN,Quebec,Quebec,CA-QC,province,,4.20,1759.00,1759.00,4,America/Toronto,FALSE,1124000056
Lumby,Lumby,,50.2494,-118.9656,Canada,CA,CAN,"British Columbia","British Columbia",CA-BC,province,,379.5,2000,2000,3,America/Vancouver,FALSE,1124173367
Eyebrow,Eyebrow,,50.7320,-106.1850,Canada,CA,CAN,Saskatchewan,Saskatchewan,CA-SK,province,,50.0,135,135,3,America/Regina,FALSE,1124672455
Invermere,Invermere,,50.5083,-116.0303,Canada,CA,CAN,"British Columbia","British Columbia",CA-BC,province,,315.9,3391,3391,3,America/Edmonton,FALSE,1124839399
Forestburg,Forestburg,,52.5803,-112.0681,Canada,CA,CAN,Alberta,Alberta,CA-AB,province,,320.1,875,875,3,America/Edmonton,FALSE,1124235076
Taschereau,Taschereau,,48.6667,-78.6833,Canada,CA,CAN,Quebec,Quebec,CA-QC,province,,170.4,469,469,4,America/Toronto,FALSE,1124932223
Dorchester,Dorchester,,42.9890,-81.0580,Canada,CA,CAN,Ontario,Ontario,CA-ON,province,,720.5,4355,4355,3,America/Toronto,FALSE,1124793303
McKellar,McKellar,,45.4833,-79.8500,Canada,CA,CAN,Ontario,Ontario,CA-ON,province,,6.1,1111,1111,3,America/Toronto,FALSE,1124000057
Timiskaming,Timiskaming,,47.6270,-79.4761,Canada,CA,CAN,Quebec,Quebec,CA-QC,province,,29.20,539.00,539.00,4,America/Toronto,FALSE,1124000058
Somerville,Somerville,,46.2917,-67.5340,Canada,CA,CAN,"New Brunswick","New Brunswick",CA-NB,province,,184.5,299,299,4,America/Moncton,FALSE,1124000059
"Bull River","Bull River",,49.4667,-115.4500,Canada,CA,CAN,"British Columbia","British Columbia",CA-BC,province,,1.8,,,5,America/Edmonton,FALSE,1124903588
Oshawa,Oshawa,,43.9000,-78.8500,Canada,CA,CAN,Ontario,Ontario,CA-ON,province,,1203.6,335949,175383,2,America/Toronto,FALSE,1124541904
Béland,Beland,,45.8006,-70.6210,Canada,CA,CAN,Quebec,Quebec,CA-QC,province,,20.3,,,4,America/Toronto,FALSE,1124384125
Saint-Ignace-de-Stanbridge,Saint-Ignace-de-Stanbridge,,45.1667,-72.9500,Canada,CA,CAN,Quebec,Quebec,CA-QC,province,,9.2,638,638,4,America/Toronto,FALSE,1124000060
Nahlin,Nahlin,,58.8833,-131.7500,Canada,CA,CAN,"British Columbia","British Columbia",CA-BC,province,,0.0,,,5,America/Vancouver,FALSE,1124114664
Shunacadie,Shunacadie,Shenacadle|Shenacadie,46.0167,-60.6500,Canada,CA,CAN,"Nova Scotia","Nova Scotia",CA-NS,province,,1.5,,,5,America/Glace_Bay,FALSE,1124870707
Saint-Philibert,Saint-Philibert,,46.1333,-70.5500,Canada,CA,CAN,Quebec,Quebec,CA-QC,province,,6.6,379,379,4,America/Toronto,FALSE,1124000061
"Adams Landing","Adams Landing",,58.3833,-115.1167,Canada,CA,CAN,Alberta,Alberta,CA-AB,province,,0.0,,,5,America/Edmonton,FALSE,1124502025
Summerside,Summerside,,46.4000,-63.7833,Canada,CA,CAN,"Prince Edward Island","Prince Edward Island",CA-PE,province,,567.2,16001,16001,3,America/Halifax,FALSE,1124487102
Strongfield,Strongfield,,51.3319,-106.5898,Canada,CA,CAN,Saskatchewan,Saskatchewan,CA-SK,province,,50.30,40,40,3,America/Regina,FALSE,1124000062
"South Frontenac","South Frontenac",,44.5081,-76.4939,Canada,CA,CAN,Ontario,Ontario,CA-ON,province,,21.3,20188,20188,3,America/Toronto,FALSE,1124000063
Drinkwater,Drinkwater,,50.2956,-105.1358,Canada,CA,CAN,Saskatchewan,Saskatchewan,CA-SK,province,,26.5,70,70,3,America/Regina,FALSE,1124172606
McGarry,McGarry,,48.1464,-79.5706,Canada,CA,CAN,Ontario,Ontario,CA-ON,province,,7.0,609,609,3,America/Toronto,FALSE,1124000064
"Square Island Harbour","Square Island Harbour",,52.7333,-55.8333,Canada,CA,CAN,"Newfoundland and Labrador","Newfoundland and Labrador",CA-NL,province,,0.0,,,5,America/St_Johns,FALSE,1124748552
Mattice,Mattice,,49.6167,-83.2667,Canada,CA,CAN,Ontario,Ontario,CA-ON,province,,823.6,,,3,America/Toronto,FALSE,1124840323
Canora,Canora,,51.6339,-102.4369,Canada,CA,CAN,Saskatchewan,Saskatchewan,CA-SK,province,,303.7,2219,2219,3,America/Regina,FALSE,1124454845
Wroxeter,Wroxeter,,43.8661,-81.1483,Canada,CA,CAN,Ontario,Ontario,CA-ON,province,,319.9,,,3,America/Toronto,FALSE,1124402165
"South Maitland","South Maitland",,45.2224,-63.4491,Canada,CA,CAN,"Nova Scotia","Nova Scotia",CA-NS,province,,1.8,,,5,America/Halifax,FALSE,1124866012
"Happy Adventure","Happy Adventure",,48.6361,-53.7597,Canada,CA,CAN,"Newfoundland and Labrador","Newfoundland and Labrador",CA-NL,province,,20.80,200,200,3,America/St_Johns,FALSE,1124000065
Pointe-Lebel,Pointe-Lebel,,49.1667,-68.2000,Canada,CA,CAN,Quebec,Quebec,CA-QC,province,,21.2,1817,1817,4,America/Toronto,FALSE,1124216164
"Red Cliff","Red Cliff",,48.5500,-53.4833,Canada,CA,CAN,"Newfoundland and Labrador","Newfoundland and Labrador",CA-NL,province,,46.2,,,4,America/St_Johns,FALSE,1124834558
Stillwater,Stillwater,,49.7624,-124.2993,Canada,CA,CAN,"British Columbia","British Columbia",CA-BC,province,,251.1,130,130,3,America/Vancouver,FALSE,1124528567
Bluewater,Bluewater,,43.4500,-81.6000,Canada,CA,CAN,Ontario,Ontario,CA-ON,province,,17.1,7136,7136,3,America/Toronto,FALSE,1124000066
"Port Edward","Port Edward",,54.2142,-130.1155,Canada,CA,CAN,"British Columbia","British Columbia",CA-BC,province,,2.8,470,470,4,America/Vancouver,FALSE,1124777918
"Sturdies Bay","Sturdies Bay",,48.8833,-123.3167,Canada,CA,CAN,"British Columbia","British Columbia",CA-BC,province,,150.0,,,4,America/Vancouver,FALSE,1124345161
Mont-Orford,Mont-Orford,"Mount Orford",45.3661,-72.1838,Canada,CA,CAN,Quebec,Quebec,CA-QC,province,,36.8,5007,5007,4,America/Toronto,FALSE,1124618048
"Southern Harbour","Southern Harbour",,47.7222,-53.9533,Canada,CA,CAN,"Newfoundland and Labrador","Newfoundland and Labrador",CA-NL,province,,68.30,369,369,4,America/St_Johns,FALSE,1124000067
Juniper,Juniper,,46.5094,-67.2110,Canada,CA,CAN,"New Brunswick","New Brunswick",CA-NB,province,,0.4,,,5,America/Moncton,FALSE,1124631742
Greenstone,Greenstone,,50.0000,-86.7333,Canada,CA,CAN,Ontario,Ontario,CA-ON,province,,1.7,4636,4636,3,America/Toronto,FALSE,1124000068
Dina,Dina,,52.9333,-110.0833,Canada,CA,CAN,Alberta,Alberta,CA-AB,province,,0.3,,,5,America/Edmonton,FALSE,1124449300
Masson,Masson,,45.5503,-75.4128,Canada,CA,CAN,Quebec,Quebec,CA-QC,province,,127.4,,,4,America/Toronto,FALSE,1124921022
"St. Vincent's-St. Stephen's-Peter's River","St. Vincent's-St. Stephen's-Peter's River",,46.7700,-53.5800,Canada,CA,CAN,"Newfoundland and Labrador","Newfoundland and Labrador",CA-NL,province,,3.6,313,313,4,America/St_Johns,FALSE,1124000069
B-Say-Tah,B-Say-Tah,,50.7810,-103.8370,Canada,CA,CAN,Saskatchewan,Saskatchewan,CA-SK,province,,117.3,156,156,3,America/Regina,FALSE,1124000070
"River Hébert","River Hebert",,45.6916,-64.3837,Canada,CA,CAN,"Nova Scotia","Nova Scotia",CA-NS,province,,81.2,,,4,America/Halifax,FALSE,1124208464
Lemsford,Lemsford,,50.8500,-109.1167,Canada,CA,CAN,Saskatchewan,Saskatchewan,CA-SK,province,,1.5,,,5,America/Swift_Current,FALSE,1124072705
Bracken,Bracken,,49.1780,-108.0960,Canada,CA,CAN,Saskatchewan,Saskatchewan,CA-SK,province,,33.5,25,25,3,America/Swift_Current,FALSE,1124221873
Bracebridge,Bracebridge,,45.0333,-79.3000,Canada,CA,CAN,Ontario,Ontario,CA-ON,province,,25.5,16010,16010,3,America/Toronto,FALSE,1124793645
Buctouche,Buctouche,Bouctouche,46.4719,-64.7249,Canada,CA,CAN,"New Brunswick","New Brunswick",CA-NB,province,,130.5,2361,2361,3,America/Moncton,FALSE,1124405790
Rosenort,Rosenort,,49.4582,-97.4366,Canada,CA,CAN,Manitoba,Manitoba,CA-MB,province,,75.7,798,798,4,America/Winnipeg,FALSE,1124000071
"Echo Bay","Echo Bay",,66.0833,-118.0333,Canada,CA,CAN,"Northwest Territories","Northwest Territories",CA-NT,province,,0,,,5,America/Yellowknife,FALSE,1124373612
Chisasibi,Chisasibi,,53.6645,-78.7938,Canada,CA,CAN,Quebec,Quebec,CA-QC,province,,5.90,4872.00,4872.00,4,America/Toronto,FALSE,1124000072
"Louisbourg Road","Louisbourg Road","Louisburg Road",45.9333,-60.0000,Canada,CA,CAN,"Nova Scotia","Nova Scotia",CA-NS,province,,3.7,,,5,America/Glace_Bay,FALSE,1124213121
Saint-Louis,Saint-Louis,,45.8500,-72.9833,Canada,CA,CAN,Quebec,Quebec,CA-QC,province,,16.5,775,775,3,America/Toronto,FALSE,1124000073
Ranchero,Ranchero,,50.6455,-119.2139,Canada,CA,CAN,"British Columbia","British Columbia",CA-BC,province,,52.3,1008,1008,4,America/Vancouver,FALSE,1124000074
"Stone Mills","Stone Mills",,44.4500,-76.9167,Canada,CA,CAN,Ontario,Ontario,CA-ON,province,,10.9,7702,7702,3,America/Toronto,FALSE,1124000075
Saint-Michel,Saint-Michel,,45.2333,-73.5667,Canada,CA,CAN,Quebec,Quebec,CA-QC,province,,48.2,2884,2884,3,America/Toronto,FALSE,1124926265
Saint-Théophile,Saint-Theophile,,45.9333,-70.4833,Canada,CA,CAN,Quebec,Quebec,CA-QC,province,,1.7,743,743,4,America/Toronto,FALSE,1124000076
Sainte-Marie-de-Blandford,Sainte-Marie-de-Blandford,,46.3200,-72.1800,Canada,CA,CAN,Quebec,Quebec,CA-QC,province,,6.7,466,466,4,America/Toronto,FALSE,1124057997
Vineland,Vineland,,43.1531,-79.3918,Canada,CA,CAN,Ontario,Ontario,CA-ON,province,,1555.1,4395,4395,3,America/Toronto,FALSE,1124037832
"Herb Lake","Herb Lake",,54.7833,-99.7833,Canada,CA,CAN,Manitoba,Manitoba,CA-MB,province,,0.0,,,5,America/Winnipeg,FALSE,1124678931
"Corman Park No. 344","Corman Park No. 344",,52.2291,-106.8002,Canada,CA,CAN,Saskatchewan,Saskatchewan,CA-SK,province,,4.7,8909,8909,4,America/Regina,FALSE,1124000077
Wildwood,Wildwood,,52.2074,-122.0870,Canada,CA,CAN,"British Columbia","British Columbia",CA-BC,province,,144.0,435,435,4,America/Vancouver,FALSE,1124000078
Cléricy,Clericy,,48.3667,-78.8667,Canada,CA,CAN,Quebec,Quebec,CA-QC,province,,90.2,,,4,America/Toronto,FALSE,1124778447
"Kingsley No. 124","Kingsley No. 124",,50.1791,-102.6216,Canada,CA,CAN,Saskatchewan,Saskatchewan,CA-SK,province,,0.50,444.00,444.00,4,America/Regina,FALSE,1124000079
Wanup,Wanup,,46.3833,-80.8167,Canada,CA,CAN,Ontario,Ontario,CA-ON,province,,15.9,,,4,America/Toronto,FALSE,1124216282
"Chester Basin","Chester Basin",,44.5295,-64.2909,Canada,CA,CAN,"Nova Scotia","Nova Scotia",CA-NS,province,,0,,,5,America/Halifax,FALSE,1124442591
Morigeau,Morigeau,,46.8850,-70.6710,Canada,CA,CAN,Quebec,Quebec,CA-QC,province,,173.6,,,4,America/Toronto,FALSE,1124300982
"Forty Mile","Forty Mile",,64.4500,-140.5500,Canada,CA,CAN,Yukon,Yukon,CA-YT,province,,0.0,,,5,America/Dawson,FALSE,1124364695
Pilger,Pilger,,52.4400,-105.2970,Canada,CA,CAN,Saskatchewan,Saskatchewan,CA-SK,province,,165.0,74,74,3,America/Regina,FALSE,1124021326
McCreary,McCreary,,50.7494,-99.4850,Canada,CA,CAN,Manitoba,Manitoba,CA-MB,province,,269.5,497,497,3,America/Winnipeg,FALSE,1124852381
Petley,Petley,,48.1505,-53.7442,Canada,CA,CAN,"Newfoundland and Labrador","Newfoundland and Labrador",CA-NL,province,,67.0,76,76,4,America/St_Johns,FALSE,1124000081
Ingonish,Ingonish,Inganish|Niganishe,46.6833,-60.3667,Canada,CA,CAN,"Nova Scotia","Nova Scotia",CA-NS,province,,0,,,5,America/Glace_Bay,FALSE,1124387499
Saint-Simon,Saint-Simon,Saint-Simon-de-Bagot,45.7190,-72.8463,Canada,CA,CAN,Quebec,Quebec,CA-QC,province,,20.50,1413.00,1413.00,4,America/Toronto,FALSE,1124669265
"Tramping Lake","Tramping Lake",,52.1350,-108.9490,Canada,CA,CAN,Saskatchewan,Saskatchewan,CA-SK,province,,43.2,60,60,3,America/Swift_Current,FALSE,1124933382
"Barr’d Harbour","Barr'd Harbour","Bad Harbour",50.8333,-57.0333,Canada,CA,CAN,"Newfoundland and Labrador","Newfoundland and Labrador",CA-NL,province,,0.0,,,5,America/St_Johns,FALSE,1124199013
"Porcupine No. 395","Porcupine No. 395",,52.6322,-103.0345,Canada,CA,CAN,Saskatchewan,Saskatchewan,CA-SK,province,,0.30,803.00,803.00,4,America/Regina,FALSE,1124000082
"Allen’s Mill","Allen's Mill","Allens Mills",46.9121,-71.9649,Canada,CA,CAN,Quebec,Quebec,CA-QC,province,,6.4,,,5,America/Toronto,FALSE,1124402433
"Martin No. 122","Martin No. 122",,50.1909,-101.8687,Canada,CA,CAN,Saskatchewan,Saskatchewan,CA-SK,province,,0.50,289.00,289.00,4,America/Regina,FALSE,1124000083
Sainte-Madeleine-de-la-Rivière-Madeleine,Sainte-Madeleine-de-la-Riviere-Madeleine,,49.2333,-65.3000,Canada,CA,CAN,Quebec,Quebec,CA-QC,province,,1.3,334,334,3,America/Toronto,FALSE,1124000084
Onefour,Onefour,,49.0667,-110.4500,Canada,CA,CAN,Alberta,Alberta,CA-AB,province,,0.0,,,5,America/Edmonton,FALSE,1124394877
Hotchkiss,Hotchkiss,,57.0667,-117.5500,Canada,CA,CAN,Alberta,Alberta,CA-AB,province,,5.4,,,5,America/Edmonton,FALSE,1124460717
Deloraine-Winchester,Deloraine-Winchester,,49.1775,-100.4322,Canada,CA,CAN,Manitoba,Manitoba,CA-MB,province,,2.00,2011,2011,4,America/Winnipeg,FALSE,1124000085
Crosby,Crosby,,44.6500,-76.2500,Canada,CA,CAN,Ontario,Ontario,CA-ON,province,,6.1,,,5,America/Toronto,FALSE,1124464326
Magaguadavic,Magaguadavic,"Scott Mills",45.6833,-67.1833,Canada,CA,CAN,"New Brunswick","New Brunswick",CA-NB,province,,1.5,,,5,America/Moncton,FALSE,1124294302
Barachois,Barachois,"Barachois de Malbaie",48.6167,-64.2667,Canada,CA,CAN,Quebec,Quebec,CA-QC,province,,0,,,5,America/Toronto,FALSE,1124135302
Saint-Narcisse-de-Beaurivage,Saint-Narcisse-de-Beaurivage,,46.4833,-71.2333,Canada,CA,CAN,Quebec,Quebec,CA-QC,province,,17.6,1091,1091,4,America/Toronto,FALSE,1124000086
Macrorie,Macrorie,,51.3220,-107.0820,Canada,CA,CAN,Saskatchewan,Saskatchewan,CA-SK,province,,88.4,68,68,3,America/Swift_Current,FALSE,1124000087
"Brown’s Corners","Brown's Corners",,42.9310,-80.5820,Canada,CA,CAN,Ontario,Ontario,CA-ON,province,,20.3,,,4,America/Toronto,FALSE,1124398166
Saint-Joseph-de-Coleraine,Saint-Joseph-de-Coleraine,,45.9700,-71.3700,Canada,CA,CAN,Quebec,Quebec,CA-QC,province,,14.4,1820,1820,4,America/Toronto,FALSE,1124000088
Metagama,Metagama,,47.1000,-81.9333,Canada,CA,CAN,Ontario,Ontario,CA-ON,province,,0.0,,,5,America/Toronto,FALSE,1124640609
Edgewood,Edgewood,,49.7812,-118.1435,Canada,CA,CAN,"British Columbia","British Columbia",CA-BC,province,,114.3,235,235,4,America/Vancouver,FALSE,1124000857
Bezanson,Bezanson,,55.2289,-118.3597,Canada,CA,CAN,Alberta,Alberta,CA-AB,province,,120.2,133,133,4,America/Edmonton,FALSE,1124000089
Exstew,Exstew,Ecstew,54.4000,-129.1000,Canada,CA,CAN,"British Columbia","British Columbia",CA-BC,province,,0.0,,,5,America/Vancouver,FALSE,1124109069
DeWette,DeWette,,60.3833,-134.8333,Canada,CA,CAN,Yukon,Yukon,CA-YT,province,,0.3,,,5,America/Whitehorse,FALSE,1124081577
Enderby,Enderby,,50.5508,-119.1397,Canada,CA,CAN,"British Columbia","British Columbia",CA-BC,province,,695.8,3028,2964,3,America/Vancouver,FALSE,1124312550
Denbigh,Denbigh,,45.1500,-77.2500,Canada,CA,CAN,Ontario,Ontario,CA-ON,province,,2.0,,,5,America/Toronto,FALSE,1124454632
Arkona,Arkona,,43.0750,-81.8340,Canada,CA,CAN,Ontario,Ontario,CA-ON,province,,256.3,648,648,3,America/Toronto,FALSE,1124864883
"Flett's Springs No. 429","Flett's Springs No. 429",,52.8001,-104.8411,Canada,CA,CAN,Saskatchewan,Saskatchewan,CA-SK,province,,0.90,732.00,732.00,4,America/Regina,FALSE,1124000090
"Harbour Main","Harbour Main",,47.4333,-53.1667,Canada,CA,CAN,"Newfoundland and Labrador","Newfoundland and Labrador",CA-NL,province,,32.1,,,4,America/St_Johns,FALSE,1124123108
Surrey,Surrey,"Ocean View",46.0667,-62.8167,Canada,CA,CAN,"Prince Edward Island","Prince Edward Island",CA-PE,province,,5.8,,,5,America/Halifax,FALSE,1124385307
Assiginack,Assiginack,,45.7333,-81.8000,Canada,CA,CAN,Ontario,Ontario,CA-ON,province,,4.5,1013,1013,3,America/Toronto,FALSE,1124000091
Saint-Étienne-de-Beauharnois,Saint-Etienne-de-Beauharnois,,45.2500,-73.9200,Canada,CA,CAN,Quebec,Quebec,CA-QC,province,,20.4,831,831,3,America/Toronto,FALSE,1124328076
L’Espérance,L'Esperance,,46.9223,-70.2491,Canada,CA,CAN,Quebec,Quebec,CA-QC,province,,0.1,,,5,America/Toronto,FALSE,1124869933
Shuniah,Shuniah,,48.5833,-88.8333,Canada,CA,CAN,Ontario,Ontario,CA-ON,province,,5.7,3247,3247,3,America/Toronto,FALSE,1124000092
"Sandy Bay","Sandy Bay",,55.5306,-102.3156,Canada,CA,CAN,Saskatchewan,Saskatchewan,CA-SK,province,,50.20,1104,697,3,America/Regina,FALSE,1124000093
"Irvines Landing","Irvines Landing",,49.6167,-124.0333,Canada,CA,CAN,"British Columbia","British Columbia",CA-BC,province,,201.2,,,3,America/Vancouver,FALSE,1124567869
Wiseton,Wiseton,,51.3144,-107.6492,Canada,CA,CAN,Saskatchewan,Saskatchewan,CA-SK,province,,125.0,96,96,3,America/Swift_Current,FALSE,1124885362
"Dundurn No. 314","Dundurn No. 314",,51.8261,-106.5416,Canada,CA,CAN,Saskatchewan,Saskatchewan,CA-SK,province,,2.6,2101,2101,4,America/Regina,FALSE,1124000094
Woss,Woss,,50.2127,-126.6004,Canada,CA,CAN,"British Columbia","British Columbia",CA-BC,province,,140.5,206,206,4,America/Vancouver,FALSE,1124000095
Craigend,Craigend,,54.5958,-111.9211,Canada,CA,CAN,Alberta,Alberta,CA-AB,province,,3.8,,,5,America/Edmonton,FALSE,1124646341
Beaulac,Beaulac,"Garthby|Garthby Station",45.8252,-71.3607,Canada,CA,CAN,Quebec,Quebec,CA-QC,province,,54.0,451,451,4,America/Toronto,FALSE,1124308600
Woolwich,Woolwich,,43.5667,-80.4833,Canada,CA,CAN,Ontario,Ontario,CA-ON,province,,82.7,26999,26999,3,America/Toronto,FALSE,1124000096
Harricanaw-Ouest,Harricanaw-Ouest,"Harricanaw Ouest",48.4667,-78.1333,Canada,CA,CAN,Quebec,Quebec,CA-QC,province,,52.0,,,4,America/Toronto,FALSE,1124048384
Kazabazua,Kazabazua,,45.9500,-76.0167,Canada,CA,CAN,Quebec,Quebec,CA-QC,province,,5.4,945,945,3,America/Toronto,FALSE,1124885790
"Prairiedale No. 321","Prairiedale No. 321",,51.7503,-109.5489,Canada,CA,CAN,Saskatchewan,Saskatchewan,CA-SK,province,,0.50,247.00,247.00,4,America/Swift_Current,FALSE,1124000097
Saint-Maurice,Saint-Maurice,,46.4667,-72.5333,Canada,CA,CAN,Quebec,Quebec,CA-QC,province,,37.6,3432,3432,3,America/Toronto,FALSE,1124381241
"Frontenac Islands","Frontenac Islands",,44.2000,-76.3833,Canada,CA,CAN,Ontario,Ontario,CA-ON,province,,10.9,1930,1930,3,America/Toronto,FALSE,1124000098
"West End","West End",,50.5490,-102.4140,Canada,CA,CAN,Saskatchewan,Saskatchewan,CA-SK,province,,108.8,37,37,4,America/Regina,FALSE,1124000099
Montcalm,Montcalm,,49.1775,-97.3247,Canada,CA,CAN,Manitoba,Manitoba,CA-MB,province,,2.70,1260,1260,3,America/Winnipeg,FALSE,1124000100
Frelighsburg,Frelighsburg,,45.0548,-72.8417,Canada,CA,CAN,Quebec,Quebec,CA-QC,province,,161.7,285,285,4,America/Toronto,FALSE,1124000101
Strathburn,Strathburn,,42.7220,-81.6740,Canada,CA,CAN,Ontario,Ontario,CA-ON,province,,10.5,,,4,America/Toronto,FALSE,1124545237
"Hay Lake","Hay Lake",,58.8167,-118.7500,Canada,CA,CAN,Alberta,Alberta,CA-AB,province,,0.0,,,5,America/Edmonton,FALSE,1124981296
Chancellor,Chancellor,,51.0879,-112.8363,Canada,CA,CAN,Alberta,Alberta,CA-AB,province,,15.5,5,5,4,America/Edmonton,FALSE,1124000102
Aguanish,Aguanish,,50.2167,-62.0833,Canada,CA,CAN,Quebec,Quebec,CA-QC,province,,0.4,245,245,3,America/Blanc-Sablon,FALSE,1124573561
Tiny,Tiny,,44.6833,-79.9500,Canada,CA,CAN,Ontario,Ontario,CA-ON,province,,35.0,11787,11787,3,America/Toronto,FALSE,1124000103
Bourgeois,Bourgeois,,46.3130,-64.5259,Canada,CA,CAN,"New Brunswick","New Brunswick",CA-NB,province,,47.9,,,4,America/Moncton,FALSE,1124249558
Entrance,Entrance,,53.3667,-117.7000,Canada,CA,CAN,Alberta,Alberta,CA-AB,province,,1.9,,,5,America/Edmonton,FALSE,1124830853
Kerns,Kerns,,47.6083,-79.8000,Canada,CA,CAN,Ontario,Ontario,CA-ON,province,,3.9,358,358,3,America/Toronto,FALSE,1124000104
Fortierville,Fortierville,,46.4857,-72.0287,Canada,CA,CAN,Quebec,Quebec,CA-QC,province,,341.3,396,396,3,America/Toronto,FALSE,1124873186
Abbotsford,Abbotsford,Abbottsford,49.0500,-122.3167,Canada,CA,CAN,"British Columbia","British Columbia",CA-BC,province,,409.0,153524,153524,2,America/Vancouver,FALSE,1124808029
Prelate,Prelate,,50.8520,-109.4090,Canada,CA,CAN,Saskatchewan,Saskatchewan,CA-SK,province,,144.5,126,126,3,America/Swift_Current,FALSE,1124000105
"Port Severn","Port Severn",,44.8000,-79.7167,Canada,CA,CAN,Ontario,Ontario,CA-ON,province,,51.1,,,4,America/Toronto,FALSE,1124694637
"Black River-Matheson","Black River-Matheson",,48.5333,-80.4667,Canada,CA,CAN,Ontario,Ontario,CA-ON,province,,2.1,2438,2438,3,America/Toronto,FALSE,1124000106
"Cree Lake","Cree Lake",,57.3667,-106.8333,Canada,CA,CAN,Saskatchewan,Saskatchewan,CA-SK,province,,0.0,,,5,America/Swift_Current,FALSE,1124321213
Qu’Appelle,Qu'Appelle,Qu'Appelle,50.5410,-103.8740,Canada,CA,CAN,Saskatchewan,Saskatchewan,CA-SK,province,,158.1,668,668,3,America/Regina,FALSE,1124465053
"Pickle Crow","Pickle Crow",,51.5000,-90.0500,Canada,CA,CAN,Ontario,Ontario,CA-ON,province,,0.1,,,5,America/Atikokan,FALSE,1124283378
Val-Alain,Val-Alain,,46.4167,-71.7500,Canada,CA,CAN,Quebec,Quebec,CA-QC,province,,9.3,955,955,4,America/Toronto,FALSE,1124186797
"Hindon Hill","Hindon Hill","Minden Hills",44.9333,-78.7333,Canada,CA,CAN,Ontario,Ontario,CA-ON,province,,6.9,6088,6088,3,America/Toronto,FALSE,1124076260
"Saint Kyrans","Saint Kyrans",,47.4333,-54.4667,Canada,CA,CAN,"Newfoundland and Labrador","Newfoundland and Labrador",CA-NL,province,,0.0,,,5,America/St_Johns,FALSE,1124014257
Springdale,Springdale,,49.4974,-56.0727,Canada,CA,CAN,"Newfoundland and Labrador","Newfoundland and Labrador",CA-NL,province,,168.80,2971,2971,3,America/St_Johns,FALSE,1124612197
"Fort Frances","Fort Frances",,48.6167,-93.4000,Canada,CA,CAN,Ontario,Ontario,CA-ON,province,,303.4,7739,7739,3,America/Winnipeg,FALSE,1124939714
Rollingdam,Rollingdam,,45.3475,-67.0926,Canada,CA,CAN,"New Brunswick","New Brunswick",CA-NB,province,,2.5,,,5,America/Moncton,FALSE,1124706718
Beamsville,Beamsville,,43.1710,-79.4767,Canada,CA,CAN,Ontario,Ontario,CA-ON,province,,1993.8,13323,13323,3,America/Toronto,FALSE,1124672291
Hillsborough,Hillsborough,,45.9206,-64.6507,Canada,CA,CAN,"New Brunswick","New Brunswick",CA-NB,province,,105.2,1348,1348,4,America/Moncton,FALSE,1124000107
Saint-Luc-de-Bellechasse,Saint-Luc-de-Bellechasse,,46.5000,-70.4833,Canada,CA,CAN,Quebec,Quebec,CA-QC,province,,3.0,480,480,4,America/Toronto,FALSE,1124000108
Chater,Chater,,49.8667,-99.9167,Canada,CA,CAN,Manitoba,Manitoba,CA-MB,province,,5.6,,,5,America/Winnipeg,FALSE,1124267937
"Old Wives","Old Wives",,50.2000,-106.0000,Canada,CA,CAN,Saskatchewan,Saskatchewan,CA-SK,province,,0.4,,,5,America/Regina,FALSE,1124542476
Roseray,Roseray,,50.4500,-108.4500,Canada,CA,CAN,Saskatchewan,Saskatchewan,CA-SK,province,,0.0,,,5,America/Swift_Current,FALSE,1124493418
Brancepeth,Brancepeth,,53.0016,-105.2620,Canada,CA,CAN,Saskatchewan,Saskatchewan,CA-SK,province,,102.2,20,20,4,America/Regina,FALSE,1124338409
Tyendinaga,Tyendinaga,,44.3000,-77.2000,Canada,CA,CAN,Ontario,Ontario,CA-ON,province,,14.5,4538,4538,3,America/Toronto,FALSE,1124000109
Raley,Raley,,49.2833,-113.1833,Canada,CA,CAN,Alberta,Alberta,CA-AB,province,,3.6,,,5,America/Edmonton,FALSE,1124340624
"Gordon Landing","Gordon Landing",,63.6333,-135.4500,Canada,CA,CAN,Yukon,Yukon,CA-YT,province,,0.0,,,5,America/Whitehorse,FALSE,1124371343
"Mouth of Keswick","Mouth of Keswick","Keswick Station|Keswick",46.0167,-66.8333,Canada,CA,CAN,"New Brunswick","New Brunswick",CA-NB,province,,13.4,,,4,America/Moncton,FALSE,1124351109
"Charlottetown (Labrador)","Charlottetown (Labrador)",,52.7658,-56.1453,Canada,CA,CAN,"Newfoundland and Labrador","Newfoundland and Labrador",CA-NL,province,,9.50,290,290,3,America/St_Johns,FALSE,1124000110
Riverview,Riverview,,45.8001,-63.7804,Canada,CA,CAN,"Nova Scotia","Nova Scotia",CA-NS,province,,2.6,,,5,America/Halifax,FALSE,1124671503
Ayr,Ayr,,43.2833,-80.4500,Canada,CA,CAN,Ontario,Ontario,CA-ON,province,,1442.1,5383,5383,3,America/Toronto,FALSE,1124170272
Tobiano,Tobiano,,50.7385,-120.6972,Canada,CA,CAN,"British Columbia","British Columbia",CA-BC,province,,108.6,410,410,4,America/Vancouver,FALSE,1124000111
Alpen,Alpen,,54.4261,-112.9236,Canada,CA,CAN,Alberta,Alberta,CA-AB,province,,0.5,,,5,America/Edmonton,FALSE,1124479603
Riverview,Riverview,,46.0613,-64.8052,Canada,CA,CAN,"New Brunswick","New Brunswick",CA-NB,province,,603.7,20584,20584,3,America/Moncton,FALSE,1124000112
Copetown,Copetown,,43.2458,-80.0575,Canada,CA,CAN,Ontario,Ontario,CA-ON,province,,65.5,,,4,America/Toronto,FALSE,1124235636
"Lower Cove","Lower Cove",,45.7279,-64.4345,Canada,CA,CAN,"Nova Scotia","Nova Scotia",CA-NS,province,,1.6,,,5,America/Halifax,FALSE,1124053309
"Rose Lake","Rose Lake",,54.4000,-126.0333,Canada,CA,CAN,"British Columbia","British Columbia",CA-BC,province,,0.5,,,5,America/Vancouver,FALSE,1124372366
Hindon,Hindon,,45.0667,-78.9000,Canada,CA,CAN,Ontario,Ontario,CA-ON,province,,0.4,,,5,America/Toronto,FALSE,1124644591
Colombier,Colombier,,48.8667,-68.8500,Canada,CA,CAN,Quebec,Quebec,CA-QC,province,,2.0,747,747,3,America/Toronto,FALSE,1124000113
"Duncan Bay","Duncan Bay",,50.0667,-125.2833,Canada,CA,CAN,"British Columbia","British Columbia",CA-BC,province,,73.3,,,4,America/Vancouver,FALSE,1124852295
"South Bruce Peninsula","South Bruce Peninsula",,44.7333,-81.2000,Canada,CA,CAN,Ontario,Ontario,CA-ON,province,,15.8,8416,8416,3,America/Toronto,FALSE,1124000114
Tingwick,Tingwick,,45.8873,-71.9244,Canada,CA,CAN,Quebec,Quebec,CA-QC,province,,8.30,1410.00,1410.00,4,America/Toronto,FALSE,1124969542
"Lake Cowichan","Lake Cowichan",,48.8258,-124.0542,Canada,CA,CAN,"British Columbia","British Columbia",CA-BC,province,,369.6,3226,3226,3,America/Vancouver,FALSE,1124082843
McMasterville,McMasterville,,45.5500,-73.2333,Canada,CA,CAN,Quebec,Quebec,CA-QC,province,,1904.0,5936,5936,3,America/Toronto,FALSE,1124000115
Opasquia,Opasquia,,53.2667,-93.5667,Canada,CA,CAN,Ontario,Ontario,CA-ON,province,,0.0,,,5,America/Winnipeg,FALSE,1124771762
Duchess,Duchess,,50.7333,-111.9000,Canada,CA,CAN,Alberta,Alberta,CA-AB,province,,553.4,1085,1085,3,America/Edmonton,FALSE,1124156956
Noyan,Noyan,,45.0667,-73.3000,Canada,CA,CAN,Quebec,Quebec,CA-QC,province,,29.0,1297,1297,3,America/Toronto,FALSE,1124781949
Leaside,Leaside,,43.7000,-79.3667,Canada,CA,CAN,Ontario,Ontario,CA-ON,province,,1069.5,,,3,America/Toronto,FALSE,1124308191
Vulcan,Vulcan,,50.4000,-113.2500,Canada,CA,CAN,Alberta,Alberta,CA-AB,province,,302.3,1917,1917,3,America/Edmonton,FALSE,1124607765
Kingston,Kingston,,45.4663,-66.0217,Canada,CA,CAN,"New Brunswick","New Brunswick",CA-NB,province,,16.0,3202,3202,4,America/Moncton,FALSE,1124000116
Spuzzum,Spuzzum,,49.6837,-121.4149,Canada,CA,CAN,"British Columbia","British Columbia",CA-BC,province,,10.7,20,20,4,America/Vancouver,FALSE,1124000117
Amherst,Amherst,,46.0500,-74.7667,Canada,CA,CAN,Quebec,Quebec,CA-QC,province,,6.6,1524,1524,3,America/Toronto,FALSE,1124000118
"Nictaux Falls","Nictaux Falls",,44.8646,-65.0339,Canada,CA,CAN,"Nova Scotia","Nova Scotia",CA-NS,province,,3.7,,,5,America/Halifax,FALSE,1124787251
Viewmount,Viewmount,,45.0642,-64.8815,Canada,CA,CAN,"Nova Scotia","Nova Scotia",CA-NS,province,,11.9,,,4,America/Halifax,FALSE,1124880589
"Grey Highlands","Grey Highlands",,44.3333,-80.5000,Canada,CA,CAN,Ontario,Ontario,CA-ON,province,,11.1,9804,9804,3,America/Toronto,FALSE,1124000119
Hodgson,Hodgson,,51.2000,-97.5667,Canada,CA,CAN,Manitoba,Manitoba,CA-MB,province,,3.1,,,5,America/Winnipeg,FALSE,1124425666
"Burtts Corner","Burtts Corner",,46.0187,-66.8776,Canada,CA,CAN,"New Brunswick","New Brunswick",CA-NB,province,,14.0,,,4,America/Moncton,FALSE,1124983330
Tachie,Tachie,,54.6500,-124.7667,Canada,CA,CAN,"British Columbia","British Columbia",CA-BC,province,,0,,,5,America/Vancouver,FALSE,1124890256
Sonier,Sonier,,47.4888,-64.9950,Canada,CA,CAN,"New Brunswick","New Brunswick",CA-NB,province,,60.3,,,4,America/Moncton,FALSE,1124610355
"Coalfields No. 4","Coalfields No. 4",,49.1311,-102.6104,Canada,CA,CAN,Saskatchewan,Saskatchewan,CA-SK,province,,0.40,368.00,368.00,4,America/Regina,FALSE,1124000120
Lac-Sainte-Marie,Lac-Sainte-Marie,,45.9500,-75.9500,Canada,CA,CAN,Quebec,Quebec,CA-QC,province,,2.9,611,611,3,America/Toronto,FALSE,1124254025
Marwayne,Marwayne,,53.5167,-110.3333,Canada,CA,CAN,Alberta,Alberta,CA-AB,province,,352.5,564,564,3,America/Edmonton,FALSE,1124944472
"Latties Brook","Latties Brook",,45.2044,-63.5476,Canada,CA,CAN,"Nova Scotia","Nova Scotia",CA-NS,province,,1.3,,,5,America/Halifax,FALSE,1124281918
Saint-Bernard,Saint-Bernard,,46.5000,-71.1333,Canada,CA,CAN,Quebec,Quebec,CA-QC,province,,23.7,2131,2131,4,America/Toronto,FALSE,1124594239
"Les Chenaux","Les Chenaux",,47.1920,-70.7380,Canada,CA,CAN,Quebec,Quebec,CA-QC,province,,4.5,,,5,America/Toronto,FALSE,1124405765
Reward,Reward,,52.3000,-109.3667,Canada,CA,CAN,Saskatchewan,Saskatchewan,CA-SK,province,,41.4,,,4,America/Swift_Current,FALSE,1124981677
Presque,Presque,,47.4000,-54.5167,Canada,CA,CAN,"Newfoundland and Labrador","Newfoundland and Labrador",CA-NL,province,,0.0,,,5,America/St_Johns,FALSE,1124840648
"Lake Annis","Lake Annis",,44.0560,-66.0050,Canada,CA,CAN,"Nova Scotia","Nova Scotia",CA-NS,province,,4.5,,,5,America/Halifax,FALSE,1124764752
Cookson,Cookson,,53.5333,-106.3167,Canada,CA,CAN,Saskatchewan,Saskatchewan,CA-SK,province,,0.0,,,5,America/Regina,FALSE,1124222203
Stamford,Stamford,,43.1333,-79.1000,Canada,CA,CAN,Ontario,Ontario,CA-ON,province,,2377.8,,,2,America/Toronto,FALSE,1124759461
Veinerville,Veinerville,,50.0342,-110.6280,Canada,CA,CAN,Alberta,Alberta,CA-AB,province,,399.3,70,70,3,America/Edmonton,FALSE,1124000121
"Alkali Lake","Alkali Lake",,51.7667,-122.3000,Canada,CA,CAN,"British Columbia","British Columbia",CA-BC,province,,0.0,,,5,America/Vancouver,FALSE,1124460228
"West LaHave","West LaHave","West Lehave",44.3167,-64.4167,Canada,CA,CAN,"Nova Scotia","Nova Scotia",CA-NS,province,,156.5,,,4,America/Halifax,FALSE,1124206672
"New Gairloch","New Gairloch",,45.4775,-62.8223,Canada,CA,CAN,"Nova Scotia","Nova Scotia",CA-NS,province,,13.9,,,4,America/Halifax,FALSE,1124887956
Dépôt-Esturgeon,Depot-Esturgeon,"Sturgeon Depot",47.0051,-75.7068,Canada,CA,CAN,Quebec,Quebec,CA-QC,province,,0.0,,,5,America/Toronto,FALSE,1124685155
"Flin Flon (Part)","Flin Flon (Part)",,54.7712,-101.8419,Canada,CA,CAN,Manitoba,Manitoba,CA-MB,province,,359.20,4982.00,4982.00,3,America/Winnipeg,FALSE,1124000122
Saint-Eugène-d'Argentenay,Saint-Eugene-d'Argentenay,,48.9833,-72.2833,Canada,CA,CAN,Quebec,Quebec,CA-QC,province,,5.6,487,487,4,America/Toronto,FALSE,1124000123
"Itaska Beach","Itaska Beach",,53.0713,-114.0780,Canada,CA,CAN,Alberta,Alberta,CA-AB,province,,113.4,30,30,3,America/Edmonton,FALSE,1124000124
Tadmore,Tadmore,,51.8347,-102.4793,Canada,CA,CAN,Saskatchewan,Saskatchewan,CA-SK,province,,76.6,20,20,4,America/Regina,FALSE,1124000125
Gamètì,Gameti,,64.1139,-117.3102,Canada,CA,CAN,"Northwest Territories","Northwest Territories",CA-NT,province,,30.30,278.00,278.00,4,America/Yellowknife,FALSE,1124000126
Berwick,Berwick,,45.7278,-65.6011,Canada,CA,CAN,"New Brunswick","New Brunswick",CA-NB,province,,14.7,,,4,America/Moncton,FALSE,1124486987
Hespeler,Hespeler,,43.4315,-80.3087,Canada,CA,CAN,Ontario,Ontario,CA-ON,province,,2355.8,,,2,America/Toronto,FALSE,1124526614
Berwick,Berwick,,45.0475,-64.7360,Canada,CA,CAN,"Nova Scotia","Nova Scotia",CA-NS,province,,381.3,2509,2509,3,America/Halifax,FALSE,1124831957
Colchester,Colchester,,41.9863,-82.9286,Canada,CA,CAN,Ontario,Ontario,CA-ON,province,,750.4,2334,2334,3,America/Toronto,FALSE,1124957381
Airdrie,Airdrie,,51.2917,-114.0144,Canada,CA,CAN,Alberta,Alberta,CA-AB,province,,878.1,74100,74100,3,America/Edmonton,FALSE,1124990202
Northwood,Northwood,,42.4906,-82.0556,Canada,CA,CAN,Ontario,Ontario,CA-ON,province,,7.3,,,5,America/Toronto,FALSE,1124204153
"Nairn and Hyman","Nairn and Hyman",,46.3655,-81.6316,Canada,CA,CAN,Ontario,Ontario,CA-ON,province,,2.10,342.00,342.00,4,America/Toronto,FALSE,1124000128
"Lansdowne House","Lansdowne House",,52.2149,-87.8927,Canada,CA,CAN,Ontario,Ontario,CA-ON,province,,0.00,0.00,0.00,4,America/Toronto,FALSE,1124130748
Micheaudville,Micheaudville,Michaudville,45.8289,-73.0609,Canada,CA,CAN,Quebec,Quebec,CA-QC,province,,85.2,,,4,America/Toronto,FALSE,1124586813
Bloomingdale,Bloomingdale,,43.5087,-80.4615,Canada,CA,CAN,Ontario,Ontario,CA-ON,province,,389.5,230,230,3,America/Toronto,FALSE,1124000129
Sainte-Anne-de-la-Pocatière,Sainte-Anne-de-la-Pocatiere,,47.3500,-70.0000,Canada,CA,CAN,Quebec,Quebec,CA-QC,province,,31.1,1717,1717,3,America/Toronto,FALSE,1124000130
"Fort George","Fort George",Fort-George,53.8333,-79.0167,Canada,CA,CAN,Quebec,Quebec,CA-QC,province,,2.5,,,5,America/Iqaluit,FALSE,1124644757
"Sault Ste. Marie","Sault Ste. Marie","Sault Sainte Marie",46.5333,-84.3500,Canada,CA,CAN,Ontario,Ontario,CA-ON,province,,324.6,72051,72051,3,America/Toronto,FALSE,1124810690
Mull,Mull,,42.3991,-81.9862,Canada,CA,CAN,Ontario,Ontario,CA-ON,province,,6.6,,,5,America/Toronto,FALSE,1124941408
Halvorgate,Halvorgate,,50.6167,-106.7000,Canada,CA,CAN,Saskatchewan,Saskatchewan,CA-SK,province,,0.4,,,5,America/Regina,FALSE,1124952540
Haliburton,Haliburton,,45.0333,-78.5167,Canada,CA,CAN,Ontario,Ontario,CA-ON,province,,11.9,1078,1078,4,America/Toronto,FALSE,1124867191
"Big Shell","Big Shell",,53.1970,-107.1350,Canada,CA,CAN,Saskatchewan,Saskatchewan,CA-SK,province,,43.6,48,48,3,America/Swift_Current,FALSE,1124000131
Henribourg,Henribourg,,53.4000,-105.6167,Canada,CA,CAN,Saskatchewan,Saskatchewan,CA-SK,province,,1.5,,,5,America/Regina,FALSE,1124982722
Roblin,Roblin,,51.2277,-101.3573,Canada,CA,CAN,Manitoba,Manitoba,CA-MB,province,,456.0,1709,1709,3,America/Winnipeg,FALSE,1124751290
Ninga,Ninga,,49.2167,-99.8833,Canada,CA,CAN,Manitoba,Manitoba,CA-MB,province,,0.7,,,5,America/Winnipeg,FALSE,1124943682
Trois-Rives,Trois-Rives,,47.0000,-72.7500,Canada,CA,CAN,Quebec,Quebec,CA-QC,province,,0.8,490,490,3,America/Toronto,FALSE,1124000132
Delta,Delta,"Delta Station",50.1833,-98.3167,Canada,CA,CAN,Manitoba,Manitoba,CA-MB,province,,0.9,,,5,America/Winnipeg,FALSE,1124329260
Conche,Conche,,50.9000,-55.9000,Canada,CA,CAN,"Newfoundland and Labrador","Newfoundland and Labrador",CA-NL,province,,18.40,170,170,3,America/St_Johns,FALSE,1124180441
"Middle Caraquet","Middle Caraquet",,47.7988,-64.8708,Canada,CA,CAN,"New Brunswick","New Brunswick",CA-NB,province,,96.5,,,4,America/Moncton,FALSE,1124882225
Sainte-Marguerite-Marie,Sainte-Marguerite-Marie,,48.3167,-67.0833,Canada,CA,CAN,Quebec,Quebec,CA-QC,province,,2.4,203,203,4,America/Toronto,FALSE,1124000133
"Margaree Harbour","Margaree Harbour",Margaree,46.4488,-61.1307,Canada,CA,CAN,"Nova Scotia","Nova Scotia",CA-NS,province,,13.2,,,4,America/Glace_Bay,FALSE,1124410638
Glendon,Glendon,,54.2483,-111.1536,Canada,CA,CAN,Alberta,Alberta,CA-AB,province,,247.3,493,493,3,America/Edmonton,FALSE,1124700568
Roxton-Sud,Roxton-Sud,"South Roxton",45.5521,-72.5265,Canada,CA,CAN,Quebec,Quebec,CA-QC,province,,7.30,1086.00,1086.00,4,America/Toronto,FALSE,1124174410
"Victory No. 226","Victory No. 226",,50.8413,-107.5386,Canada,CA,CAN,Saskatchewan,Saskatchewan,CA-SK,province,,0.30,380.00,380.00,4,America/Swift_Current,FALSE,1124000134
Garibaldi,Garibaldi,,49.9667,-123.1500,Canada,CA,CAN,"British Columbia","British Columbia",CA-BC,province,,0.3,,,5,America/Vancouver,FALSE,1124813855
Kingman,Kingman,,53.2136,-112.7470,Canada,CA,CAN,Alberta,Alberta,CA-AB,province,,181.9,78,78,4,America/Edmonton,FALSE,1124805551
Sainte-Catherine-de-Hatley,Sainte-Catherine-de-Hatley,,45.2500,-72.0500,Canada,CA,CAN,Quebec,Quebec,CA-QC,province,,28.5,2464,2464,3,America/Toronto,FALSE,1124000135
Wapske,Wapske,,46.8433,-67.3483,Canada,CA,CAN,"New Brunswick","New Brunswick",CA-NB,province,,0.1,,,5,America/Moncton,FALSE,1124096665
"La Présentation","La Presentation",,45.6667,-73.0500,Canada,CA,CAN,Quebec,Quebec,CA-QC,province,,26.1,2466,2466,3,America/Toronto,FALSE,1124865042
Morden,Morden,,49.1919,-98.1006,Canada,CA,CAN,Manitoba,Manitoba,CA-MB,province,,609.6,9929,9929,3,America/Winnipeg,FALSE,1124327817
Neptune,Neptune,,49.3667,-104.0667,Canada,CA,CAN,Saskatchewan,Saskatchewan,CA-SK,province,,0.2,,,5,America/Regina,FALSE,1124817133
Earlton,Earlton,"Earlton Junction",47.7167,-79.8167,Canada,CA,CAN,Ontario,Ontario,CA-ON,province,,17.7,,,4,America/Toronto,FALSE,1124051545
McRae,McRae,,54.3567,-111.7139,Canada,CA,CAN,Alberta,Alberta,CA-AB,province,,0.5,,,5,America/Edmonton,FALSE,1124532615
"Carrying Place","Carrying Place",,44.0469,-77.5757,Canada,CA,CAN,Ontario,Ontario,CA-ON,province,,118.6,,,4,America/Toronto,FALSE,1124090589
"St. Louis No. 431","St. Louis No. 431",,52.8277,-105.7873,Canada,CA,CAN,Saskatchewan,Saskatchewan,CA-SK,province,,1.40,1086.00,1086.00,4,America/Regina,FALSE,1124000136
Ajax,Ajax,,43.8583,-79.0364,Canada,CA,CAN,Ontario,Ontario,CA-ON,province,,1900.6,126666,126666,2,America/Toronto,FALSE,1124382916
Laurentides,Laurentides,,45.8500,-73.7667,Canada,CA,CAN,Quebec,Quebec,CA-QC,province,,475.1,15768,15768,3,America/Toronto,FALSE,1124093347
Duntara,Duntara,,48.5861,-53.3811,Canada,CA,CAN,"Newfoundland and Labrador","Newfoundland and Labrador",CA-NL,province,,1.70,30,30,4,America/St_Johns,FALSE,1124000137
"Upper Big Tracadie","Upper Big Tracadie",,45.5836,-61.5475,Canada,CA,CAN,"Nova Scotia","Nova Scotia",CA-NS,province,,0.0,,,5,America/Glace_Bay,FALSE,1124578370
Pakan,Pakan,,54.0047,-112.4050,Canada,CA,CAN,Alberta,Alberta,CA-AB,province,,1.8,,,5,America/Edmonton,FALSE,1124150270
Brock,Brock,,51.4417,-108.7169,Canada,CA,CAN,Saskatchewan,Saskatchewan,CA-SK,province,,192.8,142,142,3,America/Swift_Current,FALSE,1124000138
Hilliers,Hilliers,Hillier,49.3022,-124.4727,Canada,CA,CAN,"British Columbia","British Columbia",CA-BC,province,,54.7,1590,1590,4,America/Vancouver,FALSE,1124744995
"Orkney No. 244","Orkney No. 244",,51.2557,-102.6469,Canada,CA,CAN,Saskatchewan,Saskatchewan,CA-SK,province,,2.4,1883,1883,4,America/Regina,FALSE,1124000139
Veteran,Veteran,,52.0036,-111.1236,Canada,CA,CAN,Alberta,Alberta,CA-AB,province,,246.9,207,207,3,America/Edmonton,FALSE,1124098898
Whitecap,Whitecap,,51.8808,-106.7188,Canada,CA,CAN,Saskatchewan,Saskatchewan,CA-SK,province,,26.5,511,511,4,America/Regina,FALSE,1124000140
Laurierville,Laurierville,,46.3000,-71.6500,Canada,CA,CAN,Quebec,Quebec,CA-QC,province,,195.8,701,701,4,America/Toronto,FALSE,1124864029
Vaughan,Vaughan,,43.8333,-79.5000,Canada,CA,CAN,Ontario,Ontario,CA-ON,province,,1185.9,323103,323103,2,America/Toronto,FALSE,1124000141
Ceepeecee,Ceepeecee,,49.8667,-126.7000,Canada,CA,CAN,"British Columbia","British Columbia",CA-BC,province,,0.0,,,5,America/Vancouver,FALSE,1124041565
Alliston,Alliston,,44.1500,-79.8667,Canada,CA,CAN,Ontario,Ontario,CA-ON,province,,356.1,23253,23253,3,America/Toronto,FALSE,1124831787
Goshen,Goshen,,45.3833,-61.9833,Canada,CA,CAN,"Nova Scotia","Nova Scotia",CA-NS,province,,3.5,,,5,America/Glace_Bay,FALSE,1124936287
Naco,Naco,,51.7000,-110.8000,Canada,CA,CAN,Alberta,Alberta,CA-AB,province,,0.0,,,5,America/Edmonton,FALSE,1124910970
Westport,Westport,,49.7830,-56.6330,Canada,CA,CAN,"Newfoundland and Labrador","Newfoundland and Labrador",CA-NL,province,,38.00,195,195,3,America/St_Johns,FALSE,1124734300
Westport,Westport,,44.2561,-66.3652,Canada,CA,CAN,"Nova Scotia","Nova Scotia",CA-NS,province,,16.5,193,193,4,America/Halifax,FALSE,1124828717
Pineau,Pineau,,46.7072,-65.3363,Canada,CA,CAN,"New Brunswick","New Brunswick",CA-NB,province,,4.9,,,5,America/Moncton,FALSE,1124731228
Salluit,Salluit,Sugluk|Saglouc,62.2013,-75.6337,Canada,CA,CAN,Quebec,Quebec,CA-QC,province,,101.10,1483.00,1483.00,4,America/Toronto,FALSE,1124962070
Hafford,Hafford,,52.8420,-107.3820,Canada,CA,CAN,Saskatchewan,Saskatchewan,CA-SK,province,,496.8,407,407,3,America/Swift_Current,FALSE,1124665844
Consecon,Consecon,,43.9958,-77.5199,Canada,CA,CAN,Ontario,Ontario,CA-ON,province,,401.4,,,3,America/Toronto,FALSE,1124399841
Saint-Augustin-de-Woburn,Saint-Augustin-de-Woburn,,45.3800,-70.8500,Canada,CA,CAN,Quebec,Quebec,CA-QC,province,,2.5,695,695,4,America/Toronto,FALSE,1124000142
Lanark,Lanark,,45.0179,-76.3711,Canada,CA,CAN,Ontario,Ontario,CA-ON,province,,168.4,803,803,4,America/Toronto,FALSE,1124385853
Sweetsburg,Sweetsburg,,45.2129,-72.7122,Canada,CA,CAN,Quebec,Quebec,CA-QC,province,,209.5,,,3,America/Toronto,FALSE,1124855878
Ozanam,Ozanam,,47.2630,-70.2230,Canada,CA,CAN,Quebec,Quebec,CA-QC,province,,31.4,,,4,America/Toronto,FALSE,1124463361
Bonne-Espérance,Bonne-Esperance,,51.3833,-57.6667,Canada,CA,CAN,Quebec,Quebec,CA-QC,province,,1.1,732,732,3,America/Blanc-Sablon,FALSE,1124000143
Atikup,Atikup,,52.7667,-90.7833,Canada,CA,CAN,Ontario,Ontario,CA-ON,province,,0.0,,,5,America/Winnipeg,FALSE,1124402858
"Saint-Louis de Kent","Saint-Louis de Kent","Saint Louis de Kent",46.7380,-64.9740,Canada,CA,CAN,"New Brunswick","New Brunswick",CA-NB,province,,426.3,856,856,3,America/Moncton,FALSE,1124123124
Longworth,Longworth,,53.9333,-121.4667,Canada,CA,CAN,"British Columbia","British Columbia",CA-BC,province,,0.0,,,5,America/Vancouver,FALSE,1124301530
Nazko,Nazko,,53.0000,-123.6167,Canada,CA,CAN,"British Columbia","British Columbia",CA-BC,province,,0.3,,,5,America/Vancouver,FALSE,1124233582
Lucerne,Lucerne,,52.8667,-118.5500,Canada,CA,CAN,"British Columbia","British Columbia",CA-BC,province,,0.0,,,5,America/Vancouver,FALSE,1124435273
Maitland,Maitland,,44.6420,-75.6145,Canada,CA,CAN,Ontario,Ontario,CA-ON,province,,14.3,,,4,America/Toronto,FALSE,1124084218
Nechacco,Nechacco,,53.9167,-124.1667,Canada,CA,CAN,"British Columbia","British Columbia",CA-BC,province,,2.2,,,5,America/Vancouver,FALSE,1124956014
Ivanhoe,Ivanhoe,,48.1833,-53.5333,Canada,CA,CAN,"Newfoundland and Labrador","Newfoundland and Labrador",CA-NL,province,,0.8,,,5,America/St_Johns,FALSE,1124557113
"Red Point","Red Point",,53.4833,-55.9000,Canada,CA,CAN,"Newfoundland and Labrador","Newfoundland and Labrador",CA-NL,province,,0.0,,,5,America/St_Johns,FALSE,1124374659
"Lake Lenore","Lake Lenore",,52.3930,-104.9410,Canada,CA,CAN,Saskatchewan,Saskatchewan,CA-SK,province,,292.9,284,284,3,America/Regina,FALSE,1124160958
Saint-Basile,Saint-Basile,,47.4233,-68.1847,Canada,CA,CAN,"New Brunswick","New Brunswick",CA-NB,province,,5.7,736,736,4,America/Moncton,FALSE,1124649065
Leismer,Leismer,,55.7558,-111.0414,Canada,CA,CAN,Alberta,Alberta,CA-AB,province,,0.0,,,5,America/Edmonton,FALSE,1124371538
Teulon,Teulon,,50.3858,-97.2611,Canada,CA,CAN,Manitoba,Manitoba,CA-MB,province,,372.3,1201,1201,3,America/Winnipeg,FALSE,1124616630
"Cameron Bay","Cameron Bay","Port Radium|Fort Radium",66.0500,-117.8833,Canada,CA,CAN,"Northwest Territories","Northwest Territories",CA-NT,province,,0,,,5,America/Yellowknife,FALSE,1124963495
"West Dublin","West Dublin",,44.2183,-64.3825,Canada,CA,CAN,"Nova Scotia","Nova Scotia",CA-NS,province,,0.0,,,5,America/Halifax,FALSE,1124011285
"Cobble Hill","Cobble Hill",,48.6865,-123.5959,Canada,CA,CAN,"British Columbia","British Columbia",CA-BC,province,,511.4,3610,3610,3,America/Vancouver,FALSE,1124752380
Crysler,Crysler,,45.2194,-75.1484,Canada,CA,CAN,Ontario,Ontario,CA-ON,province,,24.6,,,4,America/Toronto,FALSE,1124493102
Lakelse,Lakelse,,54.3667,-128.5500,Canada,CA,CAN,"British Columbia","British Columbia",CA-BC,province,,4.8,,,5,America/Vancouver,FALSE,1124606170
Saint-Honoré,Saint-Honore,,48.5333,-71.0833,Canada,CA,CAN,Quebec,Quebec,CA-QC,province,,33.7,6376,6376,4,America/Toronto,FALSE,1124504668
Thode,Thode,,51.7890,-106.4430,Canada,CA,CAN,Saskatchewan,Saskatchewan,CA-SK,province,,226.0,163,163,3,America/Regina,FALSE,1124000144
"Pynns Brook","Pynns Brook",,49.0833,-57.5500,Canada,CA,CAN,"Newfoundland and Labrador","Newfoundland and Labrador",CA-NL,province,,5.7,,,5,America/St_Johns,FALSE,1124552820
"King Kirkland","King Kirkland",,48.1500,-79.9500,Canada,CA,CAN,Ontario,Ontario,CA-ON,province,,0.9,,,5,America/Toronto,FALSE,1124111592
"Holland Landing","Holland Landing",,44.0973,-79.4887,Canada,CA,CAN,Ontario,Ontario,CA-ON,province,,1563.6,,,3,America/Toronto,FALSE,1124953379
"Star City No. 428","Star City No. 428",,52.7973,-104.3962,Canada,CA,CAN,Saskatchewan,Saskatchewan,CA-SK,province,,1.10,918.00,918.00,4,America/Regina,FALSE,1124000145
"North Vancouver","North Vancouver",,49.3202,-123.0699,Canada,CA,CAN,"British Columbia","British Columbia",CA-BC,province,,4913.0,58120,58120,2,America/Vancouver,FALSE,1124000146
"North Battleford No. 437","North Battleford No. 437",,52.8132,-108.1137,Canada,CA,CAN,Saskatchewan,Saskatchewan,CA-SK,province,,0.90,725.00,725.00,4,America/Swift_Current,FALSE,1124000147
Cadillac,Cadillac,,48.2167,-78.3833,Canada,CA,CAN,Quebec,Quebec,CA-QC,province,,1.1,,,5,America/Toronto,FALSE,1124396922
Somme,Somme,,52.5833,-102.9667,Canada,CA,CAN,Saskatchewan,Saskatchewan,CA-SK,province,,0.1,,,5,America/Regina,FALSE,1124843333
"Zenon Park","Zenon Park",,53.0640,-103.7540,Canada,CA,CAN,Saskatchewan,Saskatchewan,CA-SK,province,,415.2,231,231,3,America/Regina,FALSE,1124000148
"Crystal Falls","Crystal Falls",,46.4500,-79.8833,Canada,CA,CAN,Ontario,Ontario,CA-ON,province,,3.9,,,5,America/Toronto,FALSE,1124931568
"Mountain (South)","Mountain (South)",,51.9036,-100.4445,Canada,CA,CAN,Manitoba,Manitoba,CA-MB,province,,0.30,419.00,419.00,4,America/Winnipeg,FALSE,1124000149
"Cowichan Bay","Cowichan Bay",,48.7666,-123.6743,Canada,CA,CAN,"British Columbia","British Columbia",CA-BC,province,,104.5,2799,2420,4,America/Vancouver,FALSE,1124254242
Sainte-Hélène-de-Bagot,Sainte-Helene-de-Bagot,,45.7333,-72.7333,Canada,CA,CAN,Quebec,Quebec,CA-QC,province,,22.3,1637,1637,3,America/Toronto,FALSE,1124837882
Pleasantview,Pleasantview,,49.3612,-55.3403,Canada,CA,CAN,"Newfoundland and Labrador","Newfoundland and Labrador",CA-NL,province,,9.4,42,42,4,America/St_Johns,FALSE,1124000150
Bridgeport,Bridgeport,,43.4833,-80.4833,Canada,CA,CAN,Ontario,Ontario,CA-ON,province,,471.9,,,3,America/Toronto,FALSE,1124852761
"South Lake","South Lake",,50.6780,-105.5660,Canada,CA,CAN,Saskatchewan,Saskatchewan,CA-SK,province,,32.4,169,169,4,America/Regina,FALSE,1124000151
Eganville,Eganville,,45.5333,-77.1000,Canada,CA,CAN,Ontario,Ontario,CA-ON,province,,88.4,1149,1149,4,America/Toronto,FALSE,1124084541
Laval-des-Rapides,Laval-des-Rapides,,45.5500,-73.7000,Canada,CA,CAN,Quebec,Quebec,CA-QC,province,,6159.2,,,2,America/Toronto,FALSE,1124600656
Blenheim,Blenheim,,42.3333,-82.0000,Canada,CA,CAN,Ontario,Ontario,CA-ON,province,,1164.7,4487,4487,3,America/Toronto,FALSE,1124033209
"Ellice River","Ellice River",,68.0333,-103.4333,Canada,CA,CAN,Nunavut,Nunavut,CA-NU,province,,0.0,,,5,America/Cambridge_Bay,FALSE,1124914155
Griswold,Griswold,,49.7667,-100.4667,Canada,CA,CAN,Manitoba,Manitoba,CA-MB,province,,1.9,,,5,America/Winnipeg,FALSE,1124418092
"Apple Hill","Apple Hill",,45.2194,-74.7646,Canada,CA,CAN,Ontario,Ontario,CA-ON,province,,13.8,,,4,America/Toronto,FALSE,1124333891
"Enfield No. 194","Enfield No. 194",,50.7109,-106.6774,Canada,CA,CAN,Saskatchewan,Saskatchewan,CA-SK,province,,0.20,226.00,226.00,4,America/Regina,FALSE,1124000152
Verner,Verner,,46.4000,-80.1167,Canada,CA,CAN,Ontario,Ontario,CA-ON,province,,7.4,,,5,America/Toronto,FALSE,1124227606
"Cap Pele","Cap Pele",Cap-Pelé,46.2172,-64.2822,Canada,CA,CAN,"New Brunswick","New Brunswick",CA-NB,province,,103.80,2425.00,2425.00,4,America/Moncton,FALSE,1124541608
"Oakdale No. 320","Oakdale No. 320",,51.7510,-109.1935,Canada,CA,CAN,Saskatchewan,Saskatchewan,CA-SK,province,,0.30,253.00,253.00,4,America/Swift_Current,FALSE,1124000153
Massabielle,Massabielle,,47.6689,-65.8623,Canada,CA,CAN,"New Brunswick","New Brunswick",CA-NB,province,,8.2,,,5,America/Moncton,FALSE,1124694656
Mirabel,Mirabel,Sainte-Scholastique,45.6500,-74.0833,Canada,CA,CAN,Quebec,Quebec,CA-QC,province,,126.2,61108,61108,3,America/Toronto,FALSE,1124182375
"Central Butte","Central Butte",,50.7920,-106.5080,Canada,CA,CAN,Saskatchewan,Saskatchewan,CA-SK,province,,166.3,372,372,3,America/Regina,FALSE,1124000154
Cardston,Cardston,,49.2025,-113.3019,Canada,CA,CAN,Alberta,Alberta,CA-AB,province,,417.5,3585,3585,3,America/Edmonton,FALSE,1124479644
Taloyoak,Taloyoak,"Spence Bay",69.5554,-93.4972,Canada,CA,CAN,Nunavut,Nunavut,CA-NU,province,,27.30,1029.00,1029.00,4,America/Cambridge_Bay,FALSE,1124099415
"Coal Harbour","Coal Harbour",,50.6000,-127.5833,Canada,CA,CAN,"British Columbia","British Columbia",CA-BC,province,,69.5,,,4,America/Vancouver,FALSE,1124621249
Southampton,Southampton,,46.0789,-67.3124,Canada,CA,CAN,"New Brunswick","New Brunswick",CA-NB,province,,3.30,1484.00,1484.00,4,America/Moncton,FALSE,1124711539
Plenty,Plenty,,51.8010,-108.8380,Canada,CA,CAN,Saskatchewan,Saskatchewan,CA-SK,province,,251.3,164,164,3,America/Swift_Current,FALSE,1124000155
"Fortune Bridge","Fortune Bridge",,46.3476,-62.3825,Canada,CA,CAN,"Prince Edward Island","Prince Edward Island",CA-PE,province,,33.8,,,4,America/Halifax,FALSE,1124532418
"Bell Rock","Bell Rock",,60.0167,-112.1000,Canada,CA,CAN,"Northwest Territories","Northwest Territories",CA-NT,province,,0.8,,,5,America/Yellowknife,FALSE,1124427336
"Bay de Verde","Bay de Verde",,48.0833,-52.8944,Canada,CA,CAN,"Newfoundland and Labrador","Newfoundland and Labrador",CA-NL,province,,29.5,392,392,3,America/St_Johns,FALSE,1124416729
Saint-Pie-de-Guire,Saint-Pie-de-Guire,,46.0000,-72.7500,Canada,CA,CAN,Quebec,Quebec,CA-QC,province,,8.9,456,456,4,America/Toronto,FALSE,1124638293
Fond-d’Ormes,Fond-d'Ormes,"Pond des Ormes",48.1916,-68.3362,Canada,CA,CAN,Quebec,Quebec,CA-QC,province,,0.1,,,5,America/Toronto,FALSE,1124064618
"West Kildonan","West Kildonan",,49.9333,-97.1167,Canada,CA,CAN,Manitoba,Manitoba,CA-MB,province,,2730.6,,,2,America/Winnipeg,FALSE,1124190347
Tidnish,Tidnish,,45.9878,-64.0086,Canada,CA,CAN,"Nova Scotia","Nova Scotia",CA-NS,province,,16.6,,,4,America/Halifax,FALSE,1124343854
"Fort Providence","Fort Providence",Providence,61.4213,-117.6176,Canada,CA,CAN,"Northwest Territories","Northwest Territories",CA-NT,province,,2.70,695.00,695.00,4,America/Yellowknife,FALSE,1124799173
Bassano,Bassano,,50.7833,-112.4667,Canada,CA,CAN,Alberta,Alberta,CA-AB,province,,231.2,1206,1206,3,America/Edmonton,FALSE,1124776374
"Portugal Cove South","Portugal Cove South",,46.7106,-53.2578,Canada,CA,CAN,"Newfoundland and Labrador","Newfoundland and Labrador",CA-NL,province,,131.5,150,150,3,America/St_Johns,FALSE,1124709853
McMurphy,McMurphy,,51.6667,-119.5167,Canada,CA,CAN,"British Columbia","British Columbia",CA-BC,province,,0.1,,,5,America/Vancouver,FALSE,1124571997
"Western Bay","Western Bay",,47.9000,-53.0833,Canada,CA,CAN,"Newfoundland and Labrador","Newfoundland and Labrador",CA-NL,province,,66.2,,,4,America/St_Johns,FALSE,1124237076
Lomond,Lomond,,49.4500,-57.7667,Canada,CA,CAN,"Newfoundland and Labrador","Newfoundland and Labrador",CA-NL,province,,0.0,,,5,America/St_Johns,FALSE,1124452602
Lund,Lund,,49.9868,-124.7493,Canada,CA,CAN,"British Columbia","British Columbia",CA-BC,province,,56.4,292,292,4,America/Vancouver,FALSE,1124435369
"Dominion City","Dominion City",,49.1333,-97.1500,Canada,CA,CAN,Manitoba,Manitoba,CA-MB,province,,0.0,,,5,America/Winnipeg,FALSE,1124419673
Butedale,Butedale,,53.1500,-128.6833,Canada,CA,CAN,"British Columbia","British Columbia",CA-BC,province,,0.0,,,5,America/Vancouver,FALSE,1124300924
"Cambridge Bay","Cambridge Bay",Ikaluktutiak,69.1528,-105.1707,Canada,CA,CAN,Nunavut,Nunavut,CA-NU,province,,8.70,1766.00,1766.00,4,America/Cambridge_Bay,FALSE,1124596377
Kitimat,Kitimat,Kitamaat,54.0000,-128.7000,Canada,CA,CAN,"British Columbia","British Columbia",CA-BC,province,,34.7,8131,8131,3,America/Vancouver,FALSE,1124198272
Coaldale,Coaldale,,49.7333,-112.6167,Canada,CA,CAN,Alberta,Alberta,CA-AB,province,,645.9,8771,8771,3,America/Edmonton,FALSE,1124989507
"Saint George","Saint George",,45.2916,-66.8501,Canada,CA,CAN,"New Brunswick","New Brunswick",CA-NB,province,,4.70,2341.00,2341.00,4,America/Moncton,FALSE,1124000156
Avonport,Avonport,,45.1000,-64.2500,Canada,CA,CAN,"Nova Scotia","Nova Scotia",CA-NS,province,,69.3,,,4,America/Halifax,FALSE,1124703696
"Cat Lake","Cat Lake",,51.7170,-91.8000,Canada,CA,CAN,Ontario,Ontario,CA-ON,province,,0.0,,,5,America/Winnipeg,FALSE,1124908580
Odessa,Odessa,,44.2771,-76.7203,Canada,CA,CAN,Ontario,Ontario,CA-ON,province,,670.1,,,3,America/Toronto,FALSE,1124130579
Monteith,Monteith,,48.6500,-80.6833,Canada,CA,CAN,Ontario,Ontario,CA-ON,province,,83.9,,,4,America/Toronto,FALSE,1124455844
Sainte-Françoise,Sainte-Francoise,,46.4500,-71.9833,Canada,CA,CAN,Quebec,Quebec,CA-QC,province,,5.5,479,479,4,America/Toronto,FALSE,1124000157
Orangeville,Orangeville,,43.9167,-80.1167,Canada,CA,CAN,Ontario,Ontario,CA-ON,province,,1989.5,34177,30167,3,America/Toronto,FALSE,1124566061
"Spring Lake","Spring Lake",,53.5194,-114.1244,Canada,CA,CAN,Alberta,Alberta,CA-AB,province,,312.3,711,711,3,America/Edmonton,FALSE,1124000158
Arvida,Arvida,,48.4333,-71.1833,Canada,CA,CAN,Quebec,Quebec,CA-QC,province,,1358.7,,,3,America/Toronto,FALSE,1124577273
Ragueneau,Ragueneau,,49.0667,-68.5333,Canada,CA,CAN,Quebec,Quebec,CA-QC,province,,7.3,1314,1314,4,America/Toronto,FALSE,1124000159
"Webb No. 138","Webb No. 138",,50.1353,-108.2613,Canada,CA,CAN,Saskatchewan,Saskatchewan,CA-SK,province,,0.50,541.00,541.00,4,America/Swift_Current,FALSE,1124000160
"Coe Hill","Coe Hill","Coe Hill Mines",44.8500,-77.8333,Canada,CA,CAN,Ontario,Ontario,CA-ON,province,,5.2,,,5,America/Toronto,FALSE,1124070420
Traytown,Traytown,,48.6611,-53.9783,Canada,CA,CAN,"Newfoundland and Labrador","Newfoundland and Labrador",CA-NL,province,,20.1,267,267,4,America/St_Johns,FALSE,1124000161
"Livingstone Cove","Livingstone Cove",,45.8667,-61.9667,Canada,CA,CAN,"Nova Scotia","Nova Scotia",CA-NS,province,,3.1,,,5,America/Glace_Bay,FALSE,1124078731
Saint-Pierre-de-la-Rivière-du-Sud,Saint-Pierre-de-la-Riviere-du-Sud,,46.9167,-70.6333,Canada,CA,CAN,Quebec,Quebec,CA-QC,province,,9.8,920,920,4,America/Toronto,FALSE,1124000162
"Seal Cove","Seal Cove",,47.4667,-53.0833,Canada,CA,CAN,"Newfoundland and Labrador","Newfoundland and Labrador",CA-NL,province,,243.5,,,3,America/St_Johns,FALSE,1124913453
"Pond Cove","Pond Cove","Pound Cove",51.1333,-56.8000,Canada,CA,CAN,"Newfoundland and Labrador","Newfoundland and Labrador",CA-NL,province,,0.3,,,5,America/St_Johns,FALSE,1124237804
"Seal Cove","Seal Cove",,44.6545,-66.8407,Canada,CA,CAN,"New Brunswick","New Brunswick",CA-NB,province,,28.6,,,4,America/Moncton,FALSE,1124150472
Beckwith,Beckwith,,45.0833,-76.0667,Canada,CA,CAN,Ontario,Ontario,CA-ON,province,,37.7,9021,9021,3,America/Toronto,FALSE,1124000163
"Pine Point","Pine Point",,60.8333,-114.4667,Canada,CA,CAN,"Northwest Territories","Northwest Territories",CA-NT,province,,0.0,,,5,America/Yellowknife,FALSE,1124479266
Snowflake,Snowflake,,49.0359,-98.6423,Canada,CA,CAN,Manitoba,Manitoba,CA-MB,province,,0.1,,,5,America/Winnipeg,FALSE,1124147415
Venice,Venice,,54.6981,-112.1472,Canada,CA,CAN,Alberta,Alberta,CA-AB,province,,18.6,,,4,America/Edmonton,FALSE,1124652455
"Wyse Corner","Wyse Corner",,44.9229,-63.2688,Canada,CA,CAN,"Nova Scotia","Nova Scotia",CA-NS,province,,0.3,,,5,America/Halifax,FALSE,1124801187
"South Baptiste","South Baptiste",,54.7240,-113.5693,Canada,CA,CAN,Alberta,Alberta,CA-AB,province,,70.9,66,66,3,America/Edmonton,FALSE,1124000164
Tichfield,Tichfield,,51.2667,-107.0167,Canada,CA,CAN,Saskatchewan,Saskatchewan,CA-SK,province,,0.5,,,5,America/Swift_Current,FALSE,1124332957
Weldford,Weldford,,46.5221,-65.1114,Canada,CA,CAN,"New Brunswick","New Brunswick",CA-NB,province,,2.20,1338.00,1338.00,4,America/Moncton,FALSE,1124000165
"Bryant's Cove","Bryant's Cove",,47.6714,-53.1872,Canada,CA,CAN,"Newfoundland and Labrador","Newfoundland and Labrador",CA-NL,province,,80.9,395,395,4,America/St_Johns,FALSE,1124000166
Arntfield,Arntfield,,48.2000,-79.2500,Canada,CA,CAN,Quebec,Quebec,CA-QC,province,,3.7,,,5,America/Toronto,FALSE,1124864221
Trenton,Trenton,,45.6193,-62.6332,Canada,CA,CAN,"Nova Scotia","Nova Scotia",CA-NS,province,,396.7,2407,2407,3,America/Halifax,FALSE,1124776153
"Escuminac Flats","Escuminac Flats",,48.1238,-66.4926,Canada,CA,CAN,Quebec,Quebec,CA-QC,province,,5.00,544.00,544.00,4,America/Toronto,FALSE,1124241687
Saint-René-de-Matane,Saint-Rene-de-Matane,,48.7000,-67.3833,Canada,CA,CAN,Quebec,Quebec,CA-QC,province,,3.8,961,961,4,America/Toronto,FALSE,1124000167
Grandes-Bergeronnes,Grandes-Bergeronnes,"Les Bergeronnes",48.2500,-69.5500,Canada,CA,CAN,Quebec,Quebec,CA-QC,province,,2.5,693,693,3,America/Toronto,FALSE,1124760750
Belledune,Belledune,,47.9000,-65.8167,Canada,CA,CAN,"New Brunswick","New Brunswick",CA-NB,province,,8.2,1548,1548,3,America/Moncton,FALSE,1124444357
Burstall,Burstall,,50.6500,-109.9167,Canada,CA,CAN,Saskatchewan,Saskatchewan,CA-SK,province,,269.1,300,300,3,America/Swift_Current,FALSE,1124364837
Shedden,Shedden,,42.7407,-81.3471,Canada,CA,CAN,Ontario,Ontario,CA-ON,province,,152.9,,,4,America/Toronto,FALSE,1124325842
Fairhaven,Fairhaven,,47.5369,-53.8896,Canada,CA,CAN,"Newfoundland and Labrador","Newfoundland and Labrador",CA-NL,province,,9.4,55,55,4,America/St_Johns,FALSE,1124000168
Taché,Tache,,49.7081,-96.6736,Canada,CA,CAN,Manitoba,Manitoba,CA-MB,province,,20.5,11916,11916,3,America/Winnipeg,FALSE,1124000169
Baie-Comeau,Baie-Comeau,"Comeau Bay|Anse Comeau",49.2167,-68.1500,Canada,CA,CAN,Quebec,Quebec,CA-QC,province,,61.8,20687,20687,3,America/Toronto,FALSE,1124859576
"Long Beach","Long Beach",,42.8678,-79.3848,Canada,CA,CAN,Ontario,Ontario,CA-ON,province,,38.0,,,4,America/Toronto,FALSE,1124214018
Telkwa,Telkwa,,54.6972,-127.0500,Canada,CA,CAN,"British Columbia","British Columbia",CA-BC,province,,191.9,1327,1327,3,America/Vancouver,FALSE,1124000170
Disraeli,Disraeli,,45.9000,-71.3500,Canada,CA,CAN,Quebec,Quebec,CA-QC,province,,362.1,2502,2502,3,America/Toronto,FALSE,1124115327
"Seven Sister Falls","Seven Sister Falls","Seven Sisters Falls",50.1167,-96.0333,Canada,CA,CAN,Manitoba,Manitoba,CA-MB,province,,3.1,,,5,America/Winnipeg,FALSE,1124948802
"McDowell Lake","McDowell Lake",,52.2127,-92.7160,Canada,CA,CAN,Ontario,Ontario,CA-ON,province,,0.00,0.00,0.00,4,America/Winnipeg,FALSE,1124000171
Saint-Jean-Chrysostome,Saint-Jean-Chrysostome,,46.7201,-71.1964,Canada,CA,CAN,Quebec,Quebec,CA-QC,province,,2458.7,,,2,America/Toronto,FALSE,1124563739
Arichat,Arichat,,45.5411,-60.9718,Canada,CA,CAN,"Nova Scotia","Nova Scotia",CA-NS,province,,24.4,,,4,America/Glace_Bay,FALSE,1124833651
"Brûlé Lake","Brule Lake","Brûlé Lake Station",45.6333,-78.8167,Canada,CA,CAN,Ontario,Ontario,CA-ON,province,,0.0,,,5,America/Toronto,FALSE,1124140401
Saint-Lucien,Saint-Lucien,,45.8667,-72.2667,Canada,CA,CAN,Quebec,Quebec,CA-QC,province,,16.2,1801,1801,4,America/Toronto,FALSE,1124000172
"Moosehide Creek 2","Moosehide Creek 2",,64.1085,-139.4244,Canada,CA,CAN,Yukon,Yukon,CA-YT,province,,0.00,0.00,0.00,4,America/Dawson,FALSE,1124000173
"Ituna Bon Accord No. 246","Ituna Bon Accord No. 246",,51.2547,-103.4842,Canada,CA,CAN,Saskatchewan,Saskatchewan,CA-SK,province,,0.40,374.00,374.00,4,America/Regina,FALSE,1124000174
Hilda,Hilda,,50.4805,-110.0317,Canada,CA,CAN,Alberta,Alberta,CA-AB,province,,94.2,40,40,4,America/Edmonton,FALSE,1124804775
Waiparous,Waiparous,,51.2821,-114.8410,Canada,CA,CAN,Alberta,Alberta,CA-AB,province,,118.6,49,49,3,America/Edmonton,FALSE,1124000175
Cloverdale,Cloverdale,,46.2622,-67.3547,Canada,CA,CAN,"New Brunswick","New Brunswick",CA-NB,province,,3.1,,,5,America/Moncton,FALSE,1124044022
Bromont,Bromont,,45.3167,-72.6500,Canada,CA,CAN,Quebec,Quebec,CA-QC,province,,99.6,11357,11357,3,America/Toronto,FALSE,1124286457
"Criss Creek","Criss Creek",,51.0333,-120.7333,Canada,CA,CAN,"British Columbia","British Columbia",CA-BC,province,,0.0,,,5,America/Vancouver,FALSE,1124003576
Pointe-au-Pic,Pointe-au-Pic,"Murray Bay",47.6333,-70.1500,Canada,CA,CAN,Quebec,Quebec,CA-QC,province,,412.1,,,3,America/Toronto,FALSE,1124472378
Elgin,Elgin,,45.0222,-74.2292,Canada,CA,CAN,Quebec,Quebec,CA-QC,province,,5.8,401,401,3,America/Toronto,FALSE,1124000176
"Camp Borden","Camp Borden",,44.2667,-79.8833,Canada,CA,CAN,Ontario,Ontario,CA-ON,province,,0.0,,,5,America/Toronto,FALSE,1124162787
Standhope,Standhope,tanhope|Stanhope,49.2700,-55.0972,Canada,CA,CAN,"Newfoundland and Labrador","Newfoundland and Labrador",CA-NL,province,,38.9,183,183,4,America/St_Johns,FALSE,1124637332
Saint-Hermas,Saint-Hermas,,45.6069,-74.1919,Canada,CA,CAN,Quebec,Quebec,CA-QC,province,,29.9,,,4,America/Toronto,FALSE,1124048676
"Fort Simpson","Fort Simpson",Simpson,61.8082,-121.3199,Canada,CA,CAN,"Northwest Territories","Northwest Territories",CA-NT,province,,15.30,1202.00,1202.00,4,America/Inuvik,FALSE,1124669512
Crestwynd,Crestwynd,,50.1000,-105.7000,Canada,CA,CAN,Saskatchewan,Saskatchewan,CA-SK,province,,0.3,,,5,America/Regina,FALSE,1124770302
Saint-Alexandre-des-Lacs,Saint-Alexandre-des-Lacs,,48.4667,-67.3000,Canada,CA,CAN,Quebec,Quebec,CA-QC,province,,2.9,258,258,4,America/Toronto,FALSE,1124000177
"North Bay","North Bay",,46.3000,-79.4500,Canada,CA,CAN,Ontario,Ontario,CA-ON,province,,166.9,52662,52662,3,America/Toronto,FALSE,1124058496
Steveston,Steveston,,49.1333,-123.1833,Canada,CA,CAN,"British Columbia","British Columbia",CA-BC,province,,4341.6,,,2,America/Vancouver,FALSE,1124042367
Saint-Dominique-du-Rosaire,Saint-Dominique-du-Rosaire,,48.7667,-78.1167,Canada,CA,CAN,Quebec,Quebec,CA-QC,province,,0.9,434,434,4,America/Toronto,FALSE,1124000178
Canso,Canso,,45.3654,-60.9418,Canada,CA,CAN,"Nova Scotia","Nova Scotia",CA-NS,province,,0,,,5,America/Glace_Bay,FALSE,1124196362
Ingramport,Ingramport,,44.6667,-63.9500,Canada,CA,CAN,"Nova Scotia","Nova Scotia",CA-NS,province,,235.7,,,3,America/Halifax,FALSE,1124124564
"Little Longlac","Little Longlac",,49.7000,-86.9500,Canada,CA,CAN,Ontario,Ontario,CA-ON,province,,0.4,,,5,America/Toronto,FALSE,1124548111
"Bay L'Argent","Bay L'Argent",,47.5458,-54.8828,Canada,CA,CAN,"Newfoundland and Labrador","Newfoundland and Labrador",CA-NL,province,,29.5,241,241,3,America/St_Johns,FALSE,1124000179
Byemoor,Byemoor,,51.9793,-112.2842,Canada,CA,CAN,Alberta,Alberta,CA-AB,province,,51.1,30,30,4,America/Edmonton,FALSE,1124000180
Paulatuk,Paulatuk,,69.3253,-123.9851,Canada,CA,CAN,"Northwest Territories","Northwest Territories",CA-NT,province,,4.00,265.00,265.00,4,America/Inuvik,FALSE,1124599203
Saint-Félix,Saint-Felix,,46.1781,-73.4189,Canada,CA,CAN,Quebec,Quebec,CA-QC,province,,23.4,,,4,America/Toronto,FALSE,1124115607
"Mount Hanley","Mount Hanley",,44.9207,-65.1799,Canada,CA,CAN,"Nova Scotia","Nova Scotia",CA-NS,province,,5.1,,,5,America/Halifax,FALSE,1124040521
Gardiner,Gardiner,,49.3167,-81.0333,Canada,CA,CAN,Ontario,Ontario,CA-ON,province,,0.0,,,5,America/Toronto,FALSE,1124422185
Goodlands,Goodlands,,49.1000,-100.6000,Canada,CA,CAN,Manitoba,Manitoba,CA-MB,province,,6.4,,,5,America/Winnipeg,FALSE,1124872863
"Tors Cove","Tors Cove",,47.2167,-52.8500,Canada,CA,CAN,"Newfoundland and Labrador","Newfoundland and Labrador",CA-NL,province,,98.6,,,4,America/St_Johns,FALSE,1124413687
"Stony Plain","Stony Plain",,53.5264,-114.0069,Canada,CA,CAN,Alberta,Alberta,CA-AB,province,,507.6,17993,17993,3,America/Edmonton,FALSE,1124982081
"Saint Albert","Saint Albert",,45.2576,-75.1188,Canada,CA,CAN,Ontario,Ontario,CA-ON,province,,98.0,,,4,America/Toronto,FALSE,1124211750
"Ocean Falls","Ocean Falls",,52.3500,-127.7000,Canada,CA,CAN,"British Columbia","British Columbia",CA-BC,province,,0.0,,,5,America/Vancouver,FALSE,1124537534
Pocahontas,Pocahontas,,53.2000,-117.9167,Canada,CA,CAN,Alberta,Alberta,CA-AB,province,,0.0,,,5,America/Edmonton,FALSE,1124959058
Pinkham,Pinkham,,51.4333,-109.4500,Canada,CA,CAN,Saskatchewan,Saskatchewan,CA-SK,province,,0.3,,,5,America/Swift_Current,FALSE,1124283152
Caistorville,Caistorville,,43.0547,-79.7142,Canada,CA,CAN,Ontario,Ontario,CA-ON,province,,53.1,,,4,America/Toronto,FALSE,1124253987
Bailieboro,Bailieboro,,44.1315,-78.3543,Canada,CA,CAN,Ontario,Ontario,CA-ON,province,,32.1,,,4,America/Toronto,FALSE,1124062149
Retlaw,Retlaw,,50.0667,-112.2500,Canada,CA,CAN,Alberta,Alberta,CA-AB,province,,0.9,,,5,America/Edmonton,FALSE,1124997805
Tangent,Tangent,,55.8000,-117.6833,Canada,CA,CAN,Alberta,Alberta,CA-AB,province,,53.2,,,4,America/Edmonton,FALSE,1124731410
Waldemar,Waldemar,,43.8916,-80.2801,Canada,CA,CAN,Ontario,Ontario,CA-ON,province,,408.8,,,3,America/Toronto,FALSE,1124553149
"Black Bear Bay","Black Bear Bay",,53.3000,-55.9500,Canada,CA,CAN,"Newfoundland and Labrador","Newfoundland and Labrador",CA-NL,province,,0.0,,,5,America/St_Johns,FALSE,1124857181
Tsiigehtchic,Tsiigehtchic,"Arctic Red River",67.4286,-133.6926,Canada,CA,CAN,"Northwest Territories","Northwest Territories",CA-NT,province,,3.50,172.00,172.00,4,America/Inuvik,FALSE,1124282127
Florenceville,Florenceville,Florenceville-Bristol,46.4435,-67.6152,Canada,CA,CAN,"New Brunswick","New Brunswick",CA-NB,province,,102.7,1604,1604,3,America/Moncton,FALSE,1124518996
Trochu,Trochu,,51.8236,-113.2328,Canada,CA,CAN,Alberta,Alberta,CA-AB,province,,381.1,1058,1058,3,America/Edmonton,FALSE,1124642144
Seebe,Seebe,,51.0972,-115.0569,Canada,CA,CAN,Alberta,Alberta,CA-AB,province,,0.00,0.00,0.00,4,America/Edmonton,FALSE,1124588056
Chapman,Chapman,,46.1344,-64.0895,Canada,CA,CAN,"New Brunswick","New Brunswick",CA-NB,province,,2.1,,,5,America/Moncton,FALSE,1124253017
Massey,Massey,,46.2000,-82.0833,Canada,CA,CAN,Ontario,Ontario,CA-ON,province,,6.6,,,5,America/Toronto,FALSE,1124053594
Edwand,Edwand,,54.1439,-112.2758,Canada,CA,CAN,Alberta,Alberta,CA-AB,province,,2.9,,,5,America/Edmonton,FALSE,1124166202
Saint-François-Xavier-de-Viger,Saint-Francois-Xavier-de-Viger,,47.8500,-69.2500,Canada,CA,CAN,Quebec,Quebec,CA-QC,province,,2.3,256,256,4,America/Toronto,FALSE,1124000181
Iroquois,Iroquois,,44.8500,-75.3167,Canada,CA,CAN,Ontario,Ontario,CA-ON,province,,454.1,1406,1406,3,America/Toronto,FALSE,1124899054
Tourville,Tourville,,47.1000,-69.9833,Canada,CA,CAN,Quebec,Quebec,CA-QC,province,,3.8,633,633,4,America/Toronto,FALSE,1124513017
Sorel-Tracy,Sorel-Tracy,,46.0333,-73.1167,Canada,CA,CAN,Quebec,Quebec,CA-QC,province,,614.0,36650,35165,3,America/Toronto,FALSE,1124000182
Valley,Valley,,45.3525,-63.1670,Canada,CA,CAN,"Nova Scotia","Nova Scotia",CA-NS,province,,8.9,,,5,America/Halifax,FALSE,1124764179
"Ochre River","Ochre River",,51.0500,-99.7833,Canada,CA,CAN,Manitoba,Manitoba,CA-MB,province,,1.5,,,5,America/Winnipeg,FALSE,1124777022
Gould,Gould,,45.5952,-71.3717,Canada,CA,CAN,Quebec,Quebec,CA-QC,province,,3.8,,,5,America/Toronto,FALSE,1124933941
Brighton,Brighton,,44.1222,-77.7642,Canada,CA,CAN,Ontario,Ontario,CA-ON,province,,43.2,11844,11844,3,America/Toronto,FALSE,1124672085
Ninette,Ninette,,49.4001,-99.6330,Canada,CA,CAN,Manitoba,Manitoba,CA-MB,province,,123.5,249,249,4,America/Winnipeg,FALSE,1124457975
Saint-Joseph-de-Lepage,Saint-Joseph-de-Lepage,,48.5800,-68.1700,Canada,CA,CAN,Quebec,Quebec,CA-QC,province,,17.3,527,527,4,America/Toronto,FALSE,1124000183
Ridgeway,Ridgeway,,42.8847,-79.0521,Canada,CA,CAN,Ontario,Ontario,CA-ON,province,,1345.3,,,3,America/Toronto,FALSE,1124365869
Saint-Fabien-de-Panet,Saint-Fabien-de-Panet,,46.6500,-70.1500,Canada,CA,CAN,Quebec,Quebec,CA-QC,province,,5.4,992,992,4,America/Toronto,FALSE,1124347744
Saint-Marc-des-Carrières,Saint-Marc-des-Carrieres,,46.6833,-72.0500,Canada,CA,CAN,Quebec,Quebec,CA-QC,province,,172.0,2862,2862,3,America/Toronto,FALSE,1124924445
Jansen,Jansen,,51.7830,-104.7170,Canada,CA,CAN,Saskatchewan,Saskatchewan,CA-SK,province,,112.5,96,96,3,America/Regina,FALSE,1124825920
"Thunder River","Thunder River",,52.2333,-119.2167,Canada,CA,CAN,"British Columbia","British Columbia",CA-BC,province,,0.0,,,5,America/Vancouver,FALSE,1124471101
Havelock,Havelock,,45.0500,-73.7500,Canada,CA,CAN,Quebec,Quebec,CA-QC,province,,8.5,756,756,3,America/Toronto,FALSE,1124000184
Osgoode,Osgoode,,45.1475,-75.6115,Canada,CA,CAN,Ontario,Ontario,CA-ON,province,,557.1,2535,2535,3,America/Toronto,FALSE,1124235086
Savanne,Savanne,,48.9500,-90.2500,Canada,CA,CAN,Ontario,Ontario,CA-ON,province,,0.0,,,5,America/Toronto,FALSE,1124059473
Craigmyle,Craigmyle,,51.6667,-112.2333,Canada,CA,CAN,Alberta,Alberta,CA-AB,province,,0.2,,,5,America/Edmonton,FALSE,1124534515
Barwick,Barwick,,48.6259,-93.9951,Canada,CA,CAN,Ontario,Ontario,CA-ON,province,,0.9,,,5,America/Winnipeg,FALSE,1124088473
Chandler,Chandler,,48.3500,-64.6833,Canada,CA,CAN,Quebec,Quebec,CA-QC,province,,18.4,7703,7703,3,America/Toronto,FALSE,1124111932
"Apple River","Apple River",,45.4200,-64.7723,Canada,CA,CAN,"Nova Scotia","Nova Scotia",CA-NS,province,,3.0,,,5,America/Halifax,FALSE,1124674127
Saint-Alphonse-de-Granby,Saint-Alphonse-de-Granby,,45.3333,-72.8167,Canada,CA,CAN,Quebec,Quebec,CA-QC,province,,66.7,3341,3341,3,America/Toronto,FALSE,1124000185
Coronach,Coronach,,49.1089,-105.5122,Canada,CA,CAN,Saskatchewan,Saskatchewan,CA-SK,province,,275.70,643,643,3,America/Regina,FALSE,1124000186
"Burwash Landing","Burwash Landing","Buswash Landing|Burwash",61.3513,-139.0093,Canada,CA,CAN,Yukon,Yukon,CA-YT,province,,2.40,72.00,72.00,4,America/Dawson,FALSE,1124021816
Cedar,Cedar,,49.0853,-123.8259,Canada,CA,CAN,"British Columbia","British Columbia",CA-BC,province,,91.3,3078,3078,4,America/Vancouver,FALSE,1124000187
"Black Hawk","Black Hawk",,48.7945,-94.0005,Canada,CA,CAN,Ontario,Ontario,CA-ON,province,,0.3,,,5,America/Winnipeg,FALSE,1124274312
Skeetchestn,Skeetchestn,,50.8193,-120.9584,Canada,CA,CAN,"British Columbia","British Columbia",CA-BC,province,,3.70,293.00,293.00,4,America/Vancouver,FALSE,1124000188
Milden,Milden,,51.4833,-107.5167,Canada,CA,CAN,Saskatchewan,Saskatchewan,CA-SK,province,,151.6,167,167,3,America/Swift_Current,FALSE,1124959015
"East Zorra-Tavistock","East Zorra-Tavistock",,43.2333,-80.7833,Canada,CA,CAN,Ontario,Ontario,CA-ON,province,,29.4,7129,7129,3,America/Toronto,FALSE,1124000189
Saint-Jean-sur-Richelieu,Saint-Jean-sur-Richelieu,,45.3167,-73.2667,Canada,CA,CAN,Quebec,Quebec,CA-QC,province,,431.3,97873,97873,3,America/Toronto,FALSE,1124278447
Lac-Castor,Lac-Castor,,46.3667,-74.8833,Canada,CA,CAN,Quebec,Quebec,CA-QC,province,,5.6,,,5,America/Toronto,FALSE,1124472513
"Sops Arm","Sops Arm",,49.7667,-56.9167,Canada,CA,CAN,"Newfoundland and Labrador","Newfoundland and Labrador",CA-NL,province,,3.9,,,5,America/St_Johns,FALSE,1124798830
"Bathurst Mines","Bathurst Mines",,47.4090,-65.7928,Canada,CA,CAN,"New Brunswick","New Brunswick",CA-NB,province,,2.8,,,5,America/Moncton,FALSE,1124499741
Meadowbank,Meadowbank,,46.2000,-63.2320,Canada,CA,CAN,"Prince Edward Island","Prince Edward Island",CA-PE,province,,38.20,338,338,4,America/Halifax,FALSE,1124000190
Palmarolle,Palmarolle,Palmarol,48.6667,-79.2000,Canada,CA,CAN,Quebec,Quebec,CA-QC,province,,12.5,1465,1465,3,America/Toronto,FALSE,1124693739
"Durham Bridge","Durham Bridge",Durham,46.0801,-66.6082,Canada,CA,CAN,"New Brunswick","New Brunswick",CA-NB,province,,27.9,,,4,America/Moncton,FALSE,1124682787
Dorreen,Dorreen,,54.8500,-128.3333,Canada,CA,CAN,"British Columbia","British Columbia",CA-BC,province,,0.0,,,5,America/Vancouver,FALSE,1124333024
Nantes,Nantes,,45.6333,-71.0333,Canada,CA,CAN,Quebec,Quebec,CA-QC,province,,11.4,1374,1374,3,America/Toronto,FALSE,1124802333
Turtleford,Turtleford,,53.3833,-108.9500,Canada,CA,CAN,Saskatchewan,Saskatchewan,CA-SK,province,,311.6,525,525,3,America/Swift_Current,FALSE,1124456875
Saint-Wenceslas,Saint-Wenceslas,,46.1667,-72.3333,Canada,CA,CAN,Quebec,Quebec,CA-QC,province,,13.3,1064,1064,4,America/Toronto,FALSE,1124947290
"Mountain View","Mountain View",,49.1333,-113.6000,Canada,CA,CAN,Alberta,Alberta,CA-AB,province,,34.5,,,4,America/Edmonton,FALSE,1124897231
Saint-Hubert-de-Rivière-du-Loup,Saint-Hubert-de-Riviere-du-Loup,,47.8167,-69.1500,Canada,CA,CAN,Quebec,Quebec,CA-QC,province,,6.4,1235,1235,4,America/Toronto,FALSE,1124000191
"Toney River","Toney River",,45.7724,-62.8986,Canada,CA,CAN,"Nova Scotia","Nova Scotia",CA-NS,province,,16.6,,,4,America/Halifax,FALSE,1124645313
Saint-Cyrille-de-Lessard,Saint-Cyrille-de-Lessard,,47.0333,-70.2833,Canada,CA,CAN,Quebec,Quebec,CA-QC,province,,3.3,753,753,4,America/Toronto,FALSE,1124000192
Shalalth,Shalalth,"Bridge River",50.7333,-122.2333,Canada,CA,CAN,"British Columbia","British Columbia",CA-BC,province,,15.8,,,4,America/Vancouver,FALSE,1124620033
Lismore,Lismore,,45.7000,-62.2667,Canada,CA,CAN,"Nova Scotia","Nova Scotia",CA-NS,province,,6.0,,,5,America/Halifax,FALSE,1124451203
"Swan Lake","Swan Lake",,49.4000,-98.8000,Canada,CA,CAN,Manitoba,Manitoba,CA-MB,province,,0.6,,,5,America/Winnipeg,FALSE,1124936825
"Cockburn Island","Cockburn Island",,45.9167,-83.3833,Canada,CA,CAN,Ontario,Ontario,CA-ON,province,,0.00,0,0,3,America/Toronto,FALSE,1124000193
Aishihik,Aishihik,,61.5667,-137.5000,Canada,CA,CAN,Yukon,Yukon,CA-YT,province,,0.0,,,5,America/Whitehorse,FALSE,1124572662
Floradale,Floradale,,43.6167,-80.5833,Canada,CA,CAN,Ontario,Ontario,CA-ON,province,,14.1,,,4,America/Toronto,FALSE,1124353536
Ellison,Ellison,,49.9646,-119.3178,Canada,CA,CAN,"British Columbia","British Columbia",CA-BC,province,,40.6,3316,3316,4,America/Vancouver,FALSE,1124000194
Ryerson,Ryerson,,49.7833,-101.6667,Canada,CA,CAN,Saskatchewan,Saskatchewan,CA-SK,province,,0.3,,,5,America/Regina,FALSE,1124656575
"West Bay","West Bay",,45.7317,-61.1418,Canada,CA,CAN,"Nova Scotia","Nova Scotia",CA-NS,province,,3.1,,,5,America/Glace_Bay,FALSE,1124849203
"St. Catharines","St. Catharines","Saint Catharines",43.1833,-79.2333,Canada,CA,CAN,Ontario,Ontario,CA-ON,province,,1422.1,242460,136803,2,America/Toronto,FALSE,1124140229
Cocagne,Cocagne,,46.3406,-64.6200,Canada,CA,CAN,"New Brunswick","New Brunswick",CA-NB,province,,66.78,2649,2649,3,America/Moncton,FALSE,1124000195
"Ruby Camp","Ruby Camp",,61.0833,-137.9167,Canada,CA,CAN,Yukon,Yukon,CA-YT,province,,0.0,,,5,America/Whitehorse,FALSE,1124540403
"St. John's","St. John's","Saint John’s",47.4817,-52.7971,Canada,CA,CAN,"Newfoundland and Labrador","Newfoundland and Labrador",CA-NL,province,admin,247.8,185565,110525,2,America/St_Johns,FALSE,1124741456
Gabriola,Gabriola,,49.1833,-123.8500,Canada,CA,CAN,"British Columbia","British Columbia",CA-BC,province,,114.3,,,4,America/Vancouver,FALSE,1124739702
Douro,Douro,,44.3833,-78.2000,Canada,CA,CAN,Ontario,Ontario,CA-ON,province,,20.2,,,4,America/Toronto,FALSE,1124571406
Senneville,Senneville,,45.4167,-73.9500,Canada,CA,CAN,Quebec,Quebec,CA-QC,province,,127.7,951,951,3,America/Toronto,FALSE,1124458328
Tangier,Tangier,,44.7892,-62.6446,Canada,CA,CAN,"Nova Scotia","Nova Scotia",CA-NS,province,,0,,,5,America/Halifax,FALSE,1124081566
Victoria,Victoria,,49.6644,-98.9153,Canada,CA,CAN,Manitoba,Manitoba,CA-MB,province,,2.20,1132,1132,4,America/Winnipeg,FALSE,1124000196
"Fellers Heights","Fellers Heights",,55.6000,-120.5500,Canada,CA,CAN,"British Columbia","British Columbia",CA-BC,province,,0.1,,,5,America/Dawson_Creek,FALSE,1124609318
Saint-Elzéar-de-Témiscouata,Saint-Elzear-de-Temiscouata,,47.5833,-69.1000,Canada,CA,CAN,Quebec,Quebec,CA-QC,province,,2.3,343,343,4,America/Toronto,FALSE,1124404082
Pied-du-Lac,Pied-du-Lac,,47.4667,-69.0000,Canada,CA,CAN,Quebec,Quebec,CA-QC,province,,8.6,,,5,America/Toronto,FALSE,1124425748
Fresnoy,Fresnoy,,54.2406,-110.8042,Canada,CA,CAN,Alberta,Alberta,CA-AB,province,,5.5,,,5,America/Edmonton,FALSE,1124952708
Hope,Hope,,48.0500,-65.2000,Canada,CA,CAN,Quebec,Quebec,CA-QC,province,,8.9,630,630,3,America/Toronto,FALSE,1124000197
Wagner,Wagner,idewater|Widewater,55.3623,-115.0211,Canada,CA,CAN,Alberta,Alberta,CA-AB,province,,109.6,405,405,4,America/Edmonton,FALSE,1124084465
Minto,Minto,,43.9167,-80.8667,Canada,CA,CAN,Ontario,Ontario,CA-ON,province,,28.8,8671,8671,3,America/Toronto,FALSE,1124000198
Oxbow,Oxbow,,49.2333,-102.1667,Canada,CA,CAN,Saskatchewan,Saskatchewan,CA-SK,province,,412.6,1328,1328,3,America/Regina,FALSE,1124727899
Jamestown,Jamestown,,48.4333,-53.8000,Canada,CA,CAN,"Newfoundland and Labrador","Newfoundland and Labrador",CA-NL,province,,1.9,,,5,America/St_Johns,FALSE,1124887409
Cawston,Cawston,,49.1781,-119.7540,Canada,CA,CAN,"British Columbia","British Columbia",CA-BC,province,,89.0,1040,1040,4,America/Vancouver,FALSE,1124000199
"Broad Cove","Broad Cove",,44.1466,-64.4706,Canada,CA,CAN,"Nova Scotia","Nova Scotia",CA-NS,province,,0,,,5,America/Halifax,FALSE,1124302772
Rockville,Rockville,,43.7768,-66.1122,Canada,CA,CAN,"Nova Scotia","Nova Scotia",CA-NS,province,,31.6,,,4,America/Halifax,FALSE,1124464589
"The Two Rivers","The Two Rivers",,55.7500,-103.1667,Canada,CA,CAN,Saskatchewan,Saskatchewan,CA-SK,province,,0.0,,,5,America/Regina,FALSE,1124439388
Saint-Zénon,Saint-Zenon,,46.5500,-73.8167,Canada,CA,CAN,Quebec,Quebec,CA-QC,province,,2.7,1250,1250,3,America/Toronto,FALSE,1124443019
Sainte-Apolline-de-Patton,Sainte-Apolline-de-Patton,Sainte-Apolline,46.8000,-70.2000,Canada,CA,CAN,Quebec,Quebec,CA-QC,province,,2.4,621,621,4,America/Toronto,FALSE,1124067634
Saint-Hyacinthe,Saint-Hyacinthe,,45.6167,-72.9500,Canada,CA,CAN,Quebec,Quebec,CA-QC,province,,303.1,57239,57239,3,America/Toronto,FALSE,1124010116
"Fort Good Hope","Fort Good Hope","Good Hope",66.2666,-128.5781,Canada,CA,CAN,"Northwest Territories","Northwest Territories",CA-NT,province,,10.90,516.00,516.00,4,America/Inuvik,FALSE,1124011380
"Meath Park","Meath Park",,53.4260,-105.3670,Canada,CA,CAN,Saskatchewan,Saskatchewan,CA-SK,province,,318.1,169,169,3,America/Regina,FALSE,1124343489
"Saint Stephen","Saint Stephen",,45.2000,-67.2833,Canada,CA,CAN,"New Brunswick","New Brunswick",CA-NB,province,,326.6,4415,4415,3,America/Moncton,FALSE,1124128038
Fassett,Fassett,,45.6500,-74.8667,Canada,CA,CAN,Quebec,Quebec,CA-QC,province,,34.5,431,431,3,America/Toronto,FALSE,1124050068
Scotsville,Scotsville,,46.2117,-61.1566,Canada,CA,CAN,"Nova Scotia","Nova Scotia",CA-NS,province,,1.8,,,5,America/Glace_Bay,FALSE,1124545525
Wesleyville,Wesleyville,,49.1500,-53.5833,Canada,CA,CAN,"Newfoundland and Labrador","Newfoundland and Labrador",CA-NL,province,,61.8,,,4,America/St_Johns,FALSE,1124891395
"Round Hill No. 467","Round Hill No. 467",,53.0591,-107.9697,Canada,CA,CAN,Saskatchewan,Saskatchewan,CA-SK,province,,0.40,361.00,361.00,4,America/Swift_Current,FALSE,1124000200
Rivière-Éternité,Riviere-Eternite,,48.2556,-70.4139,Canada,CA,CAN,Quebec,Quebec,CA-QC,province,,0.79,413,413,3,America/Toronto,FALSE,1124000202
Saint-Charles-sur-Richelieu,Saint-Charles-sur-Richelieu,,45.6833,-73.1833,Canada,CA,CAN,Quebec,Quebec,CA-QC,province,,25.2,1643,1643,3,America/Toronto,FALSE,1124477144
Sundown,Sundown,,49.1000,-96.2667,Canada,CA,CAN,Manitoba,Manitoba,CA-MB,province,,5.7,,,5,America/Winnipeg,FALSE,1124437970
Perth,Perth,,44.9000,-76.2500,Canada,CA,CAN,Ontario,Ontario,CA-ON,province,,484.1,6486,5930,3,America/Toronto,FALSE,1124732094
Duffield,Duffield,,53.5278,-114.3466,Canada,CA,CAN,Alberta,Alberta,CA-AB,province,,186.3,60,60,4,America/Edmonton,FALSE,1124857482
Joussard,Joussard,,55.3879,-115.9406,Canada,CA,CAN,Alberta,Alberta,CA-AB,province,,16.8,334,334,4,America/Edmonton,FALSE,1124438805
Sainte-Brigide-d'Iberville,Sainte-Brigide-d'Iberville,Sainte-Brigide-d’Iberville,45.3167,-73.0667,Canada,CA,CAN,Quebec,Quebec,CA-QC,province,,18.7,1331,1331,3,America/Toronto,FALSE,1124015542
"Nippers Harbour","Nippers Harbour",,49.7864,-55.8616,Canada,CA,CAN,"Newfoundland and Labrador","Newfoundland and Labrador",CA-NL,province,,44.00,85,85,3,America/St_Johns,FALSE,1124284798
McMorran,McMorran,,51.3167,-108.7500,Canada,CA,CAN,Saskatchewan,Saskatchewan,CA-SK,province,,0.4,,,5,America/Swift_Current,FALSE,1124055027
Alameda,Alameda,,49.4333,-102.4667,Canada,CA,CAN,Saskatchewan,Saskatchewan,CA-SK,province,,144.5,369,369,3,America/Regina,FALSE,1124335310
Jaffray,Jaffray,,49.3695,-115.2951,Canada,CA,CAN,"British Columbia","British Columbia",CA-BC,province,,74.1,510,510,4,America/Edmonton,FALSE,1124000203
Bothwell,Bothwell,,42.6312,-81.8716,Canada,CA,CAN,Ontario,Ontario,CA-ON,province,,451.3,908,908,3,America/Toronto,FALSE,1124086056
"Northern Arm","Northern Arm",,49.1861,-55.3864,Canada,CA,CAN,"Newfoundland and Labrador","Newfoundland and Labrador",CA-NL,province,,16.60,426,426,4,America/St_Johns,FALSE,1124000204
Kugaaruk,Kugaaruk,"Pelly Bay|Akviligjuaq",68.5322,-89.8122,Canada,CA,CAN,Nunavut,Nunavut,CA-NU,province,,187.60,933.00,933.00,4,America/Cambridge_Bay,FALSE,1124241158
Calahoo,Calahoo,,53.7133,-113.9558,Canada,CA,CAN,Alberta,Alberta,CA-AB,province,,215.4,143,143,3,America/Edmonton,FALSE,1124000205
"Port Mellon","Port Mellon",,49.5167,-123.4833,Canada,CA,CAN,"British Columbia","British Columbia",CA-BC,province,,0,,,5,America/Vancouver,FALSE,1124683788
"Fort Hope","Fort Hope",,51.5500,-87.9833,Canada,CA,CAN,Ontario,Ontario,CA-ON,province,,0.0,,,5,America/Toronto,FALSE,1124466766
