city,city_ascii,city_alt,lat,lng,country,iso2,iso3,admin_name,admin_name_ascii,admin_code,admin_type,capital,density,population,population_proper,ranking,timezone,same_name,id
Bangui,Bangui,,4.3733,18.5628,"Central African Republic",CF,CAF,Bangui,Bangui,CF-BGF,commune,primary,1537.0,889231,889231,1,Africa/Bangui,FALSE,1140080881
Bimo,Bimo,Bim,4.3137,18.3065,"Central African Republic",CF,CAF,Ombella-Mpoko,Ombella-Mpoko,CF-MP,prefecture,,95.7,267859,267859,2,Africa/Bangui,FALSE,1140873996
Mambéré,Mambere,,5.5000,15.5000,"Central African Republic",CF,CAF,Nana-Mambéré,Nana-Mambere,CF-NM,prefecture,,8.8,233666,233666,2,Africa/Bangui,FALSE,1140081585
Bimbo,Bimbo,Bimo,4.2558,18.4042,"Central African Republic",CF,CAF,Ombella-Mpoko,Ombella-Mpoko,CF-MP,prefecture,admin,95.7,124176,124176,2,Africa/Bangui,FALSE,1140257478
Berbérati,Berberati,,4.2614,15.7894,"Central African Republic",CF,CAF,Mambéré-Kadéï,Mambere-Kadei,CF-HS,prefecture,admin,8.1,76918,76918,2,Africa/Bangui,FALSE,1140239733
Bocaranga,Bocaranga,Bugarnga|Bougarnga,6.9844,15.6408,"Central African Republic",CF,CAF,Ouham-Pendé,Ouham-Pende,CF-OP,prefecture,,33.3,61190,61190,3,Africa/Bangui,FALSE,1140638385
Carnot,Carnot,,4.9400,15.8700,"Central African Republic",CF,CAF,Mambéré-Kadéï,Mambere-Kadei,CF-HS,prefecture,,27.1,45421,45421,3,Africa/Bangui,FALSE,1140319605
Nola,Nola,Djembe,3.5333,16.0667,"Central African Republic",CF,CAF,Sangha-Mbaéré,Sangha-Mbaere,CF-SE,"economic prefecture",admin,21.5,41462,41462,2,Africa/Bangui,FALSE,1140236347
Bambari,Bambari,,5.7653,20.6742,"Central African Republic",CF,CAF,Ouaka,Ouaka,CF-UK,prefecture,admin,908.1,41356,41356,2,Africa/Bangui,FALSE,1140304277
Bouar,Bouar,Buar,5.9500,15.6000,"Central African Republic",CF,CAF,Nana-Mambéré,Nana-Mambere,CF-NM,prefecture,admin,48.8,40353,40353,2,Africa/Bangui,FALSE,1140144321
Bossangoa,Bossangoa,Amangba|Bossango,6.4833,17.4500,"Central African Republic",CF,CAF,Ouham,Ouham,CF-AC,prefecture,admin,809.3,36478,36478,2,Africa/Bangui,FALSE,1140523604
Bria,Bria,,6.5369,21.9919,"Central African Republic",CF,CAF,Haute-Kotto,Haute-Kotto,CF-HK,prefecture,admin,7.8,35204,35204,2,Africa/Bangui,FALSE,1140582053
Bangassou,Bangassou,Bangasu|Bangassu,4.7374,22.8195,"Central African Republic",CF,CAF,Mbomou,Mbomou,CF-MB,prefecture,admin,878.4,31453,31453,2,Africa/Bangui,FALSE,1140539356
"Kaga Bandoro","Kaga Bandoro",Crampel|Fort-Crampel,7.0000,19.1833,"Central African Republic",CF,CAF,Nana-Grébizi,Nana-Grebizi,CF-KB,"economic prefecture",admin,368.1,24661,24661,2,Africa/Bangui,FALSE,1140658026
Sibut,Sibut,Fort-Sibut,5.7333,19.0833,"Central African Republic",CF,CAF,Kémo,Kemo,CF-KG,prefecture,admin,377.5,22419,22419,2,Africa/Bangui,FALSE,1140802055
Mbaïki,Mbaiki,,3.8833,18.0000,"Central African Republic",CF,CAF,Lobaye,Lobaye,CF-LB,prefecture,admin,167.0,22166,22166,2,Africa/Bangui,FALSE,1140040245
Bozoum,Bozoum,Bosum|Bozum,6.3172,16.3783,"Central African Republic",CF,CAF,Ouham-Pendé,Ouham-Pende,CF-OP,prefecture,admin,901.1,20665,20665,2,Africa/Bangui,FALSE,1140416562
Zemio,Zemio,,5.0333,25.1333,"Central African Republic",CF,CAF,Haut-Mbomou,Haut-Mbomou,CF-HM,prefecture,,3.7,20000,20000,3,Africa/Bangui,FALSE,1140178462
Bakouma,Bakouma,Bakuma,5.6986,22.7833,"Central African Republic",CF,CAF,Mbomou,Mbomou,CF-MB,prefecture,,1.7,17599,17599,3,Africa/Bangui,FALSE,1140312993
Paoua,Paoua,Pahua,7.2500,16.4333,"Central African Republic",CF,CAF,Ouham-Pendé,Ouham-Pende,CF-OP,prefecture,,43.9,17370,17370,3,Africa/Bangui,FALSE,1140636739
Ippy,Ippy,Ippi,6.2500,21.2000,"Central African Republic",CF,CAF,Ouaka,Ouaka,CF-UK,prefecture,,49.5,16571,16571,3,Africa/Bangui,FALSE,1140476425
Grimari,Grimari,,5.7167,20.0500,"Central African Republic",CF,CAF,Ouaka,Ouaka,CF-UK,prefecture,,187.4,16486,16486,3,Africa/Bangui,FALSE,1140969115
Bobangui,Bobangui,Bubangui|Boubangui|Bubangi|Bobongui,4.0500,18.1167,"Central African Republic",CF,CAF,Lobaye,Lobaye,CF-LB,prefecture,,34.9,16486,16486,3,Africa/Bangui,FALSE,1140666891
Batangafo,Batangafo,Dévo,7.3000,18.3000,"Central African Republic",CF,CAF,Ouham,Ouham,CF-AC,prefecture,,422.5,16420,16420,3,Africa/Bangui,FALSE,1140264100
Kabo,Kabo,,7.6994,18.6292,"Central African Republic",CF,CAF,Ouham,Ouham,CF-AC,prefecture,,5.9,16279,16279,3,Africa/Bangui,FALSE,1140386370
Alindao,Alindao,Alindo|Alinda,5.0333,21.2167,"Central African Republic",CF,CAF,Basse-Kotto,Basse-Kotto,CF-BK,prefecture,,404.3,14401,14401,3,Africa/Bangui,FALSE,1140620640
Rafaï,Rafai,,4.9731,23.9319,"Central African Republic",CF,CAF,Mbomou,Mbomou,CF-MB,prefecture,,0.7,14000,14000,3,Africa/Bangui,FALSE,1140732903
Ndélé,Ndele,N’Delle|Nadélé,8.4092,20.6531,"Central African Republic",CF,CAF,Bamingui-Bangoran,Bamingui-Bangoran,CF-BB,prefecture,admin,1.4,13704,13704,2,Africa/Bangui,FALSE,1140271951
Gamboula,Gamboula,Gamoula,4.1333,15.1500,"Central African Republic",CF,CAF,Mambéré-Kadéï,Mambere-Kadei,CF-HS,prefecture,,14.6,13048,13048,3,Africa/Bangui,FALSE,1140530300
Bouca,Bouca,Bouka|Buka,6.5000,18.2833,"Central African Republic",CF,CAF,Ouham,Ouham,CF-AC,prefecture,,8.3,12280,12280,3,Africa/Bangui,FALSE,1140720840
Birao,Birao,,10.2940,22.7820,"Central African Republic",CF,CAF,Vakaga,Vakaga,CF-VK,prefecture,admin,1.6,10178,10178,2,Africa/Bangui,FALSE,1140392673
Mboki,Mboki,,5.3160,25.9571,"Central African Republic",CF,CAF,Haut-Mbomou,Haut-Mbomou,CF-HM,prefecture,,16.4,10000,10000,4,Africa/Bangui,FALSE,1140277329
Boali,Boali,Bouali,4.8000,18.1167,"Central African Republic",CF,CAF,Ombella-Mpoko,Ombella-Mpoko,CF-MP,prefecture,,7.0,9314,9314,4,Africa/Bangui,FALSE,1140101002
Bayanga,Bayanga,,2.9167,16.2500,"Central African Republic",CF,CAF,Sangha-Mbaéré,Sangha-Mbaere,CF-SE,"economic prefecture",,3.4,8421,8421,4,Africa/Bangui,FALSE,1140326843
Bossembele,Bossembele,Bossembali,5.2667,17.6500,"Central African Republic",CF,CAF,Ombella-Mpoko,Ombella-Mpoko,CF-MP,prefecture,,6.4,7287,7287,4,Africa/Bangui,FALSE,1140955210
Obo,Obo,,5.4000,26.5000,"Central African Republic",CF,CAF,Haut-Mbomou,Haut-Mbomou,CF-HM,prefecture,admin,2.6,7187,7187,2,Africa/Bangui,FALSE,1140533897
Mobaye,Mobaye,Mobie,4.3167,21.1833,"Central African Republic",CF,CAF,Basse-Kotto,Basse-Kotto,CF-BK,prefecture,admin,114.5,7176,7176,2,Africa/Bangui,FALSE,1140935252
Kouango,Kouango,Kuango,4.9667,19.9833,"Central African Republic",CF,CAF,Ouaka,Ouaka,CF-UK,prefecture,,21.3,6984,6984,3,Africa/Bangui,FALSE,1140674244
Tiroungoulou,Tiroungoulou,,9.5581,22.1336,"Central African Republic",CF,CAF,Vakaga,Vakaga,CF-VK,prefecture,,1.9,6875,6875,4,Africa/Bangui,FALSE,1140415954
Baboua,Baboua,Babua,5.7833,14.8167,"Central African Republic",CF,CAF,Nana-Mambéré,Nana-Mambere,CF-NM,prefecture,,6.7,6812,6812,3,Africa/Bangui,FALSE,1140184570
Bamingui,Bamingui,,7.5667,20.1833,"Central African Republic",CF,CAF,Bamingui-Bangoran,Bamingui-Bangoran,CF-BB,prefecture,,0.4,6230,6230,4,Africa/Bangui,FALSE,1140175328
Ouadda,Ouadda,Quadda|Uadda,8.0667,22.4000,"Central African Republic",CF,CAF,Haute-Kotto,Haute-Kotto,CF-HK,prefecture,,0.4,5434,5434,4,Africa/Bangui,FALSE,1140640564
Lombo,Lombo,Bagandou,3.7444,17.8394,"Central African Republic",CF,CAF,Lobaye,Lobaye,CF-LB,prefecture,,24.6,4500,4500,4,Africa/Bangui,FALSE,1140821033
Ouango,Ouango,,4.3667,18.6167,"Central African Republic",CF,CAF,Ombella-Mpoko,Ombella-Mpoko,CF-MP,prefecture,,3166.4,4365,4365,2,Africa/Bangui,FALSE,1140876757
"Am Dafok","Am Dafok",,10.4656,23.3008,"Central African Republic",CF,CAF,Vakaga,Vakaga,CF-VK,prefecture,,1.6,4286,4286,3,Africa/Bangui,FALSE,1140898853
"Ouanda Djallé","Ouanda Djalle","Ouanda Djane|Ouanda-Djalé|Uanda Jale",8.9000,22.8000,"Central African Republic",CF,CAF,Vakaga,Vakaga,CF-VK,prefecture,,0.6,2839,2839,4,Africa/Bangui,FALSE,1140363500
Moyenne-Sido,Moyenne-Sido,Sido,8.2167,18.7000,"Central African Republic",CF,CAF,Ouham,Ouham,CF-AC,prefecture,,9.4,2582,2582,3,Africa/Bangui,FALSE,1140250782
Délimbé,Delimbe,,9.8469,22.6464,"Central African Republic",CF,CAF,Vakaga,Vakaga,CF-VK,prefecture,,1.6,1441,1441,4,Africa/Bangui,FALSE,1140065663
Kambakota,Kambakota,Kamba,7.1564,17.8725,"Central African Republic",CF,CAF,Ouham,Ouham,CF-AC,prefecture,,8.6,1300,1300,4,Africa/Bangui,FALSE,1140965400
Yakossi,Yakossi,,5.6170,23.3167,"Central African Republic",CF,CAF,Mbomou,Mbomou,CF-MB,prefecture,,1.7,500,500,4,Africa/Bangui,FALSE,1140246753
Bogali,Bogali,,5.2347,17.3774,"Central African Republic",CF,CAF,Ombella-Mpoko,Ombella-Mpoko,CF-MP,prefecture,,17.5,,,4,Africa/Bangui,FALSE,1140845523
Bogali,Bogali,,4.9847,18.2706,"Central African Republic",CF,CAF,Ombella-Mpoko,Ombella-Mpoko,CF-MP,prefecture,,7.0,,,5,Africa/Bangui,TRUE,1140148893
Bodoupa,Bodoupa,,5.3707,17.0129,"Central African Republic",CF,CAF,Ombella-Mpoko,Ombella-Mpoko,CF-MP,prefecture,,17.5,,,4,Africa/Bangui,FALSE,1140840096
Bodoupa,Bodoupa,,4.9951,17.9119,"Central African Republic",CF,CAF,Ombella-Mpoko,Ombella-Mpoko,CF-MP,prefecture,,7.0,,,5,Africa/Bangui,TRUE,1140029556
Bodoupa,Bodoupa,Botoupe|Bodoupoua,5.7097,17.6026,"Central African Republic",CF,CAF,Ombella-Mpoko,Ombella-Mpoko,CF-MP,prefecture,,6.4,,,5,Africa/Bangui,TRUE,1140250666
Bodoupa,Bodoupa,,5.0975,17.8159,"Central African Republic",CF,CAF,Ombella-Mpoko,Ombella-Mpoko,CF-MP,prefecture,,6.4,,,5,Africa/Bangui,TRUE,1140718399
Bodoupa,Bodoupa,,5.5000,18.3167,"Central African Republic",CF,CAF,Ombella-Mpoko,Ombella-Mpoko,CF-MP,prefecture,,2.1,,,5,Africa/Bangui,TRUE,1140885083
Poupou,Poupou,,5.3571,26.4671,"Central African Republic",CF,CAF,Haut-Mbomou,Haut-Mbomou,CF-HM,prefecture,,2.6,,,5,Africa/Bangui,FALSE,1140406312
Kpabé,Kpabe,Pabé,5.6338,19.0899,"Central African Republic",CF,CAF,Kémo,Kemo,CF-KG,prefecture,,6.2,,,5,Africa/Bangui,FALSE,1140950193
Boudili,Boudili,Boundili,7.1738,17.4748,"Central African Republic",CF,CAF,Ouham,Ouham,CF-AC,prefecture,,4.7,,,5,Africa/Bangui,FALSE,1140467876
"Labaso Ndousé","Labaso Ndouse",,4.9486,22.7439,"Central African Republic",CF,CAF,Mbomou,Mbomou,CF-MB,prefecture,,1.7,,,5,Africa/Bangui,FALSE,1140005201
Dokoyo,Dokoyo,Docoyo,7.4678,18.1120,"Central African Republic",CF,CAF,Ouham,Ouham,CF-AC,prefecture,,3.7,,,5,Africa/Bangui,FALSE,1140765357
Guimoudo,Guimoudo,Gimodo,5.8798,19.6348,"Central African Republic",CF,CAF,Ouaka,Ouaka,CF-UK,prefecture,,20.0,,,4,Africa/Bangui,FALSE,1140770503
Nzanga,Nzanga,,3.9195,15.4696,"Central African Republic",CF,CAF,Mambéré-Kadéï,Mambere-Kadei,CF-HS,prefecture,,21.3,,,4,Africa/Bangui,FALSE,1140646996
Kounboli,Kounboli,,5.0611,25.1536,"Central African Republic",CF,CAF,Haut-Mbomou,Haut-Mbomou,CF-HM,prefecture,,3.7,,,5,Africa/Bangui,FALSE,1140969266
"Baso Bandja","Baso Bandja",,3.5500,15.9833,"Central African Republic",CF,CAF,Sangha-Mbaéré,Sangha-Mbaere,CF-SE,"economic prefecture",,21.5,,,4,Africa/Bangui,FALSE,1140867138
"Bébinguéré Vieux","Bebinguere Vieux",Bébinguéré,7.6339,16.3663,"Central African Republic",CF,CAF,Ouham-Pendé,Ouham-Pende,CF-OP,prefecture,,18.2,,,4,Africa/Bangui,FALSE,1140363798
Singuélé,Singuele,,5.8549,20.5030,"Central African Republic",CF,CAF,Ouaka,Ouaka,CF-UK,prefecture,,16.7,,,4,Africa/Bangui,FALSE,1140756611
Naya,Naya,,7.4765,18.9562,"Central African Republic",CF,CAF,Nana-Grébizi,Nana-Grebizi,CF-KB,"economic prefecture",,3.1,,,5,Africa/Bangui,FALSE,1140777362
Zendé,Zende,Zendi,4.1992,18.1525,"Central African Republic",CF,CAF,Lobaye,Lobaye,CF-LB,prefecture,,3.0,,,5,Africa/Bangui,FALSE,1140622723
Boussahina,Boussahina,Bosoumya,6.9381,15.4730,"Central African Republic",CF,CAF,Ouham-Pendé,Ouham-Pende,CF-OP,prefecture,,16.4,,,4,Africa/Bangui,FALSE,1140415111
Bengri,Bengri,Bengiri,6.5000,24.8167,"Central African Republic",CF,CAF,Haut-Mbomou,Haut-Mbomou,CF-HM,prefecture,,0.6,,,5,Africa/Bangui,FALSE,1140123726
Polisé,Polise,Polissé,4.6230,22.7296,"Central African Republic",CF,CAF,Mbomou,Mbomou,CF-MB,prefecture,,25.6,,,4,Africa/Bangui,FALSE,1140658231
Ngouya,Ngouya,,6.9990,19.6704,"Central African Republic",CF,CAF,Nana-Grébizi,Nana-Grebizi,CF-KB,"economic prefecture",,4.1,,,5,Africa/Bangui,FALSE,1140409481
Ngolo,Ngolo,,4.5772,22.2555,"Central African Republic",CF,CAF,Mbomou,Mbomou,CF-MB,prefecture,,2.7,,,5,Africa/Bangui,FALSE,1140186799
Angora,Angora,,6.2333,20.8500,"Central African Republic",CF,CAF,Ouaka,Ouaka,CF-UK,prefecture,,1.9,,,5,Africa/Bangui,FALSE,1140646324
Bangoro,Bangoro,,6.8742,16.9507,"Central African Republic",CF,CAF,Ouham,Ouham,CF-AC,prefecture,,14.1,,,4,Africa/Bangui,FALSE,1140926748
Sébokélé,Sebokele,Sébokéré|Sabokiri|Sébékélé,4.2178,18.3978,"Central African Republic",CF,CAF,Ombella-Mpoko,Ombella-Mpoko,CF-MP,prefecture,,95.7,,,4,Africa/Bangui,FALSE,1140605308
Boudélé,Boudele,,5.6330,17.8346,"Central African Republic",CF,CAF,Ombella-Mpoko,Ombella-Mpoko,CF-MP,prefecture,,2.1,,,5,Africa/Bangui,FALSE,1140934374
Togouo,Togouo,,5.7667,19.9833,"Central African Republic",CF,CAF,Ouaka,Ouaka,CF-UK,prefecture,,3.4,,,5,Africa/Bangui,FALSE,1140061137
Poufé,Poufe,,7.1090,16.4196,"Central African Republic",CF,CAF,Ouham-Pendé,Ouham-Pende,CF-OP,prefecture,,29.2,,,4,Africa/Bangui,FALSE,1140258432
Gbongo,Gbongo,,5.1249,19.3868,"Central African Republic",CF,CAF,Kémo,Kemo,CF-KG,prefecture,,7.2,,,5,Africa/Bangui,FALSE,1140022948
Mbrés,Mbres,"Les Mbré|Les Mbrés|Kaga Mbre",6.6667,19.8000,"Central African Republic",CF,CAF,Nana-Grébizi,Nana-Grebizi,CF-KB,"economic prefecture",,8.3,,,3,Africa/Bangui,FALSE,1140558628
Balé,Bale,,5.9333,21.8667,"Central African Republic",CF,CAF,Ouaka,Ouaka,CF-UK,prefecture,,1.8,,,5,Africa/Bangui,FALSE,1140639027
Massinga,Massinga,,6.9829,22.9873,"Central African Republic",CF,CAF,Haute-Kotto,Haute-Kotto,CF-HK,prefecture,,0.2,,,5,Africa/Bangui,FALSE,1140670086
Bogang,Bogang,,7.0050,15.2544,"Central African Republic",CF,CAF,Ouham-Pendé,Ouham-Pende,CF-OP,prefecture,,20.4,,,4,Africa/Bangui,FALSE,1140758927
Boudoy,Boudoy,Boundoy,4.1727,17.4406,"Central African Republic",CF,CAF,Lobaye,Lobaye,CF-LB,prefecture,,20.7,,,4,Africa/Bangui,FALSE,1140359493
Karé,Kare,Caré,7.1917,17.9594,"Central African Republic",CF,CAF,Ouham,Ouham,CF-AC,prefecture,,8.6,,,5,Africa/Bangui,FALSE,1140462883
Bogbo,Bogbo,,4.9674,18.7114,"Central African Republic",CF,CAF,Ombella-Mpoko,Ombella-Mpoko,CF-MP,prefecture,,5.7,,,5,Africa/Bangui,FALSE,1140961622
"Bosa I","Bosa I",Bossa,6.3461,16.8977,"Central African Republic",CF,CAF,Ouham-Pendé,Ouham-Pende,CF-OP,prefecture,,4.0,,,5,Africa/Bangui,FALSE,1140270040
Ndoddé,Ndodde,N’Doré,4.3333,16.9833,"Central African Republic",CF,CAF,Lobaye,Lobaye,CF-LB,prefecture,,6.3,,,5,Africa/Bangui,FALSE,1140825146
Bongadi,Bongadi,,6.6833,17.5667,"Central African Republic",CF,CAF,Ouham,Ouham,CF-AC,prefecture,,22.6,,,4,Africa/Bangui,FALSE,1140295568
Bangardin,Bangardin,,6.0667,18.0667,"Central African Republic",CF,CAF,Ouham,Ouham,CF-AC,prefecture,,2.1,,,5,Africa/Bangui,FALSE,1140887277
Badza,Badza,,5.1292,19.7859,"Central African Republic",CF,CAF,Kémo,Kemo,CF-KG,prefecture,,7.2,,,5,Africa/Bangui,FALSE,1140292055
Sambia,Sambia,,5.7846,22.3945,"Central African Republic",CF,CAF,Mbomou,Mbomou,CF-MB,prefecture,,1.7,,,5,Africa/Bangui,FALSE,1140116839
Bofélé,Bofele,,5.2055,18.4061,"Central African Republic",CF,CAF,Ombella-Mpoko,Ombella-Mpoko,CF-MP,prefecture,,5.7,,,5,Africa/Bangui,FALSE,1140812034
Goundelé,Goundele,,6.5167,21.9833,"Central African Republic",CF,CAF,Haute-Kotto,Haute-Kotto,CF-HK,prefecture,,7.8,,,5,Africa/Bangui,FALSE,1140626251
Gbandi,Gbandi,,5.0398,22.4833,"Central African Republic",CF,CAF,Mbomou,Mbomou,CF-MB,prefecture,,1.7,,,5,Africa/Bangui,FALSE,1140558772
Kolaza,Kolaza,Ligui,4.6313,21.7217,"Central African Republic",CF,CAF,Basse-Kotto,Basse-Kotto,CF-BK,prefecture,,39.4,,,4,Africa/Bangui,FALSE,1140926242
Békagourou,Bekagourou,,5.5473,16.7245,"Central African Republic",CF,CAF,Ombella-Mpoko,Ombella-Mpoko,CF-MP,prefecture,,8.5,,,5,Africa/Bangui,FALSE,1140169170
Bodjomo,Bodjomo,,7.4166,17.1354,"Central African Republic",CF,CAF,Ouham,Ouham,CF-AC,prefecture,,5.6,,,5,Africa/Bangui,FALSE,1140736354
Kangou,Kangou,,4.2000,22.1393,"Central African Republic",CF,CAF,Mbomou,Mbomou,CF-MB,prefecture,,11.6,,,4,Africa/Bangui,FALSE,1140468951
Bélé,Bele,Béré,7.3986,15.7760,"Central African Republic",CF,CAF,Ouham-Pendé,Ouham-Pende,CF-OP,prefecture,,70.3,,,4,Africa/Bangui,FALSE,1140950319
Bélé,Bele,,7.0640,16.2198,"Central African Republic",CF,CAF,Ouham-Pendé,Ouham-Pende,CF-OP,prefecture,,14.8,,,4,Africa/Bangui,TRUE,1140702972
Gbiatogbo,Gbiatogbo,,5.1624,19.5522,"Central African Republic",CF,CAF,Kémo,Kemo,CF-KG,prefecture,,7.2,,,5,Africa/Bangui,FALSE,1140234217
Moko,Moko,,5.4333,21.2333,"Central African Republic",CF,CAF,Basse-Kotto,Basse-Kotto,CF-BK,prefecture,,6.1,,,5,Africa/Bangui,FALSE,1140325900
Kidjingou,Kidjingou,,5.6860,20.5525,"Central African Republic",CF,CAF,Ouaka,Ouaka,CF-UK,prefecture,,16.7,,,4,Africa/Bangui,FALSE,1140295989
Ngoula,Ngoula,,5.0907,20.0715,"Central African Republic",CF,CAF,Ouaka,Ouaka,CF-UK,prefecture,,12.5,,,4,Africa/Bangui,FALSE,1140100053
Potopoto,Potopoto,,4.4167,18.5500,"Central African Republic",CF,CAF,Bangui,Bangui,CF-BGF,commune,,4418.5,,,2,Africa/Bangui,FALSE,1140337813
Boroudou,Boroudou,,5.0630,21.1844,"Central African Republic",CF,CAF,Basse-Kotto,Basse-Kotto,CF-BK,prefecture,,404.3,,,3,Africa/Bangui,FALSE,1140909659
Ngounga,Ngounga,Ndounga,4.6296,22.3801,"Central African Republic",CF,CAF,Mbomou,Mbomou,CF-MB,prefecture,,2.7,,,5,Africa/Bangui,FALSE,1140196010
Goungou,Goungou,,4.5191,16.4727,"Central African Republic",CF,CAF,Mambéré-Kadéï,Mambere-Kadei,CF-HS,prefecture,,10.5,,,4,Africa/Bangui,FALSE,1140037946
Boungoro,Boungoro,,4.9167,17.1000,"Central African Republic",CF,CAF,Lobaye,Lobaye,CF-LB,prefecture,,12.2,,,4,Africa/Bangui,FALSE,1140809042
Bakalou,Bakalou,,6.3333,17.6500,"Central African Republic",CF,CAF,Ouham,Ouham,CF-AC,prefecture,,15.7,,,4,Africa/Bangui,FALSE,1140558264
Diba,Diba,,4.6167,21.3000,"Central African Republic",CF,CAF,Basse-Kotto,Basse-Kotto,CF-BK,prefecture,,40.0,,,4,Africa/Bangui,FALSE,1140522111
Bomandoro,Bomandoro,,4.2807,17.4054,"Central African Republic",CF,CAF,Lobaye,Lobaye,CF-LB,prefecture,,20.7,,,4,Africa/Bangui,FALSE,1140501571
"Ourouguia Pélé","Ourouguia Pele",,4.6667,21.6667,"Central African Republic",CF,CAF,Basse-Kotto,Basse-Kotto,CF-BK,prefecture,,39.4,,,4,Africa/Bangui,FALSE,1140997771
Bétobra,Betobra,,7.6025,16.9348,"Central African Republic",CF,CAF,Ouham,Ouham,CF-AC,prefecture,,5.6,,,5,Africa/Bangui,FALSE,1140619241
Pakpa,Pakpa,,5.7833,20.0333,"Central African Republic",CF,CAF,Ouaka,Ouaka,CF-UK,prefecture,,3.4,,,5,Africa/Bangui,FALSE,1140737230
Bassango,Bassango,,4.5167,21.9333,"Central African Republic",CF,CAF,Basse-Kotto,Basse-Kotto,CF-BK,prefecture,,39.4,,,4,Africa/Bangui,FALSE,1140544326
Mbélé,Mbele,,5.0000,20.0333,"Central African Republic",CF,CAF,Ouaka,Ouaka,CF-UK,prefecture,,21.3,,,4,Africa/Bangui,FALSE,1140991660
Mbélé,Mbele,,5.1520,20.3168,"Central African Republic",CF,CAF,Ouaka,Ouaka,CF-UK,prefecture,,12.5,,,4,Africa/Bangui,TRUE,1140127518
Koudi,Koudi,,8.6500,20.3333,"Central African Republic",CF,CAF,Bamingui-Bangoran,Bamingui-Bangoran,CF-BB,prefecture,,1.4,,,5,Africa/Bangui,FALSE,1140646255
Gaoda,Gaoda,,5.8167,20.2167,"Central African Republic",CF,CAF,Ouaka,Ouaka,CF-UK,prefecture,,5.5,,,5,Africa/Bangui,FALSE,1140554748
Bouinimo,Bouinimo,,5.5831,18.2521,"Central African Republic",CF,CAF,Ombella-Mpoko,Ombella-Mpoko,CF-MP,prefecture,,2.1,,,5,Africa/Bangui,FALSE,1140124295
"Campement Ngoéré","Campement Ngoere",N’Goéré,4.7167,15.5667,"Central African Republic",CF,CAF,Mambéré-Kadéï,Mambere-Kadei,CF-HS,prefecture,,27.1,,,4,Africa/Bangui,FALSE,1140551099
Boyacpa,Boyacpa,,5.1667,20.1833,"Central African Republic",CF,CAF,Ouaka,Ouaka,CF-UK,prefecture,,12.5,,,4,Africa/Bangui,FALSE,1140314047
Ngonikira,Ngonikira,,7.5738,18.5223,"Central African Republic",CF,CAF,Ouham,Ouham,CF-AC,prefecture,,8.5,,,5,Africa/Bangui,FALSE,1140907815
Araya,Araya,,6.8020,16.1213,"Central African Republic",CF,CAF,Ouham-Pendé,Ouham-Pende,CF-OP,prefecture,,11.1,,,4,Africa/Bangui,FALSE,1140313160
Bondia,Bondia,,6.8667,17.0333,"Central African Republic",CF,CAF,Ouham,Ouham,CF-AC,prefecture,,21.3,,,4,Africa/Bangui,FALSE,1140347475
Guissi,Guissi,,4.6374,17.2081,"Central African Republic",CF,CAF,Lobaye,Lobaye,CF-LB,prefecture,,12.2,,,4,Africa/Bangui,FALSE,1140888956
Sanga,Sanga,,6.2667,19.1000,"Central African Republic",CF,CAF,Kémo,Kemo,CF-KG,prefecture,,7.2,,,5,Africa/Bangui,FALSE,1140812977
Mbali,Mbali,,7.0824,16.0824,"Central African Republic",CF,CAF,Ouham-Pendé,Ouham-Pende,CF-OP,prefecture,,29.2,,,4,Africa/Bangui,FALSE,1140034724
Méri,Meri,,6.9476,17.4944,"Central African Republic",CF,CAF,Ouham,Ouham,CF-AC,prefecture,,32.1,,,4,Africa/Bangui,FALSE,1140376606
Bouamsara,Bouamsara,Boanzara,7.1888,17.3931,"Central African Republic",CF,CAF,Ouham,Ouham,CF-AC,prefecture,,32.1,,,4,Africa/Bangui,FALSE,1140712148
Bézéli,Bezeli,,6.3297,17.6643,"Central African Republic",CF,CAF,Ouham,Ouham,CF-AC,prefecture,,15.7,,,4,Africa/Bangui,FALSE,1140035856
Dambagoua,Dambagoua,,5.6440,20.3208,"Central African Republic",CF,CAF,Ouaka,Ouaka,CF-UK,prefecture,,5.5,,,5,Africa/Bangui,FALSE,1140247166
Noua,Noua,,4.3333,21.2333,"Central African Republic",CF,CAF,Basse-Kotto,Basse-Kotto,CF-BK,prefecture,,114.5,,,4,Africa/Bangui,FALSE,1140322587
Zagoua,Zagoua,,5.7680,20.1424,"Central African Republic",CF,CAF,Ouaka,Ouaka,CF-UK,prefecture,,5.5,,,5,Africa/Bangui,FALSE,1140209701
Limassa,Limassa,Limasa,4.2313,22.0279,"Central African Republic",CF,CAF,Basse-Kotto,Basse-Kotto,CF-BK,prefecture,,25.5,,,4,Africa/Bangui,FALSE,1140556288
Bonguéré,Bonguere,,6.7115,17.5676,"Central African Republic",CF,CAF,Ouham,Ouham,CF-AC,prefecture,,22.6,,,4,Africa/Bangui,FALSE,1140460669
Ouga,Ouga,,5.9624,19.1438,"Central African Republic",CF,CAF,Kémo,Kemo,CF-KG,prefecture,,4.7,,,5,Africa/Bangui,FALSE,1140844935
Songui,Songui,,4.1167,16.0667,"Central African Republic",CF,CAF,Mambéré-Kadéï,Mambere-Kadei,CF-HS,prefecture,,10.5,,,4,Africa/Bangui,FALSE,1140224466
Kribi,Kribi,,3.8276,15.3585,"Central African Republic",CF,CAF,Mambéré-Kadéï,Mambere-Kadei,CF-HS,prefecture,,25.6,,,4,Africa/Bangui,FALSE,1140741200
Bakota,Bakota,,3.8167,17.4833,"Central African Republic",CF,CAF,Lobaye,Lobaye,CF-LB,prefecture,,9.2,,,5,Africa/Bangui,FALSE,1140779387
Kembé,Kembe,,4.4609,18.8015,"Central African Republic",CF,CAF,Ombella-Mpoko,Ombella-Mpoko,CF-MP,prefecture,,95.7,,,4,Africa/Bangui,FALSE,1140672497
Namana,Namana,,7.3668,16.2255,"Central African Republic",CF,CAF,Ouham-Pendé,Ouham-Pende,CF-OP,prefecture,,18.2,,,4,Africa/Bangui,FALSE,1140075647
Bondila,Bondila,,4.4333,15.1500,"Central African Republic",CF,CAF,Mambéré-Kadéï,Mambere-Kadei,CF-HS,prefecture,,14.6,,,4,Africa/Bangui,FALSE,1140925076
Kelinga,Kelinga,,3.6833,18.3333,"Central African Republic",CF,CAF,Lobaye,Lobaye,CF-LB,prefecture,,24.1,,,4,Africa/Bangui,FALSE,1140640731
Doktoro,Doktoro,,6.6687,19.7493,"Central African Republic",CF,CAF,Nana-Grébizi,Nana-Grebizi,CF-KB,"economic prefecture",,8.3,,,5,Africa/Bangui,FALSE,1140182726
Aoléka,Aoleka,,4.5000,20.9000,"Central African Republic",CF,CAF,Basse-Kotto,Basse-Kotto,CF-BK,prefecture,,36.8,,,4,Africa/Bangui,FALSE,1140852620
Nguezé,Ngueze,Oueteké,4.6423,21.7185,"Central African Republic",CF,CAF,Basse-Kotto,Basse-Kotto,CF-BK,prefecture,,39.4,,,4,Africa/Bangui,FALSE,1140607508
Kembé,Kembe,,4.7326,22.7757,"Central African Republic",CF,CAF,Mbomou,Mbomou,CF-MB,prefecture,,25.3,,,4,Africa/Bangui,FALSE,1140866845
Badjia,Badjia,,5.5167,20.0167,"Central African Republic",CF,CAF,Ouaka,Ouaka,CF-UK,prefecture,,3.4,,,5,Africa/Bangui,FALSE,1140295962
Yaboko,Yaboko,,5.9050,21.6502,"Central African Republic",CF,CAF,Ouaka,Ouaka,CF-UK,prefecture,,1.8,,,5,Africa/Bangui,FALSE,1140218309
Kommanda,Kommanda,,5.5126,20.4015,"Central African Republic",CF,CAF,Ouaka,Ouaka,CF-UK,prefecture,,16.7,,,4,Africa/Bangui,FALSE,1140620289
Bongossi,Bongossi,,6.6909,17.8572,"Central African Republic",CF,CAF,Ouham,Ouham,CF-AC,prefecture,,22.6,,,4,Africa/Bangui,FALSE,1140621786
Bondogotio,Bondogotio,,6.8162,17.4772,"Central African Republic",CF,CAF,Ouham,Ouham,CF-AC,prefecture,,32.1,,,4,Africa/Bangui,FALSE,1140325944
Mbringui,Mbringui,,7.9833,22.4000,"Central African Republic",CF,CAF,Haute-Kotto,Haute-Kotto,CF-HK,prefecture,,0.4,,,5,Africa/Bangui,FALSE,1140706774
Sikia,Sikia,Sekia,4.3167,18.4167,"Central African Republic",CF,CAF,Ombella-Mpoko,Ombella-Mpoko,CF-MP,prefecture,,95.7,,,4,Africa/Bangui,FALSE,1140417614
Ili,Ili,,7.4401,15.8600,"Central African Republic",CF,CAF,Ouham-Pendé,Ouham-Pende,CF-OP,prefecture,,70.3,,,4,Africa/Bangui,FALSE,1140004982
Belegué,Belegue,,7.2808,16.9968,"Central African Republic",CF,CAF,Ouham,Ouham,CF-AC,prefecture,,5.6,,,5,Africa/Bangui,FALSE,1140776986
"Dahal Azrak","Dahal Azrak","Dahal el Azraq|Dalh el Azrack",10.3866,22.8014,"Central African Republic",CF,CAF,Vakaga,Vakaga,CF-VK,prefecture,,1.6,,,5,Africa/Bangui,FALSE,1140543013
Tandomazouma,Tandomazouma,,4.1747,22.4966,"Central African Republic",CF,CAF,Mbomou,Mbomou,CF-MB,prefecture,,133.6,,,4,Africa/Bangui,FALSE,1140234661
Pama,Pama,,4.5167,16.8167,"Central African Republic",CF,CAF,Mambéré-Kadéï,Mambere-Kadei,CF-HS,prefecture,,11.6,,,4,Africa/Bangui,FALSE,1140277844
Pama,Pama,,4.4167,16.3667,"Central African Republic",CF,CAF,Mambéré-Kadéï,Mambere-Kadei,CF-HS,prefecture,,10.5,,,4,Africa/Bangui,TRUE,1140260624
Kossio,Kossio,,7.0223,21.6833,"Central African Republic",CF,CAF,Haute-Kotto,Haute-Kotto,CF-HK,prefecture,,7.8,,,5,Africa/Bangui,FALSE,1140305477
Bougali,Bougali,,5.6120,17.8740,"Central African Republic",CF,CAF,Ombella-Mpoko,Ombella-Mpoko,CF-MP,prefecture,,2.1,,,5,Africa/Bangui,FALSE,1140497882
Yangoumia,Yangoumia,,6.4833,22.7000,"Central African Republic",CF,CAF,Haute-Kotto,Haute-Kotto,CF-HK,prefecture,,0.2,,,5,Africa/Bangui,FALSE,1140856288
"Baïna Bondio","Baina Bondio",Beina-Bondio,5.1637,16.5502,"Central African Republic",CF,CAF,Mambéré-Kadéï,Mambere-Kadei,CF-HS,prefecture,,11.6,,,4,Africa/Bangui,FALSE,1140686756
Baloudoua,Baloudoua,,5.0258,17.5016,"Central African Republic",CF,CAF,Ombella-Mpoko,Ombella-Mpoko,CF-MP,prefecture,,5.3,,,5,Africa/Bangui,FALSE,1140249493
Bindoye,Bindoye,Bindoy,7.4158,16.0639,"Central African Republic",CF,CAF,Ouham-Pendé,Ouham-Pende,CF-OP,prefecture,,14.1,,,4,Africa/Bangui,FALSE,1140135403
Douksoudou,Douksoudou,,7.0333,17.0667,"Central African Republic",CF,CAF,Ouham,Ouham,CF-AC,prefecture,,14.1,,,4,Africa/Bangui,FALSE,1140386429
Imako,Imako,,6.2231,19.3973,"Central African Republic",CF,CAF,Kémo,Kemo,CF-KG,prefecture,,12.8,,,4,Africa/Bangui,FALSE,1140953670
"Bangala Boupane","Bangala Boupane",,4.9959,16.8277,"Central African Republic",CF,CAF,Mambéré-Kadéï,Mambere-Kadei,CF-HS,prefecture,,11.1,,,4,Africa/Bangui,FALSE,1140371055
Gobongo,Gobongo,,4.4152,18.5440,"Central African Republic",CF,CAF,Bangui,Bangui,CF-BGF,commune,,19876.5,,,2,Africa/Bangui,FALSE,1140874880
Koumbéré,Koumbere,,6.8379,16.3124,"Central African Republic",CF,CAF,Ouham-Pendé,Ouham-Pende,CF-OP,prefecture,,29.2,,,4,Africa/Bangui,FALSE,1140549635
Otto,Otto,,4.5667,21.9333,"Central African Republic",CF,CAF,Basse-Kotto,Basse-Kotto,CF-BK,prefecture,,39.4,,,4,Africa/Bangui,FALSE,1140421736
Bobakélé,Bobakele,,5.2500,17.6833,"Central African Republic",CF,CAF,Ombella-Mpoko,Ombella-Mpoko,CF-MP,prefecture,,6.4,,,5,Africa/Bangui,FALSE,1140286250
Tombé,Tombe,,6.0811,19.5784,"Central African Republic",CF,CAF,Kémo,Kemo,CF-KG,prefecture,,9.2,,,5,Africa/Bangui,FALSE,1140574371
Bodanga,Bodanga,Botanga,5.5273,16.7569,"Central African Republic",CF,CAF,Ombella-Mpoko,Ombella-Mpoko,CF-MP,prefecture,,8.5,,,5,Africa/Bangui,FALSE,1140710331
Bodanga,Bodanga,"Botanga III",5.4301,16.8959,"Central African Republic",CF,CAF,Ombella-Mpoko,Ombella-Mpoko,CF-MP,prefecture,,8.5,,,5,Africa/Bangui,TRUE,1140787334
Bodanga,Bodanga,,5.1126,17.7452,"Central African Republic",CF,CAF,Ombella-Mpoko,Ombella-Mpoko,CF-MP,prefecture,,6.4,,,5,Africa/Bangui,TRUE,1140985412
Bodanga,Bodanga,Bodango,4.9989,17.4837,"Central African Republic",CF,CAF,Ombella-Mpoko,Ombella-Mpoko,CF-MP,prefecture,,5.3,,,5,Africa/Bangui,TRUE,1140392780
Tchimayaga,Tchimayaga,,5.8000,19.5000,"Central African Republic",CF,CAF,Kémo,Kemo,CF-KG,prefecture,,4.7,,,5,Africa/Bangui,FALSE,1140630917
Guerengou,Guerengou,,6.7500,22.2000,"Central African Republic",CF,CAF,Haute-Kotto,Haute-Kotto,CF-HK,prefecture,,7.8,,,5,Africa/Bangui,FALSE,1140172430
Dilapoko,Dilapoko,,4.5000,15.1667,"Central African Republic",CF,CAF,Mambéré-Kadéï,Mambere-Kadei,CF-HS,prefecture,,14.6,,,4,Africa/Bangui,FALSE,1140755852
Lenda,Lenda,,4.5402,20.7084,"Central African Republic",CF,CAF,Basse-Kotto,Basse-Kotto,CF-BK,prefecture,,13.9,,,4,Africa/Bangui,FALSE,1140574785
Bangowen,Bangowen,,5.5690,15.3939,"Central African Republic",CF,CAF,Nana-Mambéré,Nana-Mambere,CF-NM,prefecture,,10.2,,,4,Africa/Bangui,FALSE,1140450577
Méré,Mere,,7.4399,17.9561,"Central African Republic",CF,CAF,Ouham,Ouham,CF-AC,prefecture,,8.6,,,5,Africa/Bangui,FALSE,1140539115
Ngama,Ngama,,5.2854,21.5361,"Central African Republic",CF,CAF,Basse-Kotto,Basse-Kotto,CF-BK,prefecture,,4.9,,,5,Africa/Bangui,FALSE,1140876309
Doublé,Double,,6.9833,19.8833,"Central African Republic",CF,CAF,Nana-Grébizi,Nana-Grebizi,CF-KB,"economic prefecture",,8.3,,,5,Africa/Bangui,FALSE,1140484612
Tabane,Tabane,Tabana,5.0914,24.9900,"Central African Republic",CF,CAF,Haut-Mbomou,Haut-Mbomou,CF-HM,prefecture,,3.7,,,5,Africa/Bangui,FALSE,1140669146
Bodobaye,Bodobaye,,4.8000,18.6333,"Central African Republic",CF,CAF,Ombella-Mpoko,Ombella-Mpoko,CF-MP,prefecture,,5.7,,,5,Africa/Bangui,FALSE,1140941439
Goudamba,Goudamba,,5.7333,20.0333,"Central African Republic",CF,CAF,Ouaka,Ouaka,CF-UK,prefecture,,187.4,,,4,Africa/Bangui,FALSE,1140133486
"Waugué II","Waugue II",,6.8333,18.2833,"Central African Republic",CF,CAF,Ouham,Ouham,CF-AC,prefecture,,9.5,,,5,Africa/Bangui,FALSE,1140875698
Tala,Tala,,9.5080,22.6737,"Central African Republic",CF,CAF,Vakaga,Vakaga,CF-VK,prefecture,,1.9,,,5,Africa/Bangui,FALSE,1140559427
Ndété,Ndete,Ndetté,5.7169,22.6898,"Central African Republic",CF,CAF,Mbomou,Mbomou,CF-MB,prefecture,,1.7,,,5,Africa/Bangui,FALSE,1140391896
"Garga Boutou","Garga Boutou",,5.0446,15.6385,"Central African Republic",CF,CAF,Nana-Mambéré,Nana-Mambere,CF-NM,prefecture,,8.5,,,5,Africa/Bangui,FALSE,1140741067
Badjoli,Badjoli,,7.4566,17.0921,"Central African Republic",CF,CAF,Ouham,Ouham,CF-AC,prefecture,,5.6,,,5,Africa/Bangui,FALSE,1140254272
Ngoumbé,Ngoumbe,,5.2667,19.5333,"Central African Republic",CF,CAF,Kémo,Kemo,CF-KG,prefecture,,7.2,,,5,Africa/Bangui,FALSE,1140973858
Tatakara,Tatakara,,5.2333,19.1667,"Central African Republic",CF,CAF,Kémo,Kemo,CF-KG,prefecture,,6.2,,,5,Africa/Bangui,FALSE,1140674821
Tangi,Tangi,Tangui,4.2383,22.0477,"Central African Republic",CF,CAF,Mbomou,Mbomou,CF-MB,prefecture,,11.6,,,4,Africa/Bangui,FALSE,1140407371
Gbakoulou,Gbakoulou,,5.1185,18.5234,"Central African Republic",CF,CAF,Ombella-Mpoko,Ombella-Mpoko,CF-MP,prefecture,,5.7,,,5,Africa/Bangui,FALSE,1140842759
Maromassi,Maromassi,Molomassi,6.6500,19.7000,"Central African Republic",CF,CAF,Nana-Grébizi,Nana-Grebizi,CF-KB,"economic prefecture",,8.3,,,5,Africa/Bangui,FALSE,1140439681
Gérégea,Geregea,,5.8058,20.7034,"Central African Republic",CF,CAF,Ouaka,Ouaka,CF-UK,prefecture,,15.2,,,4,Africa/Bangui,FALSE,1140966943
Bokouba,Bokouba,,5.9424,19.1438,"Central African Republic",CF,CAF,Kémo,Kemo,CF-KG,prefecture,,4.7,,,5,Africa/Bangui,FALSE,1140799997
Boywango,Boywango,,5.6921,22.8053,"Central African Republic",CF,CAF,Mbomou,Mbomou,CF-MB,prefecture,,1.7,,,5,Africa/Bangui,FALSE,1140178425
Nguéréfara,Nguerefara,Ngréfara-Rengad,5.7614,19.7472,"Central African Republic",CF,CAF,Ouaka,Ouaka,CF-UK,prefecture,,20.0,,,4,Africa/Bangui,FALSE,1140759749
"Kovongo Mia","Kovongo Mia",,8.1833,20.4667,"Central African Republic",CF,CAF,Bamingui-Bangoran,Bamingui-Bangoran,CF-BB,prefecture,,0.4,,,5,Africa/Bangui,FALSE,1140228586
Ardo,Ardo,,6.2724,14.8244,"Central African Republic",CF,CAF,Nana-Mambéré,Nana-Mambere,CF-NM,prefecture,,5.6,,,5,Africa/Bangui,FALSE,1140907343
Boumbati,Boumbati,,4.6167,17.6667,"Central African Republic",CF,CAF,Ombella-Mpoko,Ombella-Mpoko,CF-MP,prefecture,,7.0,,,5,Africa/Bangui,FALSE,1140085537
Bokoula,Bokoula,,4.8500,21.3500,"Central African Republic",CF,CAF,Basse-Kotto,Basse-Kotto,CF-BK,prefecture,,13.0,,,4,Africa/Bangui,FALSE,1140414302
Nguiabania,Nguiabania,,4.0422,16.1083,"Central African Republic",CF,CAF,Mambéré-Kadéï,Mambere-Kadei,CF-HS,prefecture,,10.5,,,4,Africa/Bangui,FALSE,1140800048
Pangoro,Pangoro,"Pongoro I",7.4643,16.8806,"Central African Republic",CF,CAF,Ouham,Ouham,CF-AC,prefecture,,5.6,,,5,Africa/Bangui,FALSE,1140021555
Binga,Binga,,5.0712,22.4049,"Central African Republic",CF,CAF,Mbomou,Mbomou,CF-MB,prefecture,,1.7,,,5,Africa/Bangui,FALSE,1140420104
Palingou,Palingou,,5.6442,19.7980,"Central African Republic",CF,CAF,Ouaka,Ouaka,CF-UK,prefecture,,3.4,,,5,Africa/Bangui,FALSE,1140472789
Ngouarapa,Ngouarapa,,6.7421,22.1205,"Central African Republic",CF,CAF,Haute-Kotto,Haute-Kotto,CF-HK,prefecture,,7.8,,,5,Africa/Bangui,FALSE,1140191273
"Bokayanga I","Bokayanga I",Bocayanga,7.8241,18.6691,"Central African Republic",CF,CAF,Ouham,Ouham,CF-AC,prefecture,,5.9,,,5,Africa/Bangui,FALSE,1140365706
"Bébinguéré Neuf","Bebinguere Neuf",,7.6998,16.4201,"Central African Republic",CF,CAF,Ouham-Pendé,Ouham-Pende,CF-OP,prefecture,,18.2,,,4,Africa/Bangui,FALSE,1140240333
Banzéré,Banzere,Banzélé,5.5272,18.2726,"Central African Republic",CF,CAF,Ombella-Mpoko,Ombella-Mpoko,CF-MP,prefecture,,2.1,,,5,Africa/Bangui,FALSE,1140407592
Yélé,Yele,Yellé,6.6283,16.0148,"Central African Republic",CF,CAF,Ouham-Pendé,Ouham-Pende,CF-OP,prefecture,,9.5,,,5,Africa/Bangui,FALSE,1140060357
Békaba,Bekaba,,7.3000,16.4500,"Central African Republic",CF,CAF,Ouham-Pendé,Ouham-Pende,CF-OP,prefecture,,18.2,,,4,Africa/Bangui,FALSE,1140610095
Catambour,Catambour,Katambour|Catembour,6.1667,24.5500,"Central African Republic",CF,CAF,Mbomou,Mbomou,CF-MB,prefecture,,0.7,,,5,Africa/Bangui,FALSE,1140096256
Mbéré,Mbere,,4.4500,21.0167,"Central African Republic",CF,CAF,Basse-Kotto,Basse-Kotto,CF-BK,prefecture,,81.2,,,4,Africa/Bangui,FALSE,1140934007
Bobili,Bobili,,4.1270,17.9797,"Central African Republic",CF,CAF,Lobaye,Lobaye,CF-LB,prefecture,,3.0,,,5,Africa/Bangui,FALSE,1140839344
Benguima,Benguima,Benguinia,6.3667,24.7500,"Central African Republic",CF,CAF,Mbomou,Mbomou,CF-MB,prefecture,,0.7,,,5,Africa/Bangui,FALSE,1140792243
Mbrès,Mbres,Mbélé,5.0937,19.8542,"Central African Republic",CF,CAF,Kémo,Kemo,CF-KG,prefecture,,7.2,,,5,Africa/Bangui,FALSE,1140850277
Bongboto,Bongboto,,6.5948,17.4390,"Central African Republic",CF,CAF,Ouham,Ouham,CF-AC,prefecture,,32.1,,,4,Africa/Bangui,FALSE,1140552900
Pandjimali,Pandjimali,,5.4363,20.8835,"Central African Republic",CF,CAF,Ouaka,Ouaka,CF-UK,prefecture,,9.1,,,5,Africa/Bangui,FALSE,1140573164
Bandévé,Bandeve,,8.0167,20.3167,"Central African Republic",CF,CAF,Bamingui-Bangoran,Bamingui-Bangoran,CF-BB,prefecture,,0.4,,,5,Africa/Bangui,FALSE,1140242983
Boambélé,Boambele,,7.3345,15.8219,"Central African Republic",CF,CAF,Ouham-Pendé,Ouham-Pende,CF-OP,prefecture,,58.7,,,4,Africa/Bangui,FALSE,1140232992
"Dacpa Mindou","Dacpa Mindou",,8.1667,20.5833,"Central African Republic",CF,CAF,Bamingui-Bangoran,Bamingui-Bangoran,CF-BB,prefecture,,0.4,,,5,Africa/Bangui,FALSE,1140510469
"Pia Bogou","Pia Bogou",,5.0833,23.4000,"Central African Republic",CF,CAF,Mbomou,Mbomou,CF-MB,prefecture,,6.3,,,5,Africa/Bangui,FALSE,1140374990
Owou,Owou,"Owou II",6.4093,22.9838,"Central African Republic",CF,CAF,Haute-Kotto,Haute-Kotto,CF-HK,prefecture,,0.2,,,5,Africa/Bangui,FALSE,1140129822
Binginimandji,Binginimandji,,5.8333,19.1500,"Central African Republic",CF,CAF,Kémo,Kemo,CF-KG,prefecture,,4.7,,,5,Africa/Bangui,FALSE,1140489262
Digba,Digba,,8.1167,20.3833,"Central African Republic",CF,CAF,Bamingui-Bangoran,Bamingui-Bangoran,CF-BB,prefecture,,0.4,,,5,Africa/Bangui,FALSE,1140913862
Toumi,Toumi,,6.6885,16.2507,"Central African Republic",CF,CAF,Ouham-Pendé,Ouham-Pende,CF-OP,prefecture,,11.1,,,4,Africa/Bangui,FALSE,1140532268
Kasamoumbé,Kasamoumbe,,4.2289,22.0743,"Central African Republic",CF,CAF,Mbomou,Mbomou,CF-MB,prefecture,,11.6,,,4,Africa/Bangui,FALSE,1140682016
Gungsen,Gungsen,,6.9500,17.5000,"Central African Republic",CF,CAF,Ouham,Ouham,CF-AC,prefecture,,32.1,,,4,Africa/Bangui,FALSE,1140031717
Tapine,Tapine,,7.3883,15.4804,"Central African Republic",CF,CAF,Ouham-Pendé,Ouham-Pende,CF-OP,prefecture,,20.4,,,4,Africa/Bangui,FALSE,1140589762
Inadi,Inadi,,5.0449,22.7584,"Central African Republic",CF,CAF,Mbomou,Mbomou,CF-MB,prefecture,,1.7,,,5,Africa/Bangui,FALSE,1140176180
Patcho,Patcho,,7.1141,19.0344,"Central African Republic",CF,CAF,Nana-Grébizi,Nana-Grebizi,CF-KB,"economic prefecture",,3.1,,,5,Africa/Bangui,FALSE,1140911075
Warana,Warana,,4.3167,16.3833,"Central African Republic",CF,CAF,Mambéré-Kadéï,Mambere-Kadei,CF-HS,prefecture,,10.5,,,4,Africa/Bangui,FALSE,1140652301
Mbousi,Mbousi,,4.3194,18.1190,"Central African Republic",CF,CAF,Lobaye,Lobaye,CF-LB,prefecture,,3.0,,,5,Africa/Bangui,FALSE,1140840706
Madomali,Madomali,,5.8168,20.4230,"Central African Republic",CF,CAF,Ouaka,Ouaka,CF-UK,prefecture,,16.7,,,4,Africa/Bangui,FALSE,1140968644
Cakada,Cakada,,6.4688,17.1929,"Central African Republic",CF,CAF,Ouham,Ouham,CF-AC,prefecture,,18.3,,,4,Africa/Bangui,FALSE,1140336153
Kada,Kada,,4.5833,21.3000,"Central African Republic",CF,CAF,Basse-Kotto,Basse-Kotto,CF-BK,prefecture,,43.3,,,4,Africa/Bangui,FALSE,1140459903
Ganva,Ganva,,6.7030,16.3480,"Central African Republic",CF,CAF,Ouham-Pendé,Ouham-Pende,CF-OP,prefecture,,19.1,,,4,Africa/Bangui,FALSE,1140121571
Bogdembé,Bogdembe,Bodingbé,4.5675,18.3897,"Central African Republic",CF,CAF,Ombella-Mpoko,Ombella-Mpoko,CF-MP,prefecture,,95.7,,,4,Africa/Bangui,FALSE,1140325822
Kalaga,Kalaga,,6.8333,22.1667,"Central African Republic",CF,CAF,Haute-Kotto,Haute-Kotto,CF-HK,prefecture,,7.8,,,5,Africa/Bangui,FALSE,1140500756
Boubadoulé,Boubadoule,,4.5750,17.6881,"Central African Republic",CF,CAF,Ombella-Mpoko,Ombella-Mpoko,CF-MP,prefecture,,7.0,,,5,Africa/Bangui,FALSE,1140298764
Bremoundjou,Bremoundjou,,5.7833,20.6500,"Central African Republic",CF,CAF,Ouaka,Ouaka,CF-UK,prefecture,,849.9,,,3,Africa/Bangui,FALSE,1140466195
"Bokoté Kota","Bokote Kota",,6.9835,16.7354,"Central African Republic",CF,CAF,Ouham,Ouham,CF-AC,prefecture,,14.1,,,4,Africa/Bangui,FALSE,1140825968
Dobéré,Dobere,,5.5991,16.3783,"Central African Republic",CF,CAF,Nana-Mambéré,Nana-Mambere,CF-NM,prefecture,,15.3,,,4,Africa/Bangui,FALSE,1140968564
Botoro,Botoro,,6.8500,17.3500,"Central African Republic",CF,CAF,Ouham,Ouham,CF-AC,prefecture,,32.1,,,4,Africa/Bangui,FALSE,1140334405
Botoro,Botoro,,6.8930,17.0305,"Central African Republic",CF,CAF,Ouham,Ouham,CF-AC,prefecture,,21.3,,,4,Africa/Bangui,TRUE,1140609417
Botoro,Botoro,,6.5849,17.7131,"Central African Republic",CF,CAF,Ouham,Ouham,CF-AC,prefecture,,16.0,,,4,Africa/Bangui,TRUE,1140186712
"Boam Nioro","Boam Nioro",,6.3110,16.4838,"Central African Republic",CF,CAF,Ouham-Pendé,Ouham-Pende,CF-OP,prefecture,,4.0,,,5,Africa/Bangui,FALSE,1140118692
"Boulkinya Dja","Boulkinya Dja",,9.1007,20.5362,"Central African Republic",CF,CAF,Bamingui-Bangoran,Bamingui-Bangoran,CF-BB,prefecture,,1.4,,,5,Africa/Bangui,FALSE,1140781202
Koto,Koto,,5.4212,19.1430,"Central African Republic",CF,CAF,Kémo,Kemo,CF-KG,prefecture,,6.2,,,5,Africa/Bangui,FALSE,1140957723
Koto,Koto,,5.6333,19.1000,"Central African Republic",CF,CAF,Kémo,Kemo,CF-KG,prefecture,,6.2,,,5,Africa/Bangui,TRUE,1140378511
Dépinda,Depinda,,5.8308,20.6240,"Central African Republic",CF,CAF,Ouaka,Ouaka,CF-UK,prefecture,,16.7,,,4,Africa/Bangui,FALSE,1140108377
"Mbéré Guili","Mbere Guili",,7.2605,15.5274,"Central African Republic",CF,CAF,Ouham-Pendé,Ouham-Pende,CF-OP,prefecture,,20.4,,,4,Africa/Bangui,FALSE,1140285663
Bagava,Bagava,,5.8000,20.6500,"Central African Republic",CF,CAF,Ouaka,Ouaka,CF-UK,prefecture,,197.7,,,4,Africa/Bangui,FALSE,1140776210
Koso,Koso,,6.7105,16.3424,"Central African Republic",CF,CAF,Ouham-Pendé,Ouham-Pende,CF-OP,prefecture,,19.1,,,4,Africa/Bangui,FALSE,1140045956
Mama,Mama,,6.0784,19.9477,"Central African Republic",CF,CAF,Ouaka,Ouaka,CF-UK,prefecture,,3.4,,,5,Africa/Bangui,FALSE,1140008260
"Yabaka I","Yabaka I",Yabaka,7.0042,19.2215,"Central African Republic",CF,CAF,Nana-Grébizi,Nana-Grebizi,CF-KB,"economic prefecture",,327.0,,,3,Africa/Bangui,FALSE,1140001982
"Pingo Pingo","Pingo Pingo",,5.0533,22.7633,"Central African Republic",CF,CAF,Mbomou,Mbomou,CF-MB,prefecture,,1.7,,,5,Africa/Bangui,FALSE,1140000014
Gozion,Gozion,,7.1053,16.3883,"Central African Republic",CF,CAF,Ouham-Pendé,Ouham-Pende,CF-OP,prefecture,,29.2,,,4,Africa/Bangui,FALSE,1140465259
Hèngué,Hengue,,5.2280,19.5303,"Central African Republic",CF,CAF,Kémo,Kemo,CF-KG,prefecture,,7.2,,,5,Africa/Bangui,FALSE,1140026785
Aouasa,Aouasa,,4.2667,15.7833,"Central African Republic",CF,CAF,Mambéré-Kadéï,Mambere-Kadei,CF-HS,prefecture,,8.1,,,5,Africa/Bangui,FALSE,1140262361
"Bawi II","Bawi II",,5.8699,16.1177,"Central African Republic",CF,CAF,Ouham-Pendé,Ouham-Pende,CF-OP,prefecture,,5.0,,,5,Africa/Bangui,FALSE,1140517925
Zoumanga,Zoumanga,,4.5333,21.4000,"Central African Republic",CF,CAF,Basse-Kotto,Basse-Kotto,CF-BK,prefecture,,13.6,,,4,Africa/Bangui,FALSE,1140427926
Danga,Danga,,7.3230,15.3200,"Central African Republic",CF,CAF,Ouham-Pendé,Ouham-Pende,CF-OP,prefecture,,20.4,,,4,Africa/Bangui,FALSE,1140591109
"Kaba II","Kaba II",,7.0167,19.4000,"Central African Republic",CF,CAF,Nana-Grébizi,Nana-Grebizi,CF-KB,"economic prefecture",,4.1,,,5,Africa/Bangui,FALSE,1140159733
Bourma,Bourma,,6.1695,17.4457,"Central African Republic",CF,CAF,Ouham,Ouham,CF-AC,prefecture,,1.9,,,5,Africa/Bangui,FALSE,1140598997
Binguibanda,Binguibanda,,5.8409,20.4645,"Central African Republic",CF,CAF,Ouaka,Ouaka,CF-UK,prefecture,,16.7,,,4,Africa/Bangui,FALSE,1140127864
Kemba,Kemba,,4.1372,22.4357,"Central African Republic",CF,CAF,Mbomou,Mbomou,CF-MB,prefecture,,137.9,,,4,Africa/Bangui,FALSE,1140012893
Déko-Togbo,Deko-Togbo,"Déko I",5.2992,19.5709,"Central African Republic",CF,CAF,Kémo,Kemo,CF-KG,prefecture,,7.2,,,5,Africa/Bangui,FALSE,1140074150
Babigoua,Babigoua,,6.2167,20.1500,"Central African Republic",CF,CAF,Ouaka,Ouaka,CF-UK,prefecture,,1.0,,,5,Africa/Bangui,FALSE,1140777475
Bania,Bania,,4.0100,16.1177,"Central African Republic",CF,CAF,Mambéré-Kadéï,Mambere-Kadei,CF-HS,prefecture,,10.5,,,4,Africa/Bangui,FALSE,1140113016
Bobatoua,Bobatoua,,6.4049,17.5566,"Central African Republic",CF,CAF,Ouham,Ouham,CF-AC,prefecture,,15.7,,,4,Africa/Bangui,FALSE,1140673300
Bobatoua,Bobatoua,Bobatoa,5.7608,18.3060,"Central African Republic",CF,CAF,Ouham,Ouham,CF-AC,prefecture,,2.1,,,5,Africa/Bangui,TRUE,1140577051
Bobatoua,Bobatoua,,6.2833,18.3500,"Central African Republic",CF,CAF,Ouham,Ouham,CF-AC,prefecture,,2.1,,,5,Africa/Bangui,TRUE,1140766829
Meskine,Meskine,,5.4667,24.3167,"Central African Republic",CF,CAF,Mbomou,Mbomou,CF-MB,prefecture,,0.7,,,5,Africa/Bangui,FALSE,1140200784
Yamara,Yamara,,6.6000,18.2333,"Central African Republic",CF,CAF,Ouham,Ouham,CF-AC,prefecture,,5.3,,,5,Africa/Bangui,FALSE,1140103933
"Ndiba Bouassa","Ndiba Bouassa",Diba|Diba-Bouessa,5.8242,14.9542,"Central African Republic",CF,CAF,Nana-Mambéré,Nana-Mambere,CF-NM,prefecture,,6.7,,,5,Africa/Bangui,FALSE,1140390922
Nzéka,Nzeka,Djéka|Diéka,4.3742,17.0143,"Central African Republic",CF,CAF,Mambéré-Kadéï,Mambere-Kadei,CF-HS,prefecture,,11.6,,,4,Africa/Bangui,FALSE,1140944853
Damou,Damou,,5.9054,21.4482,"Central African Republic",CF,CAF,Ouaka,Ouaka,CF-UK,prefecture,,1.8,,,5,Africa/Bangui,FALSE,1140644589
Nguiroungou,Nguiroungou,,6.4581,22.6228,"Central African Republic",CF,CAF,Haute-Kotto,Haute-Kotto,CF-HK,prefecture,,0.2,,,5,Africa/Bangui,FALSE,1140871511
Bokol,Bokol,,6.1811,15.2446,"Central African Republic",CF,CAF,Nana-Mambéré,Nana-Mambere,CF-NM,prefecture,,14.5,,,4,Africa/Bangui,FALSE,1140091189
Kinga,Kinga,,3.7245,17.7156,"Central African Republic",CF,CAF,Lobaye,Lobaye,CF-LB,prefecture,,24.6,,,4,Africa/Bangui,FALSE,1140642707
Kinga,Kinga,,4.2177,18.0146,"Central African Republic",CF,CAF,Lobaye,Lobaye,CF-LB,prefecture,,3.0,,,5,Africa/Bangui,TRUE,1140567921
Voundja,Voundja,,4.7667,20.8333,"Central African Republic",CF,CAF,Basse-Kotto,Basse-Kotto,CF-BK,prefecture,,13.9,,,4,Africa/Bangui,FALSE,1140727700
Koundé,Kounde,Kumde,6.1105,14.6378,"Central African Republic",CF,CAF,Nana-Mambéré,Nana-Mambere,CF-NM,prefecture,,10.1,,,4,Africa/Bangui,FALSE,1140548317
Bossélé,Bossele,Bassélé,5.1695,18.8672,"Central African Republic",CF,CAF,Ombella-Mpoko,Ombella-Mpoko,CF-MP,prefecture,,5.7,,,5,Africa/Bangui,FALSE,1140393268
Kogé,Koge,,5.0396,22.7609,"Central African Republic",CF,CAF,Mbomou,Mbomou,CF-MB,prefecture,,1.7,,,5,Africa/Bangui,FALSE,1140769662
Bépa,Bepa,,6.5687,16.9069,"Central African Republic",CF,CAF,Ouham,Ouham,CF-AC,prefecture,,18.3,,,4,Africa/Bangui,FALSE,1140017265
Mbana,Mbana,,7.2159,15.8473,"Central African Republic",CF,CAF,Ouham-Pendé,Ouham-Pende,CF-OP,prefecture,,14.1,,,4,Africa/Bangui,FALSE,1140603933
Yérima,Yerima,,5.5184,14.8603,"Central African Republic",CF,CAF,Nana-Mambéré,Nana-Mambere,CF-NM,prefecture,,6.7,,,5,Africa/Bangui,FALSE,1140959233
"Beogombo I","Beogombo I",,7.3645,16.6138,"Central African Republic",CF,CAF,Ouham-Pendé,Ouham-Pende,CF-OP,prefecture,,26.2,,,4,Africa/Bangui,FALSE,1140725266
Zaorodinga,Zaorodinga,"Digna|Zaro Dinga",4.6971,15.2292,"Central African Republic",CF,CAF,Mambéré-Kadéï,Mambere-Kadei,CF-HS,prefecture,,7.5,,,5,Africa/Bangui,FALSE,1140514729
Botembéla,Botembela,Botembala,4.6404,17.4640,"Central African Republic",CF,CAF,Lobaye,Lobaye,CF-LB,prefecture,,12.2,,,4,Africa/Bangui,FALSE,1140082192
Kodo,Kodo,,5.2236,21.0546,"Central African Republic",CF,CAF,Basse-Kotto,Basse-Kotto,CF-BK,prefecture,,6.1,,,5,Africa/Bangui,FALSE,1140481120
"Gribingui I","Gribingui I",,7.0169,19.1938,"Central African Republic",CF,CAF,Nana-Grébizi,Nana-Grebizi,CF-KB,"economic prefecture",,327.0,,,3,Africa/Bangui,FALSE,1140624000
Mbongoté,Mbongote,,4.2500,18.2833,"Central African Republic",CF,CAF,Lobaye,Lobaye,CF-LB,prefecture,,34.9,,,4,Africa/Bangui,FALSE,1140611339
Bosenforo,Bosenforo,Bossemforo,5.2933,17.2474,"Central African Republic",CF,CAF,Ombella-Mpoko,Ombella-Mpoko,CF-MP,prefecture,,17.5,,,4,Africa/Bangui,FALSE,1140399009
Yaffara,Yaffara,,7.1000,19.0333,"Central African Republic",CF,CAF,Nana-Grébizi,Nana-Grebizi,CF-KB,"economic prefecture",,3.1,,,5,Africa/Bangui,FALSE,1140865608
Boyalibang,Boyalibang,,4.2333,15.7667,"Central African Republic",CF,CAF,Mambéré-Kadéï,Mambere-Kadei,CF-HS,prefecture,,8.1,,,5,Africa/Bangui,FALSE,1140529285
Ko,Ko,,6.0833,20.8000,"Central African Republic",CF,CAF,Ouaka,Ouaka,CF-UK,prefecture,,15.2,,,4,Africa/Bangui,FALSE,1140068157
Bongueté,Bonguete,,4.0196,17.6147,"Central African Republic",CF,CAF,Lobaye,Lobaye,CF-LB,prefecture,,9.2,,,5,Africa/Bangui,FALSE,1140676616
Bounbodi,Bounbodi,,7.1685,16.9409,"Central African Republic",CF,CAF,Ouham,Ouham,CF-AC,prefecture,,14.1,,,4,Africa/Bangui,FALSE,1140769336
Boulambo,Boulambo,,6.7333,17.6000,"Central African Republic",CF,CAF,Ouham,Ouham,CF-AC,prefecture,,22.6,,,4,Africa/Bangui,FALSE,1140315208
"Lébé I","Lebe I",,3.7605,17.5188,"Central African Republic",CF,CAF,Lobaye,Lobaye,CF-LB,prefecture,,9.2,,,5,Africa/Bangui,FALSE,1140293759
Bofio,Bofio,,6.8667,18.6000,"Central African Republic",CF,CAF,Ouham,Ouham,CF-AC,prefecture,,9.5,,,5,Africa/Bangui,FALSE,1140716264
Oimbisi,Oimbisi,,5.8622,20.7272,"Central African Republic",CF,CAF,Ouaka,Ouaka,CF-UK,prefecture,,15.2,,,4,Africa/Bangui,FALSE,1140077177
Bikoula,Bikoula,,3.4330,15.8315,"Central African Republic",CF,CAF,Sangha-Mbaéré,Sangha-Mbaere,CF-SE,"economic prefecture",,4.1,,,5,Africa/Bangui,FALSE,1140833187
Débéré,Debere,,6.8686,17.1605,"Central African Republic",CF,CAF,Ouham,Ouham,CF-AC,prefecture,,21.3,,,4,Africa/Bangui,FALSE,1140648970
Nagpanga,Nagpanga,,5.4013,26.5001,"Central African Republic",CF,CAF,Haut-Mbomou,Haut-Mbomou,CF-HM,prefecture,,2.6,,,5,Africa/Bangui,FALSE,1140568971
Nguianguéké,Nguiangueke,,4.1333,16.0500,"Central African Republic",CF,CAF,Mambéré-Kadéï,Mambere-Kadei,CF-HS,prefecture,,9.0,,,5,Africa/Bangui,FALSE,1140296827
Dimongo,Dimongo,,7.2603,18.3088,"Central African Republic",CF,CAF,Ouham,Ouham,CF-AC,prefecture,,44.6,,,4,Africa/Bangui,FALSE,1140051805
Bala,Bala,,5.7500,19.1000,"Central African Republic",CF,CAF,Kémo,Kemo,CF-KG,prefecture,,377.5,,,3,Africa/Bangui,FALSE,1140064392
Kouma,Kouma,,6.1731,19.4341,"Central African Republic",CF,CAF,Kémo,Kemo,CF-KG,prefecture,,9.2,,,5,Africa/Bangui,FALSE,1140758130
Boudéa,Boudea,,5.9167,15.4000,"Central African Republic",CF,CAF,Nana-Mambéré,Nana-Mambere,CF-NM,prefecture,,16.3,,,4,Africa/Bangui,FALSE,1140033922
Sangé,Sange,,6.6098,16.3949,"Central African Republic",CF,CAF,Ouham-Pendé,Ouham-Pende,CF-OP,prefecture,,19.1,,,4,Africa/Bangui,FALSE,1140480580
Babaza,Babaza,Babaya,5.3759,15.0933,"Central African Republic",CF,CAF,Nana-Mambéré,Nana-Mambere,CF-NM,prefecture,,7.6,,,5,Africa/Bangui,FALSE,1140575193
Bissemi,Bissemi,Bilsem,7.4510,15.7182,"Central African Republic",CF,CAF,Ouham-Pendé,Ouham-Pende,CF-OP,prefecture,,72.0,,,4,Africa/Bangui,FALSE,1140052734
Boko-Boudeye,Boko-Boudeye,,5.9470,15.5063,"Central African Republic",CF,CAF,Nana-Mambéré,Nana-Mambere,CF-NM,prefecture,,48.8,,,4,Africa/Bangui,FALSE,1140465344
Gbiangora,Gbiangora,,5.2043,19.6284,"Central African Republic",CF,CAF,Kémo,Kemo,CF-KG,prefecture,,7.2,,,5,Africa/Bangui,FALSE,1140165584
"Kouya Koundou","Kouya Koundou",,8.3000,20.5833,"Central African Republic",CF,CAF,Bamingui-Bangoran,Bamingui-Bangoran,CF-BB,prefecture,,0.4,,,5,Africa/Bangui,FALSE,1140658542
Walbay,Walbay,,6.8198,16.1311,"Central African Republic",CF,CAF,Ouham-Pendé,Ouham-Pende,CF-OP,prefecture,,11.1,,,4,Africa/Bangui,FALSE,1140132079
Margobi,Margobi,,5.7500,20.0500,"Central African Republic",CF,CAF,Ouaka,Ouaka,CF-UK,prefecture,,187.4,,,4,Africa/Bangui,FALSE,1140275942
Boguila,Boguila,,7.1754,16.8563,"Central African Republic",CF,CAF,Ouham,Ouham,CF-AC,prefecture,,14.1,,,4,Africa/Bangui,FALSE,1140549263
Boguila,Boguila,,6.9985,17.0589,"Central African Republic",CF,CAF,Ouham,Ouham,CF-AC,prefecture,,14.1,,,4,Africa/Bangui,TRUE,1140611281
Kanbanda,Kanbanda,,3.9443,15.5105,"Central African Republic",CF,CAF,Mambéré-Kadéï,Mambere-Kadei,CF-HS,prefecture,,21.3,,,4,Africa/Bangui,FALSE,1140959252
Bagoussa,Bagoussa,,6.9243,15.4891,"Central African Republic",CF,CAF,Ouham-Pendé,Ouham-Pende,CF-OP,prefecture,,16.4,,,4,Africa/Bangui,FALSE,1140145869
Tombo,Tombo,,4.5333,20.7500,"Central African Republic",CF,CAF,Basse-Kotto,Basse-Kotto,CF-BK,prefecture,,13.9,,,4,Africa/Bangui,FALSE,1140351265
"Badéné II","Badene II",,7.1494,18.3378,"Central African Republic",CF,CAF,Ouham,Ouham,CF-AC,prefecture,,9.5,,,5,Africa/Bangui,FALSE,1140936970
Limpo,Limpo,,6.3500,18.3500,"Central African Republic",CF,CAF,Ouham,Ouham,CF-AC,prefecture,,2.1,,,5,Africa/Bangui,FALSE,1140546749
Yamalé,Yamale,,6.0500,19.1333,"Central African Republic",CF,CAF,Kémo,Kemo,CF-KG,prefecture,,7.2,,,5,Africa/Bangui,FALSE,1140324949
Mboum,Mboum,,7.3480,15.7469,"Central African Republic",CF,CAF,Ouham-Pendé,Ouham-Pende,CF-OP,prefecture,,72.0,,,4,Africa/Bangui,FALSE,1140142657
Mboum,Mboum,,7.4481,15.5341,"Central African Republic",CF,CAF,Ouham-Pendé,Ouham-Pende,CF-OP,prefecture,,72.0,,,4,Africa/Bangui,TRUE,1140483739
Djimeti,Djimeti,,5.6833,20.6833,"Central African Republic",CF,CAF,Ouaka,Ouaka,CF-UK,prefecture,,9.1,,,5,Africa/Bangui,FALSE,1140412762
Tomboulo,Tomboulo,,4.4500,18.5167,"Central African Republic",CF,CAF,Ombella-Mpoko,Ombella-Mpoko,CF-MP,prefecture,,95.7,,,4,Africa/Bangui,FALSE,1140082232
Divou,Divou,,4.5000,21.3500,"Central African Republic",CF,CAF,Basse-Kotto,Basse-Kotto,CF-BK,prefecture,,38.9,,,4,Africa/Bangui,FALSE,1140854015
Soumbé,Soumbe,,6.4389,17.2352,"Central African Republic",CF,CAF,Ouham,Ouham,CF-AC,prefecture,,18.3,,,4,Africa/Bangui,FALSE,1140683989
Soumbé,Soumbe,,6.5092,17.5670,"Central African Republic",CF,CAF,Ouham,Ouham,CF-AC,prefecture,,15.7,,,4,Africa/Bangui,TRUE,1140353216
Koussou,Koussou,,4.5391,20.8847,"Central African Republic",CF,CAF,Basse-Kotto,Basse-Kotto,CF-BK,prefecture,,36.8,,,4,Africa/Bangui,FALSE,1140881345
Foro,Foro,,5.8623,15.4961,"Central African Republic",CF,CAF,Nana-Mambéré,Nana-Mambere,CF-NM,prefecture,,48.8,,,4,Africa/Bangui,FALSE,1140825434
Bezangala,Bezangala,Bézingala|Rediangala,7.5947,16.3309,"Central African Republic",CF,CAF,Ouham-Pendé,Ouham-Pende,CF-OP,prefecture,,18.2,,,4,Africa/Bangui,FALSE,1140928481
Kouisson-Baguila,Kouisson-Baguila,,5.7000,15.9333,"Central African Republic",CF,CAF,Nana-Mambéré,Nana-Mambere,CF-NM,prefecture,,15.3,,,4,Africa/Bangui,FALSE,1140915845
Wata,Wata,,3.9833,16.1667,"Central African Republic",CF,CAF,Mambéré-Kadéï,Mambere-Kadei,CF-HS,prefecture,,10.5,,,4,Africa/Bangui,FALSE,1140380847
"Enguelé II","Enguele II",,6.5000,21.1333,"Central African Republic",CF,CAF,Ouaka,Ouaka,CF-UK,prefecture,,1.9,,,5,Africa/Bangui,FALSE,1140098701
Mongobolo,Mongobolo,,3.8833,18.5833,"Central African Republic",CF,CAF,Ombella-Mpoko,Ombella-Mpoko,CF-MP,prefecture,,53.1,,,4,Africa/Bangui,FALSE,1140762346
Pélopambou,Pelopambou,,4.2206,18.5805,"Central African Republic",CF,CAF,Ombella-Mpoko,Ombella-Mpoko,CF-MP,prefecture,,95.7,,,4,Africa/Bangui,FALSE,1140863355
Zimbia,Zimbia,"Village Zimbla",6.8167,20.6167,"Central African Republic",CF,CAF,Ouaka,Ouaka,CF-UK,prefecture,,1.0,,,5,Africa/Bangui,FALSE,1140155413
Fangou,Fangou,,5.9023,21.1367,"Central African Republic",CF,CAF,Ouaka,Ouaka,CF-UK,prefecture,,15.2,,,4,Africa/Bangui,FALSE,1140113410
Ourou,Ourou,Ouzou,6.2922,17.4551,"Central African Republic",CF,CAF,Ouham,Ouham,CF-AC,prefecture,,1.9,,,5,Africa/Bangui,FALSE,1140226569
Yongofongo,Yongofongo,Iongofongo,4.8473,22.9767,"Central African Republic",CF,CAF,Mbomou,Mbomou,CF-MB,prefecture,,7.1,,,5,Africa/Bangui,FALSE,1140820928
Mbéwouga,Mbewouga,,5.8500,20.0667,"Central African Republic",CF,CAF,Ouaka,Ouaka,CF-UK,prefecture,,4.4,,,5,Africa/Bangui,FALSE,1140812526
Koumboro,Koumboro,,7.2930,15.9218,"Central African Republic",CF,CAF,Ouham-Pendé,Ouham-Pende,CF-OP,prefecture,,14.1,,,4,Africa/Bangui,FALSE,1140048461
Kougato,Kougato,,5.7313,19.1088,"Central African Republic",CF,CAF,Kémo,Kemo,CF-KG,prefecture,,377.5,,,3,Africa/Bangui,FALSE,1140901846
Ngbadrou-Kèdja,Ngbadrou-Kedja,,5.2306,19.6211,"Central African Republic",CF,CAF,Kémo,Kemo,CF-KG,prefecture,,7.2,,,5,Africa/Bangui,FALSE,1140198353
"Bakéma Dengou","Bakema Dengou",Dengou,5.1129,19.8038,"Central African Republic",CF,CAF,Kémo,Kemo,CF-KG,prefecture,,7.2,,,5,Africa/Bangui,FALSE,1140272419
Bokota,Bokota,Bakota,6.2006,16.0333,"Central African Republic",CF,CAF,Ouham-Pendé,Ouham-Pende,CF-OP,prefecture,,5.0,,,5,Africa/Bangui,FALSE,1140201150
Mbakolo,Mbakolo,,3.6780,17.0523,"Central African Republic",CF,CAF,Sangha-Mbaéré,Sangha-Mbaere,CF-SE,"economic prefecture",,2.6,,,5,Africa/Bangui,FALSE,1140385587
"Bolaï II","Bolai II",,4.3365,17.3691,"Central African Republic",CF,CAF,Lobaye,Lobaye,CF-LB,prefecture,,20.7,,,4,Africa/Bangui,FALSE,1140637922
Boaya,Boaya,,7.2669,16.7246,"Central African Republic",CF,CAF,Ouham-Pendé,Ouham-Pende,CF-OP,prefecture,,26.2,,,4,Africa/Bangui,FALSE,1140906061
Boaya,Boaya,,6.9426,16.6836,"Central African Republic",CF,CAF,Ouham-Pendé,Ouham-Pende,CF-OP,prefecture,,17.1,,,4,Africa/Bangui,TRUE,1140590499
Djouarépeu,Djouarepeu,,5.9833,20.1833,"Central African Republic",CF,CAF,Ouaka,Ouaka,CF-UK,prefecture,,5.5,,,5,Africa/Bangui,FALSE,1140963405
Tongou,Tongou,Tongo,4.0761,16.1625,"Central African Republic",CF,CAF,Mambéré-Kadéï,Mambere-Kadei,CF-HS,prefecture,,10.5,,,4,Africa/Bangui,FALSE,1140053024
Rébèndji,Rebendji,,6.9111,16.2807,"Central African Republic",CF,CAF,Ouham-Pendé,Ouham-Pende,CF-OP,prefecture,,29.2,,,4,Africa/Bangui,FALSE,1140675305
Ngoro,Ngoro,,4.4674,17.9039,"Central African Republic",CF,CAF,Ombella-Mpoko,Ombella-Mpoko,CF-MP,prefecture,,7.0,,,5,Africa/Bangui,FALSE,1140208114
"Vangué II","Vangue II",Vangué,5.0790,18.8200,"Central African Republic",CF,CAF,Ombella-Mpoko,Ombella-Mpoko,CF-MP,prefecture,,5.7,,,5,Africa/Bangui,FALSE,1140178949
Kongo,Kongo,,5.7667,20.6500,"Central African Republic",CF,CAF,Ouaka,Ouaka,CF-UK,prefecture,,789.8,,,3,Africa/Bangui,FALSE,1140553404
Kongo,Kongo,,5.9533,21.7980,"Central African Republic",CF,CAF,Ouaka,Ouaka,CF-UK,prefecture,,1.8,,,5,Africa/Bangui,TRUE,1140465581
Gono,Gono,"Gono Karré",7.0285,15.6355,"Central African Republic",CF,CAF,Ouham-Pendé,Ouham-Pende,CF-OP,prefecture,,33.3,,,4,Africa/Bangui,FALSE,1140365830
Bogodo,Bogodo,,7.0790,17.0406,"Central African Republic",CF,CAF,Ouham,Ouham,CF-AC,prefecture,,14.1,,,4,Africa/Bangui,FALSE,1140865311
Saragouna,Saragouna,,4.9947,15.8746,"Central African Republic",CF,CAF,Mambéré-Kadéï,Mambere-Kadei,CF-HS,prefecture,,27.1,,,4,Africa/Bangui,FALSE,1140132607
Kambamba,Kambamba,,3.9667,16.2000,"Central African Republic",CF,CAF,Mambéré-Kadéï,Mambere-Kadei,CF-HS,prefecture,,10.5,,,4,Africa/Bangui,FALSE,1140358335
"Makoundja Wali","Makoundja Wali",Moukandji-Wali|Moukandji-Wall,4.3333,16.7667,"Central African Republic",CF,CAF,Mambéré-Kadéï,Mambere-Kadei,CF-HS,prefecture,,10.5,,,4,Africa/Bangui,FALSE,1140258494
Réguémé,Regueme,,5.7166,19.2339,"Central African Republic",CF,CAF,Kémo,Kemo,CF-KG,prefecture,,4.7,,,5,Africa/Bangui,FALSE,1140512531
Borofio,Borofio,Boukoufio|Boukoufia|Bourofio|Bouroufio,4.5430,17.7732,"Central African Republic",CF,CAF,Ombella-Mpoko,Ombella-Mpoko,CF-MP,prefecture,,7.0,,,4,Africa/Bangui,FALSE,1140476864
Mbisiyanba,Mbisiyanba,,5.7430,20.6211,"Central African Republic",CF,CAF,Ouaka,Ouaka,CF-UK,prefecture,,16.7,,,4,Africa/Bangui,FALSE,1140235860
Kwidibo,Kwidibo,,6.8993,19.1939,"Central African Republic",CF,CAF,Nana-Grébizi,Nana-Grebizi,CF-KB,"economic prefecture",,12.3,,,4,Africa/Bangui,FALSE,1140700911
Balifondo,Balifondo,,5.1632,23.1180,"Central African Republic",CF,CAF,Mbomou,Mbomou,CF-MB,prefecture,,2.4,,,5,Africa/Bangui,FALSE,1140619832
Oté,Ote,,5.2680,19.5323,"Central African Republic",CF,CAF,Kémo,Kemo,CF-KG,prefecture,,7.2,,,5,Africa/Bangui,FALSE,1140988769
Botambi,Botambi,,4.2063,18.4980,"Central African Republic",CF,CAF,Ombella-Mpoko,Ombella-Mpoko,CF-MP,prefecture,,95.7,,,4,Africa/Bangui,FALSE,1140209145
Banaboussa,Banaboussa,,5.1667,15.8333,"Central African Republic",CF,CAF,Nana-Mambéré,Nana-Mambere,CF-NM,prefecture,,4.4,,,5,Africa/Bangui,FALSE,1140771464
Déké,Deke,,5.7812,20.0904,"Central African Republic",CF,CAF,Ouaka,Ouaka,CF-UK,prefecture,,5.5,,,5,Africa/Bangui,FALSE,1140522052
"Bémina I","Bemina I",,3.9667,17.7167,"Central African Republic",CF,CAF,Lobaye,Lobaye,CF-LB,prefecture,,9.2,,,5,Africa/Bangui,FALSE,1140013726
Bogoué,Bogoue,,5.0894,17.7329,"Central African Republic",CF,CAF,Ombella-Mpoko,Ombella-Mpoko,CF-MP,prefecture,,6.4,,,5,Africa/Bangui,FALSE,1140093324
Nguélin-Guélé,Nguelin-Guele,,5.5000,15.8833,"Central African Republic",CF,CAF,Nana-Mambéré,Nana-Mambere,CF-NM,prefecture,,4.4,,,5,Africa/Bangui,FALSE,1140397630
Babolo,Babolo,,7.4456,15.6716,"Central African Republic",CF,CAF,Ouham-Pendé,Ouham-Pende,CF-OP,prefecture,,72.0,,,4,Africa/Bangui,FALSE,1140023783
Kangatou,Kangatou,,6.9329,16.1590,"Central African Republic",CF,CAF,Ouham-Pendé,Ouham-Pende,CF-OP,prefecture,,11.1,,,4,Africa/Bangui,FALSE,1140303350
Bangourou,Bangourou,,4.5102,22.0239,"Central African Republic",CF,CAF,Basse-Kotto,Basse-Kotto,CF-BK,prefecture,,25.5,,,4,Africa/Bangui,FALSE,1140020509
Bébou,Bebou,,7.6010,16.6241,"Central African Republic",CF,CAF,Ouham-Pendé,Ouham-Pende,CF-OP,prefecture,,31.8,,,4,Africa/Bangui,FALSE,1140033701
Boudjoula,Boudjoula,Bodioula,4.4920,17.2821,"Central African Republic",CF,CAF,Lobaye,Lobaye,CF-LB,prefecture,,6.3,,,5,Africa/Bangui,FALSE,1140404925
Yabada-Bakaba,Yabada-Bakaba,,5.5970,19.7568,"Central African Republic",CF,CAF,Ouaka,Ouaka,CF-UK,prefecture,,3.4,,,5,Africa/Bangui,FALSE,1140006197
"Gbou Dama","Gbou Dama",,5.1183,19.3878,"Central African Republic",CF,CAF,Kémo,Kemo,CF-KG,prefecture,,7.2,,,5,Africa/Bangui,FALSE,1140838317
Ouayombo,Ouayombo,Wayombo|Ouayambo|Wayoumbou,5.0000,15.8667,"Central African Republic",CF,CAF,Mambéré-Kadéï,Mambere-Kadei,CF-HS,prefecture,,27.1,,,4,Africa/Bangui,FALSE,1140310470
Pamgakora,Pamgakora,Pangakora|Pangakoura,5.7588,19.6988,"Central African Republic",CF,CAF,Ouaka,Ouaka,CF-UK,prefecture,,20.0,,,4,Africa/Bangui,FALSE,1140550004
Fafra,Fafra,,4.6667,18.4667,"Central African Republic",CF,CAF,Ombella-Mpoko,Ombella-Mpoko,CF-MP,prefecture,,5.7,,,5,Africa/Bangui,FALSE,1140773856
Ndourouma,Ndourouma,,4.4103,21.1225,"Central African Republic",CF,CAF,Basse-Kotto,Basse-Kotto,CF-BK,prefecture,,43.3,,,4,Africa/Bangui,FALSE,1140581339
Bombo,Bombo,,4.9361,16.7995,"Central African Republic",CF,CAF,Mambéré-Kadéï,Mambere-Kadei,CF-HS,prefecture,,11.6,,,4,Africa/Bangui,FALSE,1140403884
"Moko Ouana","Moko Ouana",,6.0500,15.5500,"Central African Republic",CF,CAF,Nana-Mambéré,Nana-Mambere,CF-NM,prefecture,,48.8,,,4,Africa/Bangui,FALSE,1140867297
Yaforo,Yaforo,,7.3042,15.7831,"Central African Republic",CF,CAF,Ouham-Pendé,Ouham-Pende,CF-OP,prefecture,,70.3,,,4,Africa/Bangui,FALSE,1140076742
Ouaddé,Ouadde,Ebi,6.9000,21.9167,"Central African Republic",CF,CAF,Haute-Kotto,Haute-Kotto,CF-HK,prefecture,,7.8,,,5,Africa/Bangui,FALSE,1140160631
Kodjé,Kodje,,6.3231,17.4471,"Central African Republic",CF,CAF,Ouham,Ouham,CF-AC,prefecture,,1.9,,,5,Africa/Bangui,FALSE,1140576243
Bimbali,Bimbali,,6.3500,17.6167,"Central African Republic",CF,CAF,Ouham,Ouham,CF-AC,prefecture,,15.7,,,4,Africa/Bangui,FALSE,1140154597
Damandji,Damandji,,5.9174,21.6975,"Central African Republic",CF,CAF,Ouaka,Ouaka,CF-UK,prefecture,,1.8,,,5,Africa/Bangui,FALSE,1140325021
Bonguia,Bonguia,Bounguia|Bongia,4.8320,23.1485,"Central African Republic",CF,CAF,Mbomou,Mbomou,CF-MB,prefecture,,7.1,,,5,Africa/Bangui,FALSE,1140669084
Gibada,Gibada,Guibada,6.0167,19.7500,"Central African Republic",CF,CAF,Ouaka,Ouaka,CF-UK,prefecture,,3.4,,,5,Africa/Bangui,FALSE,1140556372
Toura,Toura,,6.3935,17.4376,"Central African Republic",CF,CAF,Ouham,Ouham,CF-AC,prefecture,,1.9,,,5,Africa/Bangui,FALSE,1140444770
Bohouli,Bohouli,,4.7368,18.9804,"Central African Republic",CF,CAF,Ombella-Mpoko,Ombella-Mpoko,CF-MP,prefecture,,5.7,,,5,Africa/Kinshasa,FALSE,1140348675
Batara,Batara,Basso-Batara|Batari,5.9017,16.1303,"Central African Republic",CF,CAF,Ouham-Pendé,Ouham-Pende,CF-OP,prefecture,,5.0,,,5,Africa/Bangui,FALSE,1140813520
Assoukoumba,Assoukoumba,,5.7833,20.6833,"Central African Republic",CF,CAF,Ouaka,Ouaka,CF-UK,prefecture,,908.1,,,3,Africa/Bangui,FALSE,1140582486
Yenga,Yenga,Yanoyé-Yenga|Yanoye,5.9033,15.4514,"Central African Republic",CF,CAF,Nana-Mambéré,Nana-Mambere,CF-NM,prefecture,,16.3,,,4,Africa/Bangui,FALSE,1140843935
Zoumako,Zoumako,,6.0167,21.4000,"Central African Republic",CF,CAF,Ouaka,Ouaka,CF-UK,prefecture,,1.8,,,5,Africa/Bangui,FALSE,1140962600
Ngakolako,Ngakolako,,5.6063,20.4863,"Central African Republic",CF,CAF,Ouaka,Ouaka,CF-UK,prefecture,,16.7,,,4,Africa/Bangui,FALSE,1140955979
Govo,Govo,,5.0745,21.1055,"Central African Republic",CF,CAF,Basse-Kotto,Basse-Kotto,CF-BK,prefecture,,23.7,,,4,Africa/Bangui,FALSE,1140233808
Botembélé,Botembele,,4.2480,17.2958,"Central African Republic",CF,CAF,Lobaye,Lobaye,CF-LB,prefecture,,20.7,,,4,Africa/Bangui,FALSE,1140652644
Issa,Issa,,4.9783,15.8766,"Central African Republic",CF,CAF,Mambéré-Kadéï,Mambere-Kadei,CF-HS,prefecture,,27.1,,,4,Africa/Bangui,FALSE,1140051982
Kodi,Kodi,,7.3801,15.6901,"Central African Republic",CF,CAF,Ouham-Pendé,Ouham-Pende,CF-OP,prefecture,,72.0,,,4,Africa/Bangui,FALSE,1140850736
Kodi,Kodi,,7.3585,15.8609,"Central African Republic",CF,CAF,Ouham-Pendé,Ouham-Pende,CF-OP,prefecture,,14.1,,,4,Africa/Bangui,TRUE,1140160599
Kourou,Kourou,,4.2596,17.7581,"Central African Republic",CF,CAF,Lobaye,Lobaye,CF-LB,prefecture,,3.0,,,5,Africa/Bangui,FALSE,1140820240
Bassèngué,Bassengue,,5.8891,19.8638,"Central African Republic",CF,CAF,Ouaka,Ouaka,CF-UK,prefecture,,3.4,,,5,Africa/Bangui,FALSE,1140213686
Ziliko,Ziliko,,6.4483,16.2728,"Central African Republic",CF,CAF,Ouham-Pendé,Ouham-Pende,CF-OP,prefecture,,10.9,,,4,Africa/Bangui,FALSE,1140955192
Bogbanou,Bogbanou,Bagbanou,5.5665,18.0886,"Central African Republic",CF,CAF,Ombella-Mpoko,Ombella-Mpoko,CF-MP,prefecture,,2.1,,,5,Africa/Bangui,FALSE,1140758528
Iteï,Itei,,3.6320,18.5939,"Central African Republic",CF,CAF,Lobaye,Lobaye,CF-LB,prefecture,,30.2,,,4,Africa/Bangui,FALSE,1140388503
Ndimango,Ndimango,,4.2364,18.2094,"Central African Republic",CF,CAF,Lobaye,Lobaye,CF-LB,prefecture,,34.9,,,4,Africa/Bangui,FALSE,1140204353
Issa,Issa,,6.7833,21.7500,"Central African Republic",CF,CAF,Haute-Kotto,Haute-Kotto,CF-HK,prefecture,,7.8,,,5,Africa/Bangui,FALSE,1140041450
Ngouvota,Ngouvota,,6.7632,19.1303,"Central African Republic",CF,CAF,Nana-Grébizi,Nana-Grebizi,CF-KB,"economic prefecture",,12.3,,,4,Africa/Bangui,FALSE,1140169898
Ngouvota,Ngouvota,,6.9833,19.8500,"Central African Republic",CF,CAF,Nana-Grébizi,Nana-Grebizi,CF-KB,"economic prefecture",,8.3,,,5,Africa/Bangui,TRUE,1140989453
Service,Service,,5.8500,15.6000,"Central African Republic",CF,CAF,Nana-Mambéré,Nana-Mambere,CF-NM,prefecture,,48.8,,,4,Africa/Bangui,FALSE,1140722587
Baréamba,Bareamba,,5.9667,20.1667,"Central African Republic",CF,CAF,Ouaka,Ouaka,CF-UK,prefecture,,5.5,,,5,Africa/Bangui,FALSE,1140003165
Gribanda,Gribanda,,5.6663,20.0701,"Central African Republic",CF,CAF,Ouaka,Ouaka,CF-UK,prefecture,,5.5,,,5,Africa/Bangui,FALSE,1140505233
Ouda-Kota,Ouda-Kota,,5.8092,17.5605,"Central African Republic",CF,CAF,Ouham,Ouham,CF-AC,prefecture,,1.9,,,5,Africa/Bangui,FALSE,1140935814
Bondzobo,Bondzobo,,4.2833,16.6833,"Central African Republic",CF,CAF,Mambéré-Kadéï,Mambere-Kadei,CF-HS,prefecture,,10.5,,,4,Africa/Bangui,FALSE,1140813746
Ngara,Ngara,,4.7167,21.2167,"Central African Republic",CF,CAF,Basse-Kotto,Basse-Kotto,CF-BK,prefecture,,43.3,,,4,Africa/Bangui,FALSE,1140717637
Mbalacpa,Mbalacpa,,4.6333,21.9833,"Central African Republic",CF,CAF,Mbomou,Mbomou,CF-MB,prefecture,,2.7,,,5,Africa/Bangui,FALSE,1140633646
Goumoun,Goumoun,Goumou,6.4584,16.3024,"Central African Republic",CF,CAF,Ouham-Pendé,Ouham-Pende,CF-OP,prefecture,,10.9,,,4,Africa/Bangui,FALSE,1140325146
Bagpo,Bagpo,,6.7167,17.3333,"Central African Republic",CF,CAF,Ouham,Ouham,CF-AC,prefecture,,21.3,,,4,Africa/Bangui,FALSE,1140502711
Bosinga,Bosinga,,7.0432,17.0605,"Central African Republic",CF,CAF,Ouham,Ouham,CF-AC,prefecture,,14.1,,,4,Africa/Bangui,FALSE,1140059680
Imbatingou,Imbatingou,,6.1833,20.2000,"Central African Republic",CF,CAF,Ouaka,Ouaka,CF-UK,prefecture,,1.0,,,5,Africa/Bangui,FALSE,1140648319
Kouapéli,Kouapeli,,6.5723,16.3755,"Central African Republic",CF,CAF,Ouham-Pendé,Ouham-Pende,CF-OP,prefecture,,10.9,,,4,Africa/Bangui,FALSE,1140940210
Ngandou,Ngandou,,4.2618,22.2218,"Central African Republic",CF,CAF,Mbomou,Mbomou,CF-MB,prefecture,,11.6,,,4,Africa/Bangui,FALSE,1140385199
Zawélé,Zawele,Zaoulé,5.1468,16.8876,"Central African Republic",CF,CAF,Mambéré-Kadéï,Mambere-Kadei,CF-HS,prefecture,,11.1,,,4,Africa/Bangui,FALSE,1140959976
Bakélé,Bakele,,4.8030,17.0126,"Central African Republic",CF,CAF,Lobaye,Lobaye,CF-LB,prefecture,,12.2,,,4,Africa/Bangui,FALSE,1140605403
Moté,Mote,,4.0000,18.6500,"Central African Republic",CF,CAF,Ombella-Mpoko,Ombella-Mpoko,CF-MP,prefecture,,111.7,,,4,Africa/Bangui,FALSE,1140909867
Mahi,Mahi,,6.0333,22.0500,"Central African Republic",CF,CAF,Haute-Kotto,Haute-Kotto,CF-HK,prefecture,,3.8,,,5,Africa/Bangui,FALSE,1140954151
Balangoborgo,Balangoborgo,Balango,5.1005,19.8471,"Central African Republic",CF,CAF,Kémo,Kemo,CF-KG,prefecture,,7.2,,,5,Africa/Bangui,FALSE,1140703623
Yangasa,Yangasa,Yangassa,6.3532,19.9126,"Central African Republic",CF,CAF,Ouaka,Ouaka,CF-UK,prefecture,,1.0,,,5,Africa/Bangui,FALSE,1140999834
Golo,Golo,,4.5167,21.0500,"Central African Republic",CF,CAF,Basse-Kotto,Basse-Kotto,CF-BK,prefecture,,43.0,,,4,Africa/Bangui,FALSE,1140952971
"Djaï Ndola","Djai Ndola",,5.9891,19.1392,"Central African Republic",CF,CAF,Kémo,Kemo,CF-KG,prefecture,,4.7,,,5,Africa/Bangui,FALSE,1140241672
Mbaka,Mbaka,Baya-Kala|M’Bacca,4.8777,15.9764,"Central African Republic",CF,CAF,Mambéré-Kadéï,Mambere-Kadei,CF-HS,prefecture,,27.1,,,4,Africa/Bangui,FALSE,1140745016
Vougba,Vougba,,5.0878,23.0101,"Central African Republic",CF,CAF,Mbomou,Mbomou,CF-MB,prefecture,,2.4,,,5,Africa/Bangui,FALSE,1140625139
Gambala,Gambala,,6.1848,20.6614,"Central African Republic",CF,CAF,Ouaka,Ouaka,CF-UK,prefecture,,1.0,,,5,Africa/Bangui,FALSE,1140668051
Babaga,Babaga,,5.9777,21.1395,"Central African Republic",CF,CAF,Ouaka,Ouaka,CF-UK,prefecture,,15.1,,,4,Africa/Bangui,FALSE,1140367894
Iro,Iro,,7.4509,18.0206,"Central African Republic",CF,CAF,Ouham,Ouham,CF-AC,prefecture,,8.6,,,5,Africa/Bangui,FALSE,1140854432
Mbetti,Mbetti,Mbéti,5.6913,22.0364,"Central African Republic",CF,CAF,Haute-Kotto,Haute-Kotto,CF-HK,prefecture,,3.8,,,5,Africa/Bangui,FALSE,1140287062
Goffo,Goffo,,4.9891,21.3043,"Central African Republic",CF,CAF,Basse-Kotto,Basse-Kotto,CF-BK,prefecture,,23.1,,,4,Africa/Bangui,FALSE,1140528603
Goffo,Goffo,,4.7978,21.7512,"Central African Republic",CF,CAF,Basse-Kotto,Basse-Kotto,CF-BK,prefecture,,10.8,,,4,Africa/Bangui,TRUE,1140616627
Diapondji,Diapondji,,5.8333,20.6167,"Central African Republic",CF,CAF,Ouaka,Ouaka,CF-UK,prefecture,,16.7,,,4,Africa/Bangui,FALSE,1140166008
Ndangala,Ndangala,,4.3145,18.3452,"Central African Republic",CF,CAF,Ombella-Mpoko,Ombella-Mpoko,CF-MP,prefecture,,95.7,,,4,Africa/Bangui,FALSE,1140544322
Bagouma,Bagouma,,4.4833,21.3167,"Central African Republic",CF,CAF,Basse-Kotto,Basse-Kotto,CF-BK,prefecture,,43.3,,,4,Africa/Bangui,FALSE,1140428483
Kpakpa,Kpakpa,,4.7333,21.3833,"Central African Republic",CF,CAF,Basse-Kotto,Basse-Kotto,CF-BK,prefecture,,23.1,,,4,Africa/Bangui,FALSE,1140131506
Zérégongo,Zeregongo,,4.5320,18.4689,"Central African Republic",CF,CAF,Ombella-Mpoko,Ombella-Mpoko,CF-MP,prefecture,,95.7,,,4,Africa/Bangui,FALSE,1140437935
Pougol,Pougol,,7.2777,16.1749,"Central African Republic",CF,CAF,Ouham-Pendé,Ouham-Pende,CF-OP,prefecture,,43.9,,,4,Africa/Bangui,FALSE,1140611290
"Boungba Kété","Boungba Kete",,7.1395,16.8105,"Central African Republic",CF,CAF,Ouham,Ouham,CF-AC,prefecture,,14.1,,,4,Africa/Bangui,FALSE,1140142372
Bassoré-Bopane,Bassore-Bopane,,5.5032,15.6221,"Central African Republic",CF,CAF,Nana-Mambéré,Nana-Mambere,CF-NM,prefecture,,7.7,,,5,Africa/Bangui,FALSE,1140640761
Dambatoro,Dambatoro,,6.5881,21.9971,"Central African Republic",CF,CAF,Haute-Kotto,Haute-Kotto,CF-HK,prefecture,,7.8,,,5,Africa/Bangui,FALSE,1140718402
Bombolo,Bombolo,,3.8833,18.4833,"Central African Republic",CF,CAF,Lobaye,Lobaye,CF-LB,prefecture,,30.2,,,4,Africa/Bangui,FALSE,1140837669
"Bayanga Didi","Bayanga Didi",Bayanga,5.3043,15.7983,"Central African Republic",CF,CAF,Nana-Mambéré,Nana-Mambere,CF-NM,prefecture,,4.4,,,5,Africa/Bangui,FALSE,1140756457
Bazingéré,Bazingere,,5.8137,22.3238,"Central African Republic",CF,CAF,Mbomou,Mbomou,CF-MB,prefecture,,1.7,,,5,Africa/Bangui,FALSE,1140842237
Zibongo,Zibongo,,5.3333,19.6167,"Central African Republic",CF,CAF,Kémo,Kemo,CF-KG,prefecture,,7.2,,,5,Africa/Bangui,FALSE,1140343950
"Tétia I","Tetia I",Tétia,6.7573,16.5354,"Central African Republic",CF,CAF,Ouham-Pendé,Ouham-Pende,CF-OP,prefecture,,19.1,,,4,Africa/Bangui,FALSE,1140226049
Ganda,Ganda,,4.9675,22.5454,"Central African Republic",CF,CAF,Mbomou,Mbomou,CF-MB,prefecture,,1.7,,,5,Africa/Bangui,FALSE,1140041875
"Bokassi I","Bokassi I",Bokassi,4.2383,18.5707,"Central African Republic",CF,CAF,Ombella-Mpoko,Ombella-Mpoko,CF-MP,prefecture,,95.7,,,4,Africa/Bangui,FALSE,1140008865
Boziboro,Boziboro,,5.0403,17.5203,"Central African Republic",CF,CAF,Ombella-Mpoko,Ombella-Mpoko,CF-MP,prefecture,,5.3,,,5,Africa/Bangui,FALSE,1140572073
Baganté,Bagante,,6.5799,16.8983,"Central African Republic",CF,CAF,Ouham,Ouham,CF-AC,prefecture,,18.3,,,4,Africa/Bangui,FALSE,1140985623
Trouapou,Trouapou,,6.7494,21.7782,"Central African Republic",CF,CAF,Haute-Kotto,Haute-Kotto,CF-HK,prefecture,,7.8,,,5,Africa/Bangui,FALSE,1140759025
Goubadjia,Goubadjia,,6.6167,22.0000,"Central African Republic",CF,CAF,Haute-Kotto,Haute-Kotto,CF-HK,prefecture,,7.8,,,5,Africa/Bangui,FALSE,1140607706
Rokouzou,Rokouzou,,5.1333,21.0667,"Central African Republic",CF,CAF,Basse-Kotto,Basse-Kotto,CF-BK,prefecture,,23.7,,,4,Africa/Bangui,FALSE,1140382657
Beïna-Boïmo,Beina-Boimo,"Beina Dumio|Beina-Domio",4.0473,15.5524,"Central African Republic",CF,CAF,Mambéré-Kadéï,Mambere-Kadei,CF-HS,prefecture,,21.3,,,4,Africa/Bangui,FALSE,1140841171
Bokoto,Bokoto,,5.8153,16.5084,"Central African Republic",CF,CAF,Ouham-Pendé,Ouham-Pende,CF-OP,prefecture,,6.7,,,5,Africa/Bangui,FALSE,1140191645
Balaboum,Balaboum,Talaboum,7.4306,15.9693,"Central African Republic",CF,CAF,Ouham-Pendé,Ouham-Pende,CF-OP,prefecture,,14.1,,,4,Africa/Bangui,FALSE,1140436808
Goubali,Goubali,,5.8782,21.0591,"Central African Republic",CF,CAF,Ouaka,Ouaka,CF-UK,prefecture,,15.2,,,4,Africa/Bangui,FALSE,1140854931
Oubi,Oubi,,6.9582,19.1955,"Central African Republic",CF,CAF,Nana-Grébizi,Nana-Grebizi,CF-KB,"economic prefecture",,327.0,,,3,Africa/Bangui,FALSE,1140210313
Bambakala,Bambakala,Bayombakala,7.2970,15.7755,"Central African Republic",CF,CAF,Ouham-Pendé,Ouham-Pende,CF-OP,prefecture,,70.3,,,4,Africa/Bangui,FALSE,1140301796
Boundjoko,Boundjoko,Bondjoko|Bonjoko,4.1105,17.1961,"Central African Republic",CF,CAF,Lobaye,Lobaye,CF-LB,prefecture,,20.7,,,4,Africa/Bangui,FALSE,1140079097
Yanbo,Yanbo,,5.7329,20.6781,"Central African Republic",CF,CAF,Ouaka,Ouaka,CF-UK,prefecture,,821.9,,,3,Africa/Bangui,FALSE,1140777580
Satoumba,Satoumba,,3.2098,15.9844,"Central African Republic",CF,CAF,Sangha-Mbaéré,Sangha-Mbaere,CF-SE,"economic prefecture",,7.6,,,5,Africa/Bangui,FALSE,1140595427
Békazouta,Bekazouta,"Bekadjouta II",4.7207,16.8538,"Central African Republic",CF,CAF,Lobaye,Lobaye,CF-LB,prefecture,,12.2,,,4,Africa/Bangui,FALSE,1140029017
Békanari,Bekanari,,4.6372,16.8938,"Central African Republic",CF,CAF,Lobaye,Lobaye,CF-LB,prefecture,,12.2,,,4,Africa/Bangui,FALSE,1140260910
Mboutou,Mboutou,,7.0865,19.2299,"Central African Republic",CF,CAF,Nana-Grébizi,Nana-Grebizi,CF-KB,"economic prefecture",,4.1,,,5,Africa/Bangui,FALSE,1140624214
Mbama,Mbama,,4.4112,21.2204,"Central African Republic",CF,CAF,Basse-Kotto,Basse-Kotto,CF-BK,prefecture,,43.3,,,4,Africa/Bangui,FALSE,1140417960
Béda,Beda,,7.5266,16.5208,"Central African Republic",CF,CAF,Ouham-Pendé,Ouham-Pende,CF-OP,prefecture,,31.8,,,4,Africa/Bangui,FALSE,1140164376
Konbo,Konbo,,6.3234,14.8718,"Central African Republic",CF,CAF,Nana-Mambéré,Nana-Mambere,CF-NM,prefecture,,5.6,,,5,Africa/Bangui,FALSE,1140226595
"Camp Beda","Camp Beda",,3.8000,16.2833,"Central African Republic",CF,CAF,Sangha-Mbaéré,Sangha-Mbaere,CF-SE,"economic prefecture",,21.5,,,4,Africa/Bangui,FALSE,1140940756
"Dao II","Dao II",,6.6833,18.2500,"Central African Republic",CF,CAF,Ouham,Ouham,CF-AC,prefecture,,9.5,,,5,Africa/Bangui,FALSE,1140607903
Pouningua,Pouningua,,5.4167,20.9500,"Central African Republic",CF,CAF,Ouaka,Ouaka,CF-UK,prefecture,,9.1,,,5,Africa/Bangui,FALSE,1140571994
Bané,Bane,,7.0732,16.7899,"Central African Republic",CF,CAF,Ouham,Ouham,CF-AC,prefecture,,14.1,,,4,Africa/Bangui,FALSE,1140333641
Babio,Babio,,4.3833,16.8667,"Central African Republic",CF,CAF,Lobaye,Lobaye,CF-LB,prefecture,,6.3,,,5,Africa/Bangui,FALSE,1140197285
Gogourtakoro,Gogourtakoro,,4.5833,16.2667,"Central African Republic",CF,CAF,Mambéré-Kadéï,Mambere-Kadei,CF-HS,prefecture,,10.5,,,4,Africa/Bangui,FALSE,1140225520
"Boboïn II","Boboin II",,6.5833,18.5667,"Central African Republic",CF,CAF,Ouham,Ouham,CF-AC,prefecture,,2.1,,,5,Africa/Bangui,FALSE,1140158135
Bissiboro,Bissiboro,,4.9667,17.9333,"Central African Republic",CF,CAF,Ombella-Mpoko,Ombella-Mpoko,CF-MP,prefecture,,7.0,,,5,Africa/Bangui,FALSE,1140682597
Gbafio,Gbafio,,7.2550,18.8009,"Central African Republic",CF,CAF,Ouham,Ouham,CF-AC,prefecture,,8.5,,,5,Africa/Bangui,FALSE,1140427679
"Boudalou I","Boudalou I",Badulu|Badoulou|Békourou,6.3853,16.9248,"Central African Republic",CF,CAF,Ouham-Pendé,Ouham-Pende,CF-OP,prefecture,,4.0,,,4,Africa/Bangui,FALSE,1140960486
Sazou,Sazou,,4.5471,16.8201,"Central African Republic",CF,CAF,Mambéré-Kadéï,Mambere-Kadei,CF-HS,prefecture,,11.6,,,4,Africa/Bangui,FALSE,1140310896
Kabodo,Kabodo,Caboro,7.1937,17.6502,"Central African Republic",CF,CAF,Ouham,Ouham,CF-AC,prefecture,,8.6,,,5,Africa/Bangui,FALSE,1140410933
Kabodo,Kabodo,,7.4167,17.6333,"Central African Republic",CF,CAF,Ouham,Ouham,CF-AC,prefecture,,4.7,,,5,Africa/Bangui,TRUE,1140197780
Tongolo,Tongolo,,4.1711,18.2378,"Central African Republic",CF,CAF,Lobaye,Lobaye,CF-LB,prefecture,,34.9,,,4,Africa/Bangui,FALSE,1140002139
Ndogba,Ndogba,,4.2833,22.4333,"Central African Republic",CF,CAF,Mbomou,Mbomou,CF-MB,prefecture,,26.4,,,4,Africa/Bangui,FALSE,1140909386
"Bélé II","Bele II",,7.0776,16.1873,"Central African Republic",CF,CAF,Ouham-Pendé,Ouham-Pende,CF-OP,prefecture,,11.1,,,4,Africa/Bangui,FALSE,1140521727
Libanga,Libanga,,4.1979,22.5175,"Central African Republic",CF,CAF,Mbomou,Mbomou,CF-MB,prefecture,,137.3,,,4,Africa/Bangui,FALSE,1140667640
Kakoundja,Kakoundja,Caconja,7.1922,17.6627,"Central African Republic",CF,CAF,Ouham,Ouham,CF-AC,prefecture,,8.6,,,5,Africa/Bangui,FALSE,1140343033
Deka,Deka,,6.5171,22.0006,"Central African Republic",CF,CAF,Haute-Kotto,Haute-Kotto,CF-HK,prefecture,,7.8,,,5,Africa/Bangui,FALSE,1140975107
Lébo,Lebo,,6.8520,16.3078,"Central African Republic",CF,CAF,Ouham-Pendé,Ouham-Pende,CF-OP,prefecture,,29.2,,,4,Africa/Bangui,FALSE,1140543231
Pimbi,Pimbi,,6.8069,19.2411,"Central African Republic",CF,CAF,Nana-Grébizi,Nana-Grebizi,CF-KB,"economic prefecture",,12.3,,,4,Africa/Bangui,FALSE,1140302448
Kambayéké,Kambayeke,,3.8910,15.3283,"Central African Republic",CF,CAF,Mambéré-Kadéï,Mambere-Kadei,CF-HS,prefecture,,25.6,,,4,Africa/Bangui,FALSE,1140304215
Délango,Delango,Délanga,5.7108,20.6835,"Central African Republic",CF,CAF,Ouaka,Ouaka,CF-UK,prefecture,,9.1,,,5,Africa/Bangui,FALSE,1140293406
Bosse,Bosse,,4.2656,15.4577,"Central African Republic",CF,CAF,Mambéré-Kadéï,Mambere-Kadei,CF-HS,prefecture,,51.8,,,4,Africa/Bangui,FALSE,1140159825
Matou,Matou,,7.1196,21.8741,"Central African Republic",CF,CAF,Haute-Kotto,Haute-Kotto,CF-HK,prefecture,,7.8,,,5,Africa/Bangui,FALSE,1140847159
Boussingo,Boussingo,,6.1833,15.2167,"Central African Republic",CF,CAF,Nana-Mambéré,Nana-Mambere,CF-NM,prefecture,,14.5,,,4,Africa/Bangui,FALSE,1140342298
Bogbala,Bogbala,,5.2830,17.6879,"Central African Republic",CF,CAF,Ombella-Mpoko,Ombella-Mpoko,CF-MP,prefecture,,6.4,,,5,Africa/Bangui,FALSE,1140331072
Bogbala,Bogbala,Bogbara,5.4667,17.8500,"Central African Republic",CF,CAF,Ombella-Mpoko,Ombella-Mpoko,CF-MP,prefecture,,6.4,,,5,Africa/Bangui,TRUE,1140698470
Sikoum,Sikoum,Sikou,7.0642,15.8478,"Central African Republic",CF,CAF,Ouham-Pendé,Ouham-Pende,CF-OP,prefecture,,28.1,,,4,Africa/Bangui,FALSE,1140507015
Bouessé,Bouesse,,4.5168,17.5135,"Central African Republic",CF,CAF,Lobaye,Lobaye,CF-LB,prefecture,,6.3,,,5,Africa/Bangui,FALSE,1140428258
Mbaraga,Mbaraga,,4.9491,20.6337,"Central African Republic",CF,CAF,Ouaka,Ouaka,CF-UK,prefecture,,9.7,,,5,Africa/Bangui,FALSE,1140715817
Petite-Sido,Petite-Sido,,7.9231,18.6904,"Central African Republic",CF,CAF,Ouham,Ouham,CF-AC,prefecture,,5.9,,,5,Africa/Bangui,FALSE,1140909428
"Doungou III","Doungou III",,6.4794,22.7222,"Central African Republic",CF,CAF,Haute-Kotto,Haute-Kotto,CF-HK,prefecture,,0.2,,,5,Africa/Bangui,FALSE,1140250906
Vevré,Vevre,,7.6667,21.1667,"Central African Republic",CF,CAF,Ouaka,Ouaka,CF-UK,prefecture,,4.0,,,5,Africa/Bangui,FALSE,1140592779
Bombéré-Kota,Bombere-Kota,,6.9248,17.5481,"Central African Republic",CF,CAF,Ouham,Ouham,CF-AC,prefecture,,22.6,,,4,Africa/Bangui,FALSE,1140000019
"Boguoin I","Boguoin I",Boquoin,5.8048,18.3352,"Central African Republic",CF,CAF,Ouham,Ouham,CF-AC,prefecture,,2.1,,,5,Africa/Bangui,FALSE,1140691516
Bodanga,Bodanga,,5.7559,16.5737,"Central African Republic",CF,CAF,Ouham-Pendé,Ouham-Pende,CF-OP,prefecture,,6.7,,,5,Africa/Bangui,FALSE,1140636116
"Banga Banda","Banga Banda",,5.6735,22.0335,"Central African Republic",CF,CAF,Haute-Kotto,Haute-Kotto,CF-HK,prefecture,,3.8,,,5,Africa/Bangui,FALSE,1140384076
Boguissi,Boguissi,,4.8159,18.0660,"Central African Republic",CF,CAF,Ombella-Mpoko,Ombella-Mpoko,CF-MP,prefecture,,7.0,,,5,Africa/Bangui,FALSE,1140020029
Mbiéla,Mbiela,,4.6224,20.9560,"Central African Republic",CF,CAF,Basse-Kotto,Basse-Kotto,CF-BK,prefecture,,36.8,,,4,Africa/Bangui,FALSE,1140082268
Boumbé,Boumbe,,4.0921,18.2338,"Central African Republic",CF,CAF,Lobaye,Lobaye,CF-LB,prefecture,,34.9,,,4,Africa/Bangui,FALSE,1140251255
Bintélé,Bintele,,7.3440,15.7559,"Central African Republic",CF,CAF,Ouham-Pendé,Ouham-Pende,CF-OP,prefecture,,71.8,,,4,Africa/Bangui,FALSE,1140283940
Bouasi,Bouasi,Bouassi,6.6211,16.8602,"Central African Republic",CF,CAF,Ouham,Ouham,CF-AC,prefecture,,18.3,,,4,Africa/Bangui,FALSE,1140467846
Tété,Tete,,5.0167,15.8667,"Central African Republic",CF,CAF,Mambéré-Kadéï,Mambere-Kadei,CF-HS,prefecture,,27.1,,,4,Africa/Bangui,FALSE,1140073720
"Bogoin I","Bogoin I",,5.7816,18.3242,"Central African Republic",CF,CAF,Ouham,Ouham,CF-AC,prefecture,,2.1,,,5,Africa/Bangui,FALSE,1140000021
Beinaboussingué,Beinaboussingue,,4.2500,15.7000,"Central African Republic",CF,CAF,Mambéré-Kadéï,Mambere-Kadei,CF-HS,prefecture,,51.8,,,4,Africa/Bangui,FALSE,1140477563
Békaye,Bekaye,,7.6529,16.6415,"Central African Republic",CF,CAF,Ouham-Pendé,Ouham-Pende,CF-OP,prefecture,,31.8,,,4,Africa/Bangui,FALSE,1140922634
Goumba,Goumba,,4.3478,21.1645,"Central African Republic",CF,CAF,Basse-Kotto,Basse-Kotto,CF-BK,prefecture,,114.5,,,4,Africa/Bangui,FALSE,1140277377
Gémé,Geme,,6.1333,19.1167,"Central African Republic",CF,CAF,Kémo,Kemo,CF-KG,prefecture,,7.2,,,5,Africa/Bangui,FALSE,1140581485
Bomèsé,Bomese,Bombissi,6.8523,16.9608,"Central African Republic",CF,CAF,Ouham,Ouham,CF-AC,prefecture,,21.3,,,4,Africa/Bangui,FALSE,1140435145
Ngayé,Ngaye,,4.5374,20.8520,"Central African Republic",CF,CAF,Basse-Kotto,Basse-Kotto,CF-BK,prefecture,,36.8,,,4,Africa/Bangui,FALSE,1140552138
Oualaka,Oualaka,Ouadimi,6.4156,21.1542,"Central African Republic",CF,CAF,Ouaka,Ouaka,CF-UK,prefecture,,1.9,,,5,Africa/Bangui,FALSE,1140568458
"Hokso I","Hokso I",,6.7243,16.6620,"Central African Republic",CF,CAF,Ouham-Pendé,Ouham-Pende,CF-OP,prefecture,,20.0,,,4,Africa/Bangui,FALSE,1140054143
Doko,Doko,Deko,7.1393,15.5240,"Central African Republic",CF,CAF,Ouham-Pendé,Ouham-Pende,CF-OP,prefecture,,20.4,,,4,Africa/Bangui,FALSE,1140583797
Danzé,Danze,Dandzé,8.0300,18.7031,"Central African Republic",CF,CAF,Ouham,Ouham,CF-AC,prefecture,,5.9,,,5,Africa/Bangui,FALSE,1140946670
Bangoro,Bangoro,,5.2000,21.8000,"Central African Republic",CF,CAF,Basse-Kotto,Basse-Kotto,CF-BK,prefecture,,10.3,,,4,Africa/Bangui,FALSE,1140847644
Bangoro,Bangoro,,5.0871,21.6997,"Central African Republic",CF,CAF,Basse-Kotto,Basse-Kotto,CF-BK,prefecture,,10.3,,,4,Africa/Bangui,TRUE,1140277307
Kaka,Kaka,,3.6446,17.9921,"Central African Republic",CF,CAF,Lobaye,Lobaye,CF-LB,prefecture,,43.6,,,4,Africa/Bangui,FALSE,1140087286
Yangakola,Yangakola,,6.0974,19.9501,"Central African Republic",CF,CAF,Ouaka,Ouaka,CF-UK,prefecture,,3.4,,,5,Africa/Bangui,FALSE,1140530224
Loulou,Loulou,,4.8645,16.7526,"Central African Republic",CF,CAF,Mambéré-Kadéï,Mambere-Kadei,CF-HS,prefecture,,11.6,,,4,Africa/Bangui,FALSE,1140289524
Bokpalé,Bokpale,Bokpali,5.3985,18.3390,"Central African Republic",CF,CAF,Ombella-Mpoko,Ombella-Mpoko,CF-MP,prefecture,,2.1,,,5,Africa/Bangui,FALSE,1140590080
Bokpalé,Bokpale,,5.5755,18.2065,"Central African Republic",CF,CAF,Ombella-Mpoko,Ombella-Mpoko,CF-MP,prefecture,,2.1,,,5,Africa/Bangui,TRUE,1140335183
Litoto,Litoto,,3.6179,16.1220,"Central African Republic",CF,CAF,Sangha-Mbaéré,Sangha-Mbaere,CF-SE,"economic prefecture",,21.5,,,4,Africa/Bangui,FALSE,1140591179
Mabo,Mabo,Dabakako|Dabakake,6.4167,25.2500,"Central African Republic",CF,CAF,Haut-Mbomou,Haut-Mbomou,CF-HM,prefecture,,0.1,,,5,Africa/Bangui,FALSE,1140516731
Mabo,Mabo,,6.0715,25.2814,"Central African Republic",CF,CAF,Haut-Mbomou,Haut-Mbomou,CF-HM,prefecture,,0.1,,,5,Africa/Bangui,TRUE,1140599220
Bandio-Nagao,Bandio-Nagao,,4.5500,15.1500,"Central African Republic",CF,CAF,Mambéré-Kadéï,Mambere-Kadei,CF-HS,prefecture,,14.6,,,4,Africa/Bangui,FALSE,1140518848
"Bondoro Kota","Bondoro Kota",,7.3728,16.8935,"Central African Republic",CF,CAF,Ouham,Ouham,CF-AC,prefecture,,5.6,,,5,Africa/Bangui,FALSE,1140700518
Inio,Inio,,4.9829,22.5340,"Central African Republic",CF,CAF,Mbomou,Mbomou,CF-MB,prefecture,,1.7,,,5,Africa/Bangui,FALSE,1140278768
"Ngoumourou II","Ngoumourou II",,7.1549,18.9735,"Central African Republic",CF,CAF,Nana-Grébizi,Nana-Grebizi,CF-KB,"economic prefecture",,3.1,,,5,Africa/Bangui,FALSE,1140354429
Ngrouzou,Ngrouzou,,4.8500,20.4000,"Central African Republic",CF,CAF,Ouaka,Ouaka,CF-UK,prefecture,,9.7,,,5,Africa/Bangui,FALSE,1140132946
Kouno,Kouno,,4.6935,21.7160,"Central African Republic",CF,CAF,Basse-Kotto,Basse-Kotto,CF-BK,prefecture,,10.9,,,4,Africa/Bangui,FALSE,1140808866
Kongolo,Kongolo,,5.6558,19.0810,"Central African Republic",CF,CAF,Kémo,Kemo,CF-KG,prefecture,,6.2,,,5,Africa/Bangui,FALSE,1140803625
Bilinguili,Bilinguili,,8.6167,20.3500,"Central African Republic",CF,CAF,Bamingui-Bangoran,Bamingui-Bangoran,CF-BB,prefecture,,1.4,,,5,Africa/Bangui,FALSE,1140466323
Kokoro,Kokoro,,4.3667,18.5333,"Central African Republic",CF,CAF,Bangui,Bangui,CF-BGF,commune,,16220.9,,,2,Africa/Bangui,FALSE,1140968003
Afrotcho,Afrotcho,,5.9226,21.2238,"Central African Republic",CF,CAF,Ouaka,Ouaka,CF-UK,prefecture,,15.2,,,4,Africa/Bangui,FALSE,1140118803
Gounté,Gounte,,4.2333,15.7333,"Central African Republic",CF,CAF,Mambéré-Kadéï,Mambere-Kadei,CF-HS,prefecture,,23.7,,,4,Africa/Bangui,FALSE,1140612680
Banginomé,Banginome,,4.8306,23.0852,"Central African Republic",CF,CAF,Mbomou,Mbomou,CF-MB,prefecture,,7.1,,,5,Africa/Bangui,FALSE,1140826273
Mindou,Mindou,,6.5500,21.1167,"Central African Republic",CF,CAF,Ouaka,Ouaka,CF-UK,prefecture,,1.9,,,5,Africa/Bangui,FALSE,1140295062
Yoma,Yoma,,3.9360,16.9724,"Central African Republic",CF,CAF,Sangha-Mbaéré,Sangha-Mbaere,CF-SE,"economic prefecture",,2.6,,,5,Africa/Bangui,FALSE,1140388004
Bossékada,Bossekada,,4.9500,18.0833,"Central African Republic",CF,CAF,Ombella-Mpoko,Ombella-Mpoko,CF-MP,prefecture,,7.0,,,5,Africa/Bangui,FALSE,1140288791
"Birao Post","Birao Post",,10.2972,22.7808,"Central African Republic",CF,CAF,Vakaga,Vakaga,CF-VK,prefecture,,1.6,,,5,Africa/Bangui,FALSE,1140210514
Douzou,Douzou,Douzo,7.0910,15.6770,"Central African Republic",CF,CAF,Ouham-Pendé,Ouham-Pende,CF-OP,prefecture,,33.3,,,4,Africa/Bangui,FALSE,1140748593
Baou,Baou,,4.6833,21.3500,"Central African Republic",CF,CAF,Basse-Kotto,Basse-Kotto,CF-BK,prefecture,,39.4,,,4,Africa/Bangui,FALSE,1140635168
Gaforo,Gaforo,,4.0500,16.5167,"Central African Republic",CF,CAF,Mambéré-Kadéï,Mambere-Kadei,CF-HS,prefecture,,10.5,,,4,Africa/Bangui,FALSE,1140973794
Gongo,Gongo,,4.8651,21.3422,"Central African Republic",CF,CAF,Basse-Kotto,Basse-Kotto,CF-BK,prefecture,,13.0,,,4,Africa/Bangui,FALSE,1140986990
Ngbakouta,Ngbakouta,,5.2644,22.3580,"Central African Republic",CF,CAF,Mbomou,Mbomou,CF-MB,prefecture,,1.7,,,5,Africa/Bangui,FALSE,1140635467
Ngao,Ngao,,5.7270,19.0962,"Central African Republic",CF,CAF,Kémo,Kemo,CF-KG,prefecture,,377.5,,,3,Africa/Bangui,FALSE,1140517520
Betengdé,Betengde,,7.4819,16.6169,"Central African Republic",CF,CAF,Ouham-Pendé,Ouham-Pende,CF-OP,prefecture,,26.2,,,4,Africa/Bangui,FALSE,1140660732
Banguera,Banguera,,5.2333,15.4667,"Central African Republic",CF,CAF,Nana-Mambéré,Nana-Mambere,CF-NM,prefecture,,8.5,,,5,Africa/Bangui,FALSE,1140795601
Mboma,Mboma,,3.7019,15.8306,"Central African Republic",CF,CAF,Sangha-Mbaéré,Sangha-Mbaere,CF-SE,"economic prefecture",,21.5,,,4,Africa/Bangui,FALSE,1140114166
Yoro,Yoro,,6.3667,19.1167,"Central African Republic",CF,CAF,Kémo,Kemo,CF-KG,prefecture,,12.8,,,4,Africa/Bangui,FALSE,1140065980
Regorombo,Regorombo,,7.4167,16.3667,"Central African Republic",CF,CAF,Ouham-Pendé,Ouham-Pende,CF-OP,prefecture,,18.2,,,4,Africa/Bangui,FALSE,1140338542
Fafara,Fafara,,4.5034,18.5284,"Central African Republic",CF,CAF,Ombella-Mpoko,Ombella-Mpoko,CF-MP,prefecture,,95.7,,,4,Africa/Bangui,FALSE,1140651154
Kamizo,Kamizo,,4.6000,21.9333,"Central African Republic",CF,CAF,Mbomou,Mbomou,CF-MB,prefecture,,2.7,,,5,Africa/Bangui,FALSE,1140401886
Bobéti,Bobeti,,3.9500,17.8667,"Central African Republic",CF,CAF,Lobaye,Lobaye,CF-LB,prefecture,,27.7,,,4,Africa/Bangui,FALSE,1140273128
"Bembor II","Bembor II","Bemboro|Bembon II",7.5000,16.4195,"Central African Republic",CF,CAF,Ouham-Pendé,Ouham-Pende,CF-OP,prefecture,,18.2,,,4,Africa/Bangui,FALSE,1140037141
"Bokoté Kété","Bokote Kete",Boukonté-Keté,7.0722,16.9411,"Central African Republic",CF,CAF,Ouham,Ouham,CF-AC,prefecture,,14.1,,,4,Africa/Bangui,FALSE,1140976263
"Bokoté Kété","Bokote Kete",,6.9868,16.8487,"Central African Republic",CF,CAF,Ouham,Ouham,CF-AC,prefecture,,14.1,,,4,Africa/Bangui,TRUE,1140914706
Dazoungoua,Dazoungoua,,5.7167,21.5667,"Central African Republic",CF,CAF,Ouaka,Ouaka,CF-UK,prefecture,,1.8,,,5,Africa/Bangui,FALSE,1140327479
Banengé,Banenge,Bandengué,5.5317,17.6160,"Central African Republic",CF,CAF,Ombella-Mpoko,Ombella-Mpoko,CF-MP,prefecture,,6.4,,,5,Africa/Bangui,FALSE,1140824209
Pagbingui,Pagbingui,Pabingi,5.6520,20.7235,"Central African Republic",CF,CAF,Ouaka,Ouaka,CF-UK,prefecture,,9.1,,,5,Africa/Bangui,FALSE,1140250015
Bossolé,Bossole,,7.0167,16.8333,"Central African Republic",CF,CAF,Ouham,Ouham,CF-AC,prefecture,,14.1,,,4,Africa/Bangui,FALSE,1140972035
Bobani,Bobani,,6.6122,18.2586,"Central African Republic",CF,CAF,Ouham,Ouham,CF-AC,prefecture,,9.4,,,5,Africa/Bangui,FALSE,1140435112
"Boda I","Boda I",Buda|Bouda,4.4893,18.0986,"Central African Republic",CF,CAF,Ombella-Mpoko,Ombella-Mpoko,CF-MP,prefecture,,7.0,,,5,Africa/Bangui,FALSE,1140207419
Bongota,Bongota,,5.5587,16.4584,"Central African Republic",CF,CAF,Nana-Mambéré,Nana-Mambere,CF-NM,prefecture,,15.3,,,4,Africa/Bangui,FALSE,1140260799
Boungou,Boungou,,6.6857,22.0859,"Central African Republic",CF,CAF,Haute-Kotto,Haute-Kotto,CF-HK,prefecture,,7.8,,,5,Africa/Bangui,FALSE,1140104559
Boungou,Boungou,,7.9711,22.0497,"Central African Republic",CF,CAF,Haute-Kotto,Haute-Kotto,CF-HK,prefecture,,0.4,,,5,Africa/Bangui,TRUE,1140791451
Boudou,Boudou,,4.5667,21.5000,"Central African Republic",CF,CAF,Basse-Kotto,Basse-Kotto,CF-BK,prefecture,,13.6,,,4,Africa/Bangui,FALSE,1140586429
Bandio-Zouta,Bandio-Zouta,,4.5667,15.1500,"Central African Republic",CF,CAF,Mambéré-Kadéï,Mambere-Kadei,CF-HS,prefecture,,14.6,,,4,Africa/Bangui,FALSE,1140264743
Gouala,Gouala,,5.3469,20.1994,"Central African Republic",CF,CAF,Ouaka,Ouaka,CF-UK,prefecture,,12.5,,,4,Africa/Bangui,FALSE,1140633670
Bama,Bama,,4.4113,21.2207,"Central African Republic",CF,CAF,Basse-Kotto,Basse-Kotto,CF-BK,prefecture,,43.3,,,4,Africa/Bangui,FALSE,1140037182
Bama,Bama,,4.5000,21.2833,"Central African Republic",CF,CAF,Basse-Kotto,Basse-Kotto,CF-BK,prefecture,,43.3,,,4,Africa/Bangui,TRUE,1140200802
Bama,Bama,,4.6167,20.9333,"Central African Republic",CF,CAF,Basse-Kotto,Basse-Kotto,CF-BK,prefecture,,36.8,,,4,Africa/Bangui,TRUE,1140011719
Bama,Bama,,4.9738,21.7889,"Central African Republic",CF,CAF,Basse-Kotto,Basse-Kotto,CF-BK,prefecture,,10.9,,,4,Africa/Bangui,TRUE,1140973687
Tougomalé,Tougomale,,5.2495,20.6824,"Central African Republic",CF,CAF,Ouaka,Ouaka,CF-UK,prefecture,,9.7,,,5,Africa/Bangui,FALSE,1140972349
"Ouaki II","Ouaki II",,7.4500,18.6500,"Central African Republic",CF,CAF,Ouham,Ouham,CF-AC,prefecture,,8.5,,,5,Africa/Bangui,FALSE,1140324453
"Ouaki II","Ouaki II",,7.4096,18.7212,"Central African Republic",CF,CAF,Ouham,Ouham,CF-AC,prefecture,,8.5,,,5,Africa/Bangui,TRUE,1140461700
Yedingué,Yedingue,,5.3667,20.1333,"Central African Republic",CF,CAF,Ouaka,Ouaka,CF-UK,prefecture,,12.5,,,4,Africa/Bangui,FALSE,1140189965
Zoungakpio,Zoungakpio,,5.2131,26.6599,"Central African Republic",CF,CAF,Haut-Mbomou,Haut-Mbomou,CF-HM,prefecture,,2.6,,,5,Africa/Bangui,FALSE,1140301304
Sambagoulou,Sambagoulou,Samba-Bougoulou,5.4807,15.8258,"Central African Republic",CF,CAF,Nana-Mambéré,Nana-Mambere,CF-NM,prefecture,,4.4,,,5,Africa/Bangui,FALSE,1140117661
Békaoussi,Bekaoussi,,5.5609,16.7075,"Central African Republic",CF,CAF,Ombella-Mpoko,Ombella-Mpoko,CF-MP,prefecture,,8.5,,,5,Africa/Bangui,FALSE,1140000151
"Bon IV","Bon IV",,6.9035,16.5934,"Central African Republic",CF,CAF,Ouham-Pendé,Ouham-Pende,CF-OP,prefecture,,20.0,,,4,Africa/Bangui,FALSE,1140196978
Boumaranga,Boumaranga,,6.4833,17.5833,"Central African Republic",CF,CAF,Ouham,Ouham,CF-AC,prefecture,,15.7,,,4,Africa/Bangui,FALSE,1140335006
Doro,Doro,Dora-Boya,4.5299,15.8102,"Central African Republic",CF,CAF,Mambéré-Kadéï,Mambere-Kadei,CF-HS,prefecture,,11.6,,,4,Africa/Bangui,FALSE,1140849152
Kozza,Kozza,,6.6333,22.0667,"Central African Republic",CF,CAF,Haute-Kotto,Haute-Kotto,CF-HK,prefecture,,7.8,,,5,Africa/Bangui,FALSE,1140572721
Atologbiri,Atologbiri,,5.8500,26.0500,"Central African Republic",CF,CAF,Haut-Mbomou,Haut-Mbomou,CF-HM,prefecture,,0.1,,,5,Africa/Bangui,FALSE,1140958870
Diki,Diki,,8.8000,19.6167,"Central African Republic",CF,CAF,Bamingui-Bangoran,Bamingui-Bangoran,CF-BB,prefecture,,1.4,,,5,Africa/Bangui,FALSE,1140989014
Kanaré,Kanare,,3.7011,16.7476,"Central African Republic",CF,CAF,Sangha-Mbaéré,Sangha-Mbaere,CF-SE,"economic prefecture",,2.6,,,5,Africa/Bangui,FALSE,1140753546
Bagou,Bagou,,5.9055,19.8405,"Central African Republic",CF,CAF,Ouaka,Ouaka,CF-UK,prefecture,,3.4,,,5,Africa/Bangui,FALSE,1140003538
"Carré de Sabo","Carre de Sabo",,7.9000,17.7667,"Central African Republic",CF,CAF,Ouham,Ouham,CF-AC,prefecture,,3.7,,,5,Africa/Bangui,FALSE,1140677480
Gozolo,Gozolo,,4.1715,15.6745,"Central African Republic",CF,CAF,Mambéré-Kadéï,Mambere-Kadei,CF-HS,prefecture,,8.1,,,5,Africa/Bangui,FALSE,1140226224
Kogba,Kogba,,4.5722,20.5880,"Central African Republic",CF,CAF,Basse-Kotto,Basse-Kotto,CF-BK,prefecture,,13.9,,,4,Africa/Bangui,FALSE,1140216243
Dangaoté,Dangaote,,5.8023,20.6986,"Central African Republic",CF,CAF,Ouaka,Ouaka,CF-UK,prefecture,,15.2,,,4,Africa/Bangui,FALSE,1140746195
Angbaka,Angbaka,,4.9167,20.2167,"Central African Republic",CF,CAF,Ouaka,Ouaka,CF-UK,prefecture,,21.3,,,4,Africa/Bangui,FALSE,1140393555
Modomali-Mbrès,Modomali-Mbres,,6.2575,20.0708,"Central African Republic",CF,CAF,Ouaka,Ouaka,CF-UK,prefecture,,1.0,,,5,Africa/Bangui,FALSE,1140606192
Mandjio,Mandjio,,4.6667,21.5167,"Central African Republic",CF,CAF,Basse-Kotto,Basse-Kotto,CF-BK,prefecture,,39.4,,,4,Africa/Bangui,FALSE,1140951132
Karou,Karou,,5.8000,23.6000,"Central African Republic",CF,CAF,Mbomou,Mbomou,CF-MB,prefecture,,0.7,,,5,Africa/Bangui,FALSE,1140666862
Zoukombo,Zoukombo,Soukambo|Soukombo,5.8361,14.6843,"Central African Republic",CF,CAF,Nana-Mambéré,Nana-Mambere,CF-NM,prefecture,,6.7,,,5,Africa/Bangui,FALSE,1140259049
Djondo,Djondo,,3.6500,18.2333,"Central African Republic",CF,CAF,Lobaye,Lobaye,CF-LB,prefecture,,24.1,,,4,Africa/Bangui,FALSE,1140602311
Komali,Komali,Komalé,5.9175,20.5521,"Central African Republic",CF,CAF,Ouaka,Ouaka,CF-UK,prefecture,,16.7,,,4,Africa/Bangui,FALSE,1140312967
Kapou,Kapou,,6.7653,21.9821,"Central African Republic",CF,CAF,Haute-Kotto,Haute-Kotto,CF-HK,prefecture,,7.8,,,5,Africa/Bangui,FALSE,1140392884
Pomboko,Pomboko,,4.7667,18.3167,"Central African Republic",CF,CAF,Ombella-Mpoko,Ombella-Mpoko,CF-MP,prefecture,,7.0,,,5,Africa/Bangui,FALSE,1140445351
Boyoba,Boyoba,,3.7500,18.1333,"Central African Republic",CF,CAF,Lobaye,Lobaye,CF-LB,prefecture,,24.1,,,4,Africa/Bangui,FALSE,1140463686
Bokopélé,Bokopele,,6.6814,16.2646,"Central African Republic",CF,CAF,Ouham-Pendé,Ouham-Pende,CF-OP,prefecture,,11.1,,,4,Africa/Bangui,FALSE,1140733732
Bobara-Senam,Bobara-Senam,,6.6167,17.2667,"Central African Republic",CF,CAF,Ouham,Ouham,CF-AC,prefecture,,21.3,,,4,Africa/Bangui,FALSE,1140000000
Domali,Domali,,4.4045,16.6247,"Central African Republic",CF,CAF,Mambéré-Kadéï,Mambere-Kadei,CF-HS,prefecture,,10.5,,,4,Africa/Bangui,FALSE,1140958761
"Ancien Dangado","Ancien Dangado",,4.0167,15.8000,"Central African Republic",CF,CAF,Mambéré-Kadéï,Mambere-Kadei,CF-HS,prefecture,,8.1,,,5,Africa/Bangui,FALSE,1140378778
"Bogoin I","Bogoin I",Bohain,5.0719,17.8333,"Central African Republic",CF,CAF,Ombella-Mpoko,Ombella-Mpoko,CF-MP,prefecture,,6.4,,,5,Africa/Bangui,FALSE,1140290855
Beïre,Beire,,4.7259,15.8107,"Central African Republic",CF,CAF,Mambéré-Kadéï,Mambere-Kadei,CF-HS,prefecture,,27.1,,,4,Africa/Bangui,FALSE,1140234347
"Sindi I","Sindi I",,7.0898,19.2180,"Central African Republic",CF,CAF,Nana-Grébizi,Nana-Grebizi,CF-KB,"economic prefecture",,4.1,,,5,Africa/Bangui,FALSE,1140240917
Dihou,Dihou,,4.9333,21.7833,"Central African Republic",CF,CAF,Basse-Kotto,Basse-Kotto,CF-BK,prefecture,,8.1,,,5,Africa/Bangui,FALSE,1140001326
Kéa,Kea,,5.7333,21.3833,"Central African Republic",CF,CAF,Ouaka,Ouaka,CF-UK,prefecture,,8.7,,,5,Africa/Bangui,FALSE,1140713597
Mbissa,Mbissa,,6.4333,19.8833,"Central African Republic",CF,CAF,Ouaka,Ouaka,CF-UK,prefecture,,1.0,,,5,Africa/Bangui,FALSE,1140119262
Zoungouyassi,Zoungouyassi,,5.5997,20.0549,"Central African Republic",CF,CAF,Ouaka,Ouaka,CF-UK,prefecture,,5.5,,,5,Africa/Bangui,FALSE,1140311849
Kaolo,Kaolo,,3.4654,15.9467,"Central African Republic",CF,CAF,Sangha-Mbaéré,Sangha-Mbaere,CF-SE,"economic prefecture",,4.1,,,5,Africa/Bangui,FALSE,1140742992
"Bourou I","Bourou I",,6.6910,16.3634,"Central African Republic",CF,CAF,Ouham-Pendé,Ouham-Pende,CF-OP,prefecture,,19.1,,,4,Africa/Bangui,FALSE,1140502280
Ngavoro,Ngavoro,,5.1428,19.7716,"Central African Republic",CF,CAF,Kémo,Kemo,CF-KG,prefecture,,7.2,,,5,Africa/Bangui,FALSE,1140652443
Songo,Songo,,6.4250,16.0243,"Central African Republic",CF,CAF,Ouham-Pendé,Ouham-Pende,CF-OP,prefecture,,8.7,,,5,Africa/Bangui,FALSE,1140173440
Sépéré,Sepere,,4.3000,21.4167,"Central African Republic",CF,CAF,Basse-Kotto,Basse-Kotto,CF-BK,prefecture,,13.6,,,4,Africa/Bangui,FALSE,1140906770
Yakété,Yakete,,6.6500,19.1000,"Central African Republic",CF,CAF,Nana-Grébizi,Nana-Grebizi,CF-KB,"economic prefecture",,12.3,,,4,Africa/Bangui,FALSE,1140286396
"Gonisa Nga Béa","Gonisa Nga Bea",,6.8424,17.3660,"Central African Republic",CF,CAF,Ouham,Ouham,CF-AC,prefecture,,32.1,,,4,Africa/Bangui,FALSE,1140609366
"Mbolo Abétlanga","Mbolo Abetlanga",,8.3000,20.6667,"Central African Republic",CF,CAF,Bamingui-Bangoran,Bamingui-Bangoran,CF-BB,prefecture,,1.1,,,5,Africa/Bangui,FALSE,1140071278
Baboulou,Baboulou,Babourou,7.3858,15.9163,"Central African Republic",CF,CAF,Ouham-Pendé,Ouham-Pende,CF-OP,prefecture,,14.1,,,4,Africa/Bangui,FALSE,1140644033
Dangavo,Dangavo,,7.2833,18.2833,"Central African Republic",CF,CAF,Ouham,Ouham,CF-AC,prefecture,,422.5,,,3,Africa/Bangui,FALSE,1140000100
"Kapou II","Kapou II",,4.2560,18.2768,"Central African Republic",CF,CAF,Lobaye,Lobaye,CF-LB,prefecture,,34.9,,,4,Africa/Bangui,FALSE,1140010867
Aya,Aya,,4.1887,17.1166,"Central African Republic",CF,CAF,Lobaye,Lobaye,CF-LB,prefecture,,20.7,,,4,Africa/Bangui,FALSE,1140443733
Gandakasya,Gandakasya,,5.2333,19.1667,"Central African Republic",CF,CAF,Kémo,Kemo,CF-KG,prefecture,,6.2,,,5,Africa/Bangui,FALSE,1140069599
Konangou,Konangou,Kounango,7.3816,15.8994,"Central African Republic",CF,CAF,Ouham-Pendé,Ouham-Pende,CF-OP,prefecture,,14.1,,,4,Africa/Bangui,FALSE,1140203650
Bouyambé,Bouyambe,,6.8632,17.7076,"Central African Republic",CF,CAF,Ouham,Ouham,CF-AC,prefecture,,22.6,,,4,Africa/Bangui,FALSE,1140314933
Dédé,Dede,,3.8686,18.0106,"Central African Republic",CF,CAF,Lobaye,Lobaye,CF-LB,prefecture,,167.0,,,4,Africa/Bangui,FALSE,1140517108
Dédé,Dede,,4.0143,17.6106,"Central African Republic",CF,CAF,Lobaye,Lobaye,CF-LB,prefecture,,9.2,,,5,Africa/Bangui,TRUE,1140565849
"Tatakpain II","Tatakpain II",,5.8043,19.1191,"Central African Republic",CF,CAF,Kémo,Kemo,CF-KG,prefecture,,4.7,,,5,Africa/Bangui,FALSE,1140194802
Yangoulando,Yangoulando,,6.7833,22.2167,"Central African Republic",CF,CAF,Haute-Kotto,Haute-Kotto,CF-HK,prefecture,,7.8,,,5,Africa/Bangui,FALSE,1140364360
Bota,Bota,,4.3500,16.9333,"Central African Republic",CF,CAF,Lobaye,Lobaye,CF-LB,prefecture,,6.3,,,5,Africa/Bangui,FALSE,1140219926
Tamali,Tamali,,5.8481,20.7301,"Central African Republic",CF,CAF,Ouaka,Ouaka,CF-UK,prefecture,,15.2,,,4,Africa/Bangui,FALSE,1140316339
Bogban,Bogban,,5.2803,17.2841,"Central African Republic",CF,CAF,Ombella-Mpoko,Ombella-Mpoko,CF-MP,prefecture,,17.5,,,4,Africa/Bangui,FALSE,1140036973
