city,city_ascii,city_alt,lat,lng,country,iso2,iso3,admin_name,admin_name_ascii,admin_code,admin_type,capital,density,population,population_proper,ranking,timezone,same_name,id
Mutsamudu,Mutsamudu,Matsamudu|Moutsamoudou,-12.1675,44.3939,Comoros,KM,COM,Anjouan,Anjouan,KM-A,"autonomous island",admin,155.5,30000,30000,2,Indian/Comoro,FALSE,1174036583
Ouani,Ouani,Ouany|Oani,-12.1350,44.4275,Comoros,KM,COM,Anjouan,Anjouan,KM-A,"autonomous island",,155.5,22501,22501,3,Indian/Comoro,FALSE,1174574251
Mandza,Mandza,,-11.4167,43.3000,Comoros,KM,COM,"Grande Comore","Grande Comore",KM-G,"autonomous island",,448.9,21000,21000,3,Indian/Comoro,FALSE,1174892176
Fomboni,Fomboni,Fumboni,-12.2800,43.7425,Comoros,KM,COM,Mohéli,Moheli,KM-M,"autonomous island",admin,1652.4,18277,18277,2,Indian/Comoro,FALSE,1174539766
Moroni,Moroni,Mūrūnī,-11.6990,43.2560,Comoros,KM,COM,"Grande Comore","Grande Comore",KM-G,"autonomous island",primary,575.6,17267,17267,1,Indian/Comoro,FALSE,1174793581
Domoni,Domoni,Deumoni,-12.2586,44.5303,Comoros,KM,COM,Anjouan,Anjouan,KM-A,"autonomous island",,155.5,16276,16276,3,Indian/Comoro,FALSE,1174938041
Adda-Douéni,Adda-Doueni,,-12.3000,44.5000,Comoros,KM,COM,Anjouan,Anjouan,KM-A,"autonomous island",,155.5,10858,10858,3,Indian/Comoro,FALSE,1174212129
Kourani,Kourani,,-11.8511,43.4261,Comoros,KM,COM,"Grande Comore","Grande Comore",KM-G,"autonomous island",,448.9,10000,10000,3,Indian/Comoro,FALSE,1174935601
Bazimini,Bazimini,,-12.1833,44.4500,Comoros,KM,COM,Anjouan,Anjouan,KM-A,"autonomous island",,155.5,8952,8952,4,Indian/Comoro,FALSE,1174603336
Mkazi,Mkazi,,-11.7323,43.2671,Comoros,KM,COM,"Grande Comore","Grande Comore",KM-G,"autonomous island",,448.9,8438,8438,3,Indian/Comoro,FALSE,1174910201
Mitsamiouli,Mitsamiouli,Mtamuhuli|Mitsamihouh|Mitsumiuli,-11.3833,43.2833,Comoros,KM,COM,"Grande Comore","Grande Comore",KM-G,"autonomous island",,448.9,7235,7235,3,Indian/Comoro,FALSE,1174546487
Chandra,Chandra,Chanda,-12.2000,44.4667,Comoros,KM,COM,Anjouan,Anjouan,KM-A,"autonomous island",,155.5,6179,6179,4,Indian/Comoro,FALSE,1174052957
Koki,Koki,,-12.1667,44.4333,Comoros,KM,COM,Anjouan,Anjouan,KM-A,"autonomous island",,155.5,5866,5866,4,Indian/Comoro,FALSE,1174052815
Mitsoudjé,Mitsoudje,,-11.8167,43.2667,Comoros,KM,COM,"Grande Comore","Grande Comore",KM-G,"autonomous island",,448.9,5004,5004,3,Indian/Comoro,FALSE,1174934717
Dembéni,Dembeni,Djembeni|Debeni,-11.8667,43.4000,Comoros,KM,COM,"Grande Comore","Grande Comore",KM-G,"autonomous island",,448.9,4723,4723,3,Indian/Comoro,FALSE,1174374610
Dindi,Dindi,,-12.2139,44.4525,Comoros,KM,COM,Anjouan,Anjouan,KM-A,"autonomous island",,155.5,4441,4441,4,Indian/Comoro,FALSE,1174181197
Vanambouani,Vanambouani,Vanamboini,-11.6167,43.2500,Comoros,KM,COM,"Grande Comore","Grande Comore",KM-G,"autonomous island",,448.9,4300,4300,3,Indian/Comoro,FALSE,1174811820
Kangani,Kangani,,-12.3100,44.4700,Comoros,KM,COM,Anjouan,Anjouan,KM-A,"autonomous island",,155.5,4062,4062,4,Indian/Comoro,FALSE,1174551121
Koni-Ngani,Koni-Ngani,"Kone N’Goni",-12.2167,44.4833,Comoros,KM,COM,Anjouan,Anjouan,KM-A,"autonomous island",,155.5,3913,3913,4,Indian/Comoro,FALSE,1174767097
Mrémani,Mremani,Mrenani,-12.3000,44.5000,Comoros,KM,COM,Anjouan,Anjouan,KM-A,"autonomous island",,155.5,3501,3501,4,Indian/Comoro,FALSE,1174901641
"Bandani Mtsangani","Bandani Mtsangani",,-12.1889,44.3419,Comoros,KM,COM,Anjouan,Anjouan,KM-A,"autonomous island",,155.5,3486,3486,4,Indian/Comoro,FALSE,1174696978
Bandakouni,Bandakouni,,-12.3131,44.4956,Comoros,KM,COM,Anjouan,Anjouan,KM-A,"autonomous island",,155.5,3218,3218,4,Indian/Comoro,FALSE,1174751304
Nioumamilima,Nioumamilima,,-11.8500,43.4333,Comoros,KM,COM,"Grande Comore","Grande Comore",KM-G,"autonomous island",,448.9,3000,3000,3,Indian/Comoro,FALSE,1174727024
Daji,Daji,,-12.3333,44.4833,Comoros,KM,COM,Anjouan,Anjouan,KM-A,"autonomous island",,155.5,2929,2929,4,Indian/Comoro,FALSE,1174057788
Hajoho,Hajoho,,-12.1167,44.4833,Comoros,KM,COM,Anjouan,Anjouan,KM-A,"autonomous island",,155.5,2743,2743,4,Indian/Comoro,FALSE,1174135114
Boungouéni,Boungoueni,,-12.2000,44.3000,Comoros,KM,COM,Anjouan,Anjouan,KM-A,"autonomous island",,155.5,2699,2699,4,Indian/Comoro,FALSE,1174758515
Ntsoudjini,Ntsoudjini,Tsudjim|Mitsuje|Mitsudje|Tsujuni|Tsudjini|Tsudjin|Mitsoudjini,-11.6667,43.2667,Comoros,KM,COM,"Grande Comore","Grande Comore",KM-G,"autonomous island",,448.9,2652,2652,3,Indian/Comoro,FALSE,1174361314
Ntsaouéni,Ntsaoueni,Mtsaoueni|Mitsaoueni|Tsaueni,-11.4667,43.2667,Comoros,KM,COM,"Grande Comore","Grande Comore",KM-G,"autonomous island",,448.9,2620,2620,3,Indian/Comoro,FALSE,1174916229
Chironkamba,Chironkamba,,-12.1936,44.3513,Comoros,KM,COM,Anjouan,Anjouan,KM-A,"autonomous island",,155.5,2617,2617,4,Indian/Comoro,FALSE,1174639974
Singani,Singani,,-11.8472,43.3278,Comoros,KM,COM,"Grande Comore","Grande Comore",KM-G,"autonomous island",,448.9,2552,2552,3,Indian/Comoro,FALSE,1174908242
Gnantranga,Gnantranga,,-12.1386,44.4364,Comoros,KM,COM,Anjouan,Anjouan,KM-A,"autonomous island",,155.5,2321,2321,4,Indian/Comoro,FALSE,1174350196
Bimbini,Bimbini,,-12.1921,44.2341,Comoros,KM,COM,Anjouan,Anjouan,KM-A,"autonomous island",,155.5,2247,2247,4,Indian/Comoro,FALSE,1174386422
Lingoni,Lingoni,,-12.2500,44.4167,Comoros,KM,COM,Anjouan,Anjouan,KM-A,"autonomous island",,155.5,2228,2228,4,Indian/Comoro,FALSE,1174024495
Ankibani,Ankibani,,-12.1931,44.3619,Comoros,KM,COM,Anjouan,Anjouan,KM-A,"autonomous island",,155.5,2110,2110,4,Indian/Comoro,FALSE,1174055338
Bandajou,Bandajou,,-12.1833,44.2833,Comoros,KM,COM,Anjouan,Anjouan,KM-A,"autonomous island",,155.5,1988,1988,4,Indian/Comoro,FALSE,1174347031
Mjimandra,Mjimandra,M’Jimanda|Moujimada,-12.1833,44.3667,Comoros,KM,COM,Anjouan,Anjouan,KM-A,"autonomous island",,155.5,1937,1937,4,Indian/Comoro,FALSE,1174189694
Dziani,Dziani,,-12.1833,44.4833,Comoros,KM,COM,Anjouan,Anjouan,KM-A,"autonomous island",,155.5,1920,1920,4,Indian/Comoro,FALSE,1174304590
Vouvouni,Vouvouni,,-11.7500,43.2500,Comoros,KM,COM,"Grande Comore","Grande Comore",KM-G,"autonomous island",,448.9,1906,1906,3,Indian/Comoro,FALSE,1174010855
Harembo,Harembo,,-12.1500,44.5000,Comoros,KM,COM,Anjouan,Anjouan,KM-A,"autonomous island",,155.5,1859,1859,4,Indian/Comoro,FALSE,1174054251
Chouani,Chouani,Chadjouni,-11.8167,43.2833,Comoros,KM,COM,"Grande Comore","Grande Comore",KM-G,"autonomous island",,448.9,1723,1723,3,Indian/Comoro,FALSE,1174463443
Ntsoralé,Ntsorale,,-11.6833,43.4000,Comoros,KM,COM,"Grande Comore","Grande Comore",KM-G,"autonomous island",,448.9,1711,1711,3,Indian/Comoro,FALSE,1174583485
"Nioumadzaha Mvoumbari","Nioumadzaha Mvoumbari","Niumadzaha|Nioumadzaha Voumbari",-11.8463,43.4708,Comoros,KM,COM,"Grande Comore","Grande Comore",KM-G,"autonomous island",,448.9,1637,1637,3,Indian/Comoro,FALSE,1174566526
Djoyézi,Djoyezi,Mujiauesi|Djoiezi|Mudjiauesi,-12.3000,43.7667,Comoros,KM,COM,Mohéli,Moheli,KM-M,"autonomous island",,1652.4,1636,1636,3,Indian/Comoro,FALSE,1174500306
Mouadja,Mouadja,,-11.4680,43.2870,Comoros,KM,COM,"Grande Comore","Grande Comore",KM-G,"autonomous island",,448.9,1597,1597,3,Indian/Comoro,FALSE,1174816664
Ndzaouze,Ndzaouze,Draure,-11.4000,43.2667,Comoros,KM,COM,"Grande Comore","Grande Comore",KM-G,"autonomous island",,448.9,1586,1586,3,Indian/Comoro,FALSE,1174089662
Vouani,Vouani,Voany|Voani,-12.2500,44.3667,Comoros,KM,COM,Anjouan,Anjouan,KM-A,"autonomous island",,155.5,1563,1563,4,Indian/Comoro,FALSE,1174818347
Hantsindzi,Hantsindzi,,-11.4333,43.4000,Comoros,KM,COM,"Grande Comore","Grande Comore",KM-G,"autonomous island",,448.9,1508,1508,3,Indian/Comoro,FALSE,1174019982
Idjikoundzi,Idjikoundzi,Idjikoundji,-11.7111,43.4139,Comoros,KM,COM,"Grande Comore","Grande Comore",KM-G,"autonomous island",,448.9,1476,1476,3,Indian/Comoro,FALSE,1174346391
Salamani,Salamani,,-12.2333,44.3667,Comoros,KM,COM,Anjouan,Anjouan,KM-A,"autonomous island",,155.5,1462,1462,4,Indian/Comoro,FALSE,1174922301
Ouhozi,Ouhozi,,-11.4000,43.2833,Comoros,KM,COM,"Grande Comore","Grande Comore",KM-G,"autonomous island",,448.9,1452,1452,3,Indian/Comoro,FALSE,1174134113
Magnassini-Nindri,Magnassini-Nindri,,-12.2833,44.4167,Comoros,KM,COM,Anjouan,Anjouan,KM-A,"autonomous island",,155.5,1376,1376,4,Indian/Comoro,FALSE,1174394338
Batsa,Batsa,,-11.6333,43.2667,Comoros,KM,COM,"Grande Comore","Grande Comore",KM-G,"autonomous island",,448.9,1366,1366,3,Indian/Comoro,FALSE,1174348681
Douniani,Douniani,,-11.4167,43.2833,Comoros,KM,COM,"Grande Comore","Grande Comore",KM-G,"autonomous island",,448.9,1338,1338,3,Indian/Comoro,FALSE,1174950107
Dzahadjou,Dzahadjou,Dzahadju|Dzahaja,-11.8483,43.3403,Comoros,KM,COM,"Grande Comore","Grande Comore",KM-G,"autonomous island",,448.9,1319,1319,3,Indian/Comoro,FALSE,1174038752
Bandamadji,Bandamadji,Bandamadzi|Bandamadxi|Bandamadri|Bandamaji,-11.7844,43.4444,Comoros,KM,COM,"Grande Comore","Grande Comore",KM-G,"autonomous island",,448.9,1313,1313,3,Indian/Comoro,FALSE,1174546212
Antsahé,Antsahe,,-12.3564,44.5225,Comoros,KM,COM,Anjouan,Anjouan,KM-A,"autonomous island",,155.5,1291,1291,4,Indian/Comoro,FALSE,1174894083
Oussivo,Oussivo,Ousivo,-11.5833,43.2667,Comoros,KM,COM,"Grande Comore","Grande Comore",KM-G,"autonomous island",,448.9,1285,1285,3,Indian/Comoro,FALSE,1174979290
Ongoni,Ongoni,,-12.1758,44.5078,Comoros,KM,COM,Anjouan,Anjouan,KM-A,"autonomous island",,155.5,1280,1280,4,Indian/Comoro,FALSE,1174967669
Salimani,Salimani,Selimani,-11.8100,43.2690,Comoros,KM,COM,"Grande Comore","Grande Comore",KM-G,"autonomous island",,448.9,1250,1250,3,Indian/Comoro,FALSE,1174977983
Assimpao,Assimpao,,-12.2331,44.3197,Comoros,KM,COM,Anjouan,Anjouan,KM-A,"autonomous island",,155.5,1218,1218,4,Indian/Comoro,FALSE,1174452658
Chitrouni,Chitrouni,,-12.1905,44.3348,Comoros,KM,COM,Anjouan,Anjouan,KM-A,"autonomous island",,155.5,1184,1184,4,Indian/Comoro,FALSE,1174058084
Ouzini,Ouzini,Ousini,-12.2700,44.4790,Comoros,KM,COM,Anjouan,Anjouan,KM-A,"autonomous island",,155.5,1173,1173,4,Indian/Comoro,FALSE,1174051056
Chindini,Chindini,Shendini|Chendini,-11.9167,43.4833,Comoros,KM,COM,"Grande Comore","Grande Comore",KM-G,"autonomous island",,448.9,1107,1107,3,Indian/Comoro,FALSE,1174904390
Héroumbili,Heroumbili,Irumbilli|Iroumbili,-11.5500,43.3833,Comoros,KM,COM,"Grande Comore","Grande Comore",KM-G,"autonomous island",,448.9,1101,1101,3,Indian/Comoro,FALSE,1174071121
Dimadjou,Dimadjou,,-11.4736,43.3644,Comoros,KM,COM,"Grande Comore","Grande Comore",KM-G,"autonomous island",,448.9,1089,1089,3,Indian/Comoro,TRUE,1174350319
Ourovéni,Ouroveni,,-11.9167,43.4833,Comoros,KM,COM,"Grande Comore","Grande Comore",KM-G,"autonomous island",,448.9,1068,1068,3,Indian/Comoro,FALSE,1174116416
Mavingouni,Mavingouni,,-11.7167,43.2500,Comoros,KM,COM,"Grande Comore","Grande Comore",KM-G,"autonomous island",,448.9,1046,1046,3,Indian/Comoro,FALSE,1174429892
Dzahani,Dzahani,,-11.6572,43.2756,Comoros,KM,COM,"Grande Comore","Grande Comore",KM-G,"autonomous island",,448.9,1045,1045,3,Indian/Comoro,FALSE,1174974841
Itsandzéni,Itsandzeni,,-11.4667,43.3833,Comoros,KM,COM,"Grande Comore","Grande Comore",KM-G,"autonomous island",,448.9,1040,1040,3,Indian/Comoro,FALSE,1174647002
Bambadjani,Bambadjani,,-11.4822,43.3875,Comoros,KM,COM,"Grande Comore","Grande Comore",KM-G,"autonomous island",,448.9,1020,1020,3,Indian/Comoro,FALSE,1174583648
Hantsambou,Hantsambou,,-11.6667,43.2500,Comoros,KM,COM,"Grande Comore","Grande Comore",KM-G,"autonomous island",,448.9,1015,1015,3,Indian/Comoro,FALSE,1174998451
Madjeouéni,Madjeoueni,,-11.8167,43.2833,Comoros,KM,COM,"Grande Comore","Grande Comore",KM-G,"autonomous island",,448.9,993,993,3,Indian/Comoro,FALSE,1174370750
Ivouani,Ivouani,Ivoini|Iuani|Inani,-11.3833,43.3833,Comoros,KM,COM,"Grande Comore","Grande Comore",KM-G,"autonomous island",,448.9,991,991,3,Indian/Comoro,FALSE,1174119801
Ntsadjéni,Ntsadjeni,,-11.4000,43.2833,Comoros,KM,COM,"Grande Comore","Grande Comore",KM-G,"autonomous island",,448.9,964,964,3,Indian/Comoro,FALSE,1174368643
Bahani,Bahani,,-11.6333,43.2833,Comoros,KM,COM,"Grande Comore","Grande Comore",KM-G,"autonomous island",,448.9,958,958,3,Indian/Comoro,FALSE,1174996970
Patsi,Patsi,Wilson|Patsy,-12.1500,44.4333,Comoros,KM,COM,Anjouan,Anjouan,KM-A,"autonomous island",,155.5,932,932,4,Indian/Comoro,FALSE,1174115151
Mjamaoué,Mjamaoue,Jamaué,-12.2000,44.3167,Comoros,KM,COM,Anjouan,Anjouan,KM-A,"autonomous island",,155.5,927,927,4,Indian/Comoro,FALSE,1174056531
Chamle,Chamle,,-11.4488,43.2763,Comoros,KM,COM,"Grande Comore","Grande Comore",KM-G,"autonomous island",,448.9,886,886,3,Indian/Comoro,FALSE,1174910195
Mtsamdou,Mtsamdou,,-11.6000,43.3833,Comoros,KM,COM,"Grande Comore","Grande Comore",KM-G,"autonomous island",,448.9,881,881,3,Indian/Comoro,FALSE,1174252918
Maraharé,Marahare,Marahabé,-12.2333,44.3167,Comoros,KM,COM,Anjouan,Anjouan,KM-A,"autonomous island",,155.5,880,880,4,Indian/Comoro,FALSE,1174170007
Maouéni,Maoueni,,-11.4670,43.3250,Comoros,KM,COM,"Grande Comore","Grande Comore",KM-G,"autonomous island",,448.9,865,865,3,Indian/Comoro,FALSE,1174565728
Bouni,Bouni,,-11.4886,43.3981,Comoros,KM,COM,"Grande Comore","Grande Comore",KM-G,"autonomous island",,448.9,831,831,3,Indian/Comoro,FALSE,1174136608
Fombani,Fombani,Afombany|Afombani,-12.2331,44.3197,Comoros,KM,COM,Anjouan,Anjouan,KM-A,"autonomous island",,155.5,800,800,4,Indian/Comoro,FALSE,1174880653
"Domoni Adjou","Domoni Adjou",,-11.4869,43.2689,Comoros,KM,COM,"Grande Comore","Grande Comore",KM-G,"autonomous island",,448.9,778,778,3,Indian/Comoro,FALSE,1174135747
Mnoungou,Mnoungou,,-11.5230,43.3850,Comoros,KM,COM,"Grande Comore","Grande Comore",KM-G,"autonomous island",,448.9,762,762,3,Indian/Comoro,FALSE,1174708103
Zivandani,Zivandani,,-11.6500,43.2667,Comoros,KM,COM,"Grande Comore","Grande Comore",KM-G,"autonomous island",,448.9,734,734,3,Indian/Comoro,FALSE,1174719391
Mdjoyézi,Mdjoyezi,,-11.8333,43.3000,Comoros,KM,COM,"Grande Comore","Grande Comore",KM-G,"autonomous island",,448.9,720,720,3,Indian/Comoro,FALSE,1174284883
"Ifoundihé Chambouani","Ifoundihe Chambouani","Ifoundihe Amboini",-11.9003,43.4122,Comoros,KM,COM,"Grande Comore","Grande Comore",KM-G,"autonomous island",,448.9,715,715,3,Indian/Comoro,FALSE,1174038328
Bandaressalam,Bandaressalam,,-12.2897,43.7592,Comoros,KM,COM,Mohéli,Moheli,KM-M,"autonomous island",,1652.4,679,679,3,Indian/Comoro,FALSE,1174574403
Panda,Panda,"Panda Gongoue",-11.8667,43.3833,Comoros,KM,COM,"Grande Comore","Grande Comore",KM-G,"autonomous island",,448.9,677,677,3,Indian/Comoro,FALSE,1174707185
Simboussa,Simboussa,,-11.8830,43.4620,Comoros,KM,COM,"Grande Comore","Grande Comore",KM-G,"autonomous island",,448.9,655,655,3,Indian/Comoro,TRUE,1174904713
Limbi,Limbi,,-12.2333,44.5000,Comoros,KM,COM,Anjouan,Anjouan,KM-A,"autonomous island",,155.5,645,645,4,Indian/Comoro,FALSE,1174915299
Dzouadjou,Dzouadjou,,-11.8331,43.3739,Comoros,KM,COM,"Grande Comore","Grande Comore",KM-G,"autonomous island",,448.9,638,638,3,Indian/Comoro,FALSE,1174776788
Mrouadjou,Mrouadjou,,-11.4041,43.3239,Comoros,KM,COM,"Grande Comore","Grande Comore",KM-G,"autonomous island",,448.9,629,629,3,Indian/Comoro,FALSE,1174925714
Chaouéni,Chaoueni,Niumakélé|Nioumakele,-12.3500,44.5000,Comoros,KM,COM,Anjouan,Anjouan,KM-A,"autonomous island",,155.5,624,624,4,Indian/Comoro,FALSE,1174928000
Vassy,Vassy,Vassi,-12.2333,44.3500,Comoros,KM,COM,Anjouan,Anjouan,KM-A,"autonomous island",,155.5,587,587,4,Indian/Comoro,FALSE,1174920136
Mirongani,Mirongani,,-12.1833,44.2500,Comoros,KM,COM,Anjouan,Anjouan,KM-A,"autonomous island",,155.5,548,548,4,Indian/Comoro,FALSE,1174133453
Hada-Haïa,Hada-Haia,,-11.9097,43.4528,Comoros,KM,COM,"Grande Comore","Grande Comore",KM-G,"autonomous island",,448.9,,,3,Indian/Comoro,FALSE,1174177474
Sangani,Sangani,,-12.1733,44.4067,Comoros,KM,COM,Anjouan,Anjouan,KM-A,"autonomous island",,155.5,,,4,Indian/Comoro,FALSE,1174411806
Oungoni,Oungoni,,-11.7544,43.4361,Comoros,KM,COM,"Grande Comore","Grande Comore",KM-G,"autonomous island",,448.9,,,3,Indian/Comoro,FALSE,1174274688
Mboudé,Mboude,,-11.6942,43.4197,Comoros,KM,COM,"Grande Comore","Grande Comore",KM-G,"autonomous island",,448.9,,,3,Indian/Comoro,FALSE,1174525856
Ourondroni,Ourondroni,,-11.8811,43.3925,Comoros,KM,COM,"Grande Comore","Grande Comore",KM-G,"autonomous island",,448.9,,,3,Indian/Comoro,FALSE,1174476542
Ndréméani,Ndremeani,,-12.3508,43.7519,Comoros,KM,COM,Mohéli,Moheli,KM-M,"autonomous island",,1652.4,,,3,Indian/Comoro,FALSE,1174371596
Mbéni,Mbeni,,-11.5000,43.3833,Comoros,KM,COM,"Grande Comore","Grande Comore",KM-G,"autonomous island",,448.9,,,3,Indian/Comoro,FALSE,1174768138
Labanda,Labanda,,-12.3167,43.8167,Comoros,KM,COM,Mohéli,Moheli,KM-M,"autonomous island",,1652.4,,,3,Indian/Comoro,FALSE,1174025615
Jéjé,Jeje,,-12.2233,44.5225,Comoros,KM,COM,Anjouan,Anjouan,KM-A,"autonomous island",,155.5,,,4,Indian/Comoro,FALSE,1174314230
Mbaléni,Mbaleni,,-11.5500,43.2742,Comoros,KM,COM,"Grande Comore","Grande Comore",KM-G,"autonomous island",,448.9,,,3,Indian/Comoro,FALSE,1174748740
Guamarumbo,Guamarumbo,Guamarombu,-12.2500,43.6833,Comoros,KM,COM,Mohéli,Moheli,KM-M,"autonomous island",,1652.4,,,3,Indian/Comoro,FALSE,1174585610
Koua,Koua,,-11.4208,43.2764,Comoros,KM,COM,"Grande Comore","Grande Comore",KM-G,"autonomous island",,448.9,,,3,Indian/Comoro,FALSE,1174190188
Bambao,Bambao,"Bambao M’Sanga",-12.1989,44.5183,Comoros,KM,COM,Anjouan,Anjouan,KM-A,"autonomous island",,155.5,,,4,Indian/Comoro,FALSE,1174388041
Milévani,Milevani,,-11.5514,43.2903,Comoros,KM,COM,"Grande Comore","Grande Comore",KM-G,"autonomous island",,448.9,,,3,Indian/Comoro,FALSE,1174869416
Kondroni,Kondroni,Kondoni,-12.1686,44.4472,Comoros,KM,COM,Anjouan,Anjouan,KM-A,"autonomous island",,155.5,,,4,Indian/Comoro,FALSE,1174221028
Hantzinzi,Hantzinzi,Hatsinze|Hantxinxi,-12.4333,43.4167,Comoros,KM,COM,Mohéli,Moheli,KM-M,"autonomous island",,0,,,5,Indian/Comoro,FALSE,1174072635
Mohoro,Mohoro,,-11.8333,43.4500,Comoros,KM,COM,"Grande Comore","Grande Comore",KM-G,"autonomous island",,448.9,,,3,Indian/Comoro,FALSE,1174472864
Male,Male,Mahalé,-11.8842,43.4975,Comoros,KM,COM,"Grande Comore","Grande Comore",KM-G,"autonomous island",,448.9,,,3,Indian/Comoro,FALSE,1174842983
Hombo,Hombo,,-12.1692,44.4014,Comoros,KM,COM,Anjouan,Anjouan,KM-A,"autonomous island",,155.5,,,4,Indian/Comoro,FALSE,1174582588
Pajé,Paje,,-12.1697,44.3881,Comoros,KM,COM,Anjouan,Anjouan,KM-A,"autonomous island",,155.5,,,4,Indian/Comoro,FALSE,1174456380
Zouda,Zouda,,-11.4300,43.2983,Comoros,KM,COM,"Grande Comore","Grande Comore",KM-G,"autonomous island",,448.9,,,3,Indian/Comoro,FALSE,1174855691
Djoumadounia,Djoumadounia,,-12.2833,43.7500,Comoros,KM,COM,Mohéli,Moheli,KM-M,"autonomous island",,1652.4,,,3,Indian/Comoro,FALSE,1174367512
Midjendjéni,Midjendjeni,,-11.9092,43.4761,Comoros,KM,COM,"Grande Comore","Grande Comore",KM-G,"autonomous island",,448.9,,,3,Indian/Comoro,FALSE,1174266056
Boboni,Boboni,,-11.7525,43.2803,Comoros,KM,COM,"Grande Comore","Grande Comore",KM-G,"autonomous island",,448.9,,,3,Indian/Comoro,FALSE,1174056516
Moujimouvia,Moujimouvia,,-12.1744,44.3875,Comoros,KM,COM,Anjouan,Anjouan,KM-A,"autonomous island",,155.5,,,4,Indian/Comoro,FALSE,1174057209
Nkourani,Nkourani,,-11.3897,43.2881,Comoros,KM,COM,"Grande Comore","Grande Comore",KM-G,"autonomous island",,448.9,,,3,Indian/Comoro,FALSE,1174160830
Mouahani,Mouahani,Moihani,-12.3617,43.7808,Comoros,KM,COM,Mohéli,Moheli,KM-M,"autonomous island",,1652.4,,,3,Indian/Comoro,FALSE,1174788025
Ouziouani,Ouziouani,,-11.8886,43.4153,Comoros,KM,COM,"Grande Comore","Grande Comore",KM-G,"autonomous island",,448.9,,,3,Indian/Comoro,FALSE,1174707814
Domoni,Domoni,,-11.4869,43.2692,Comoros,KM,COM,"Grande Comore","Grande Comore",KM-G,"autonomous island",,448.9,,,3,Indian/Comoro,FALSE,1174479984
Domoni,Domoni,,-11.8750,43.4106,Comoros,KM,COM,"Grande Comore","Grande Comore",KM-G,"autonomous island",,448.9,,,3,Indian/Comoro,TRUE,1174686994
Chindrini,Chindrini,,-12.3169,44.4631,Comoros,KM,COM,Anjouan,Anjouan,KM-A,"autonomous island",,155.5,,,4,Indian/Comoro,FALSE,1174571694
Domoni,Domoni,,-12.2519,43.6422,Comoros,KM,COM,Mohéli,Moheli,KM-M,"autonomous island",,1652.4,,,3,Indian/Comoro,FALSE,1174090783
Bouéjou,Bouejou,,-12.3489,44.5117,Comoros,KM,COM,Anjouan,Anjouan,KM-A,"autonomous island",,155.5,,,4,Indian/Comoro,FALSE,1174323444
Salémani,Salemani,,-11.5086,43.3778,Comoros,KM,COM,"Grande Comore","Grande Comore",KM-G,"autonomous island",,448.9,,,3,Indian/Comoro,FALSE,1174347968
Souni,Souni,,-12.1956,44.2458,Comoros,KM,COM,Anjouan,Anjouan,KM-A,"autonomous island",,155.5,,,4,Indian/Comoro,FALSE,1174920762
"Gnambo Yamaoré","Gnambo Yamaore",,-12.2508,43.6692,Comoros,KM,COM,Mohéli,Moheli,KM-M,"autonomous island",,1652.4,,,3,Indian/Comoro,FALSE,1174362804
Milembéni,Milembeni,,-11.6617,43.2664,Comoros,KM,COM,"Grande Comore","Grande Comore",KM-G,"autonomous island",,448.9,,,3,Indian/Comoro,FALSE,1174215883
Fâssi,Fassi,,-11.3986,43.2681,Comoros,KM,COM,"Grande Comore","Grande Comore",KM-G,"autonomous island",,448.9,,,3,Indian/Comoro,FALSE,1174947937
Hamavouna,Hamavouna,,-12.3731,43.8383,Comoros,KM,COM,Mohéli,Moheli,KM-M,"autonomous island",,1652.4,,,3,Indian/Comoro,FALSE,1174545653
Maouéni,Maoueni,,-12.1961,44.3447,Comoros,KM,COM,Anjouan,Anjouan,KM-A,"autonomous island",,155.5,,,4,Indian/Comoro,FALSE,1174161153
Maouéni,Maoueni,,-12.3156,44.4556,Comoros,KM,COM,Anjouan,Anjouan,KM-A,"autonomous island",,155.5,,,4,Indian/Comoro,TRUE,1174682045
Itsandra,Itsandra,Itsandha,-11.6711,43.2547,Comoros,KM,COM,"Grande Comore","Grande Comore",KM-G,"autonomous island",,448.9,,,3,Indian/Comoro,FALSE,1174403436
Maouéni,Maoueni,,-11.6758,43.2669,Comoros,KM,COM,"Grande Comore","Grande Comore",KM-G,"autonomous island",,448.9,,,3,Indian/Comoro,TRUE,1174076904
Dibouani,Dibouani,Diboini|Diboani,-11.5569,43.3144,Comoros,KM,COM,"Grande Comore","Grande Comore",KM-G,"autonomous island",,448.9,,,3,Indian/Comoro,FALSE,1174745501
Ouéla,Ouela,,-11.3903,43.3319,Comoros,KM,COM,"Grande Comore","Grande Comore",KM-G,"autonomous island",,448.9,,,3,Indian/Comoro,FALSE,1174125599
Ouella,Ouella,,-11.6536,43.2806,Comoros,KM,COM,"Grande Comore","Grande Comore",KM-G,"autonomous island",,448.9,,,3,Indian/Comoro,FALSE,1174846764
Songomani,Songomani,,-11.3922,43.2908,Comoros,KM,COM,"Grande Comore","Grande Comore",KM-G,"autonomous island",,448.9,,,3,Indian/Comoro,FALSE,1174817682
Malhani,Malhani,,-12.3500,43.7833,Comoros,KM,COM,Mohéli,Moheli,KM-M,"autonomous island",,1652.4,,,3,Indian/Comoro,FALSE,1174022822
Sombé,Sombe,,-12.1922,44.3206,Comoros,KM,COM,Anjouan,Anjouan,KM-A,"autonomous island",,155.5,,,4,Indian/Comoro,FALSE,1174227089
Chikoni,Chikoni,,-12.2858,43.6317,Comoros,KM,COM,Mohéli,Moheli,KM-M,"autonomous island",,1652.4,,,3,Indian/Comoro,FALSE,1174126413
Niadoumbouéni,Niadoumboueni,,-11.4678,43.3767,Comoros,KM,COM,"Grande Comore","Grande Comore",KM-G,"autonomous island",,448.9,,,3,Indian/Comoro,FALSE,1174573104
Hetsa,Hetsa,Djuaezi|Mdjohezi|Juaezi,-11.8447,43.3158,Comoros,KM,COM,"Grande Comore","Grande Comore",KM-G,"autonomous island",,448.9,,,3,Indian/Comoro,FALSE,1174070973
Hamba,Hamba,,-12.2744,43.6319,Comoros,KM,COM,Mohéli,Moheli,KM-M,"autonomous island",,1652.4,,,3,Indian/Comoro,FALSE,1174598143
Djoumbe,Djoumbe,"Mondzaza-Djumbe|Montzeza Jumbe",-11.7500,43.2667,Comoros,KM,COM,"Grande Comore","Grande Comore",KM-G,"autonomous island",,448.9,,,3,Indian/Comoro,FALSE,1174093328
Kangalinda,Kangalinda,,-11.5381,43.3886,Comoros,KM,COM,"Grande Comore","Grande Comore",KM-G,"autonomous island",,448.9,,,3,Indian/Comoro,FALSE,1174761833
Bibavou,Bibavou,,-11.5725,43.2772,Comoros,KM,COM,"Grande Comore","Grande Comore",KM-G,"autonomous island",,448.9,,,3,Indian/Comoro,FALSE,1174764447
Pomoni,Pomoni,Pomony,-12.2800,44.4089,Comoros,KM,COM,Anjouan,Anjouan,KM-A,"autonomous island",,155.5,,,4,Indian/Comoro,FALSE,1174987379
Ifoundihé,Ifoundihe,Ifundihe,-11.5344,43.3767,Comoros,KM,COM,"Grande Comore","Grande Comore",KM-G,"autonomous island",,448.9,,,3,Indian/Comoro,FALSE,1174220203
Mbatsé,Mbatse,Batsé,-12.2675,43.7047,Comoros,KM,COM,Mohéli,Moheli,KM-M,"autonomous island",,1652.4,,,3,Indian/Comoro,FALSE,1174430546
Djivani,Djivani,,-11.8492,43.3575,Comoros,KM,COM,"Grande Comore","Grande Comore",KM-G,"autonomous island",,448.9,,,3,Indian/Comoro,FALSE,1174414495
Mbatsé,Mbatse,,-11.4567,43.3917,Comoros,KM,COM,"Grande Comore","Grande Comore",KM-G,"autonomous island",,448.9,,,3,Indian/Comoro,FALSE,1174970230
Jandza,Jandza,,-12.2992,44.4972,Comoros,KM,COM,Anjouan,Anjouan,KM-A,"autonomous island",,155.5,,,4,Indian/Comoro,FALSE,1174464471
Mouhou,Mouhou,,-12.3397,43.8314,Comoros,KM,COM,Mohéli,Moheli,KM-M,"autonomous island",,1652.4,,,3,Indian/Comoro,FALSE,1174292964
Bandani-Vouani,Bandani-Vouani,Bandani,-12.2447,44.3856,Comoros,KM,COM,Anjouan,Anjouan,KM-A,"autonomous island",,155.5,,,4,Indian/Comoro,FALSE,1174614639
Vounambadani,Vounambadani,,-11.6108,43.2622,Comoros,KM,COM,"Grande Comore","Grande Comore",KM-G,"autonomous island",,448.9,,,3,Indian/Comoro,FALSE,1174643436
Dzaheni,Dzaheni,,-11.5825,43.3625,Comoros,KM,COM,"Grande Comore","Grande Comore",KM-G,"autonomous island",,448.9,,,3,Indian/Comoro,FALSE,1174163935
Kavani,Kavani,,-12.1919,44.2694,Comoros,KM,COM,Anjouan,Anjouan,KM-A,"autonomous island",,155.5,,,4,Indian/Comoro,FALSE,1174340876
Ntakoudja,Ntakoudja,,-12.1686,44.2228,Comoros,KM,COM,Anjouan,Anjouan,KM-A,"autonomous island",,155.5,,,4,Indian/Comoro,FALSE,1174263069
"Mdji Diakagnoa","Mdji Diakagnoa",,-11.8789,43.4039,Comoros,KM,COM,"Grande Comore","Grande Comore",KM-G,"autonomous island",,448.9,,,3,Indian/Comoro,FALSE,1174402675
Itsoadjou,Itsoadjou,Dude,-11.4167,43.4167,Comoros,KM,COM,"Grande Comore","Grande Comore",KM-G,"autonomous island",,448.9,,,3,Indian/Comoro,FALSE,1174240484
Dima,Dima,,-11.8864,43.4108,Comoros,KM,COM,"Grande Comore","Grande Comore",KM-G,"autonomous island",,448.9,,,3,Indian/Comoro,FALSE,1174667290
Vouadjou,Vouadjou,,-11.6369,43.2544,Comoros,KM,COM,"Grande Comore","Grande Comore",KM-G,"autonomous island",,448.9,,,3,Indian/Comoro,FALSE,1174001689
Nioumachoua,Nioumachoua,"Nioumachoi|Niomachoi|Nioumgchoi|Numa Choa",-12.3667,43.7167,Comoros,KM,COM,Mohéli,Moheli,KM-M,"autonomous island",,1652.4,,,3,Indian/Comoro,FALSE,1174772913
Nioumamilina,Nioumamilina,,-11.4411,43.3967,Comoros,KM,COM,"Grande Comore","Grande Comore",KM-G,"autonomous island",,448.9,,,3,Indian/Comoro,FALSE,1174104588
Kyo,Kyo,Niambahamoro,-12.3322,44.5192,Comoros,KM,COM,Anjouan,Anjouan,KM-A,"autonomous island",,155.5,,,4,Indian/Comoro,FALSE,1174940428
"La Grotte","La Grotte",,-11.6000,43.3167,Comoros,KM,COM,"Grande Comore","Grande Comore",KM-G,"autonomous island",,448.9,,,3,Indian/Comoro,FALSE,1174479835
Mbouéladoungou,Mboueladoungou,,-12.2744,44.5264,Comoros,KM,COM,Anjouan,Anjouan,KM-A,"autonomous island",,155.5,,,4,Indian/Comoro,FALSE,1174384000
"Mdjoua Hahia","Mdjoua Hahia",,-11.8556,43.3886,Comoros,KM,COM,"Grande Comore","Grande Comore",KM-G,"autonomous island",,448.9,,,3,Indian/Comoro,FALSE,1174591488
Bangoua,Bangoua,,-11.8403,43.2781,Comoros,KM,COM,"Grande Comore","Grande Comore",KM-G,"autonomous island",,448.9,,,3,Indian/Comoro,FALSE,1174197233
Jiroudain,Jiroudain,Djiandro|Jiandro,-12.3167,43.7833,Comoros,KM,COM,Mohéli,Moheli,KM-M,"autonomous island",,1652.4,,,3,Indian/Comoro,FALSE,1174334157
Mtakoudja,Mtakoudja,,-12.2667,43.7000,Comoros,KM,COM,Mohéli,Moheli,KM-M,"autonomous island",,1652.4,,,3,Indian/Comoro,FALSE,1174489866
Miréréni,Mirereni,,-11.6903,43.4081,Comoros,KM,COM,"Grande Comore","Grande Comore",KM-G,"autonomous island",,448.9,,,3,Indian/Comoro,FALSE,1174263237
Miréréni,Mirereni,,-11.4475,43.2769,Comoros,KM,COM,"Grande Comore","Grande Comore",KM-G,"autonomous island",,448.9,,,3,Indian/Comoro,TRUE,1174945259
Miréréni,Mirereni,,-12.3211,43.6597,Comoros,KM,COM,Mohéli,Moheli,KM-M,"autonomous island",,1652.4,,,3,Indian/Comoro,FALSE,1174491035
Helendjé,Helendje,Hetanje,-11.4367,43.3050,Comoros,KM,COM,"Grande Comore","Grande Comore",KM-G,"autonomous island",,448.9,,,3,Indian/Comoro,FALSE,1174994186
Miringoni,Miringoni,,-12.3000,43.6333,Comoros,KM,COM,Mohéli,Moheli,KM-M,"autonomous island",,1652.4,,,3,Indian/Comoro,FALSE,1174126886
Nioumbadjou,Nioumbadjou,Niumbaju|Niumbadju|Tohbugodunda,-11.7992,43.2972,Comoros,KM,COM,"Grande Comore","Grande Comore",KM-G,"autonomous island",,448.9,,,3,Indian/Comoro,FALSE,1174436307
Nioumadzaha,Nioumadzaha,,-11.7906,43.2664,Comoros,KM,COM,"Grande Comore","Grande Comore",KM-G,"autonomous island",,448.9,,,3,Indian/Comoro,FALSE,1174304678
Mrijou,Mrijou,Marijou,-12.3319,44.4931,Comoros,KM,COM,Anjouan,Anjouan,KM-A,"autonomous island",,155.5,,,4,Indian/Comoro,FALSE,1174854323
Demeani,Demeani,Deneami,-12.3833,43.7500,Comoros,KM,COM,Mohéli,Moheli,KM-M,"autonomous island",,1652.4,,,3,Indian/Comoro,FALSE,1174731482
Djomani,Djomani,Jomani,-11.4303,43.2594,Comoros,KM,COM,"Grande Comore","Grande Comore",KM-G,"autonomous island",,448.9,,,3,Indian/Comoro,FALSE,1174388638
Kobela,Kobela,,-12.2681,43.6342,Comoros,KM,COM,Mohéli,Moheli,KM-M,"autonomous island",,1652.4,,,3,Indian/Comoro,FALSE,1174740853
"Dar Salam","Dar Salam",,-12.2508,44.3881,Comoros,KM,COM,Anjouan,Anjouan,KM-A,"autonomous island",,155.5,,,4,Indian/Comoro,FALSE,1174724755
Marontronii,Marontronii,,-12.2389,44.3669,Comoros,KM,COM,Anjouan,Anjouan,KM-A,"autonomous island",,155.5,,,4,Indian/Comoro,FALSE,1174605721
Mifoni,Mifoni,"Mifoni Sangani",-12.2639,43.6292,Comoros,KM,COM,Mohéli,Moheli,KM-M,"autonomous island",,1652.4,,,3,Indian/Comoro,FALSE,1174190870
Vindjajou,Vindjajou,,-12.2072,44.3097,Comoros,KM,COM,Anjouan,Anjouan,KM-A,"autonomous island",,155.5,,,4,Indian/Comoro,FALSE,1174104830
Koni-Djodjo,Koni-Djodjo,Koni,-12.2333,44.4833,Comoros,KM,COM,Anjouan,Anjouan,KM-A,"autonomous island",,155.5,,,4,Indian/Comoro,FALSE,1174820307
Mdjoizema,Mdjoizema,,-11.7167,43.4667,Comoros,KM,COM,"Grande Comore","Grande Comore",KM-G,"autonomous island",,448.9,,,3,Indian/Comoro,FALSE,1174314887
"Memboua Bouani","Memboua Bouani",,-11.3806,43.3067,Comoros,KM,COM,"Grande Comore","Grande Comore",KM-G,"autonomous island",,448.9,,,3,Indian/Comoro,FALSE,1174596660
Founga,Founga,,-11.4719,43.2950,Comoros,KM,COM,"Grande Comore","Grande Comore",KM-G,"autonomous island",,448.9,,,3,Indian/Comoro,FALSE,1174628617
Inané,Inane,,-11.8878,43.4661,Comoros,KM,COM,"Grande Comore","Grande Comore",KM-G,"autonomous island",,448.9,,,3,Indian/Comoro,FALSE,1174685369
Sanadani,Sanadani,,-12.1903,44.3328,Comoros,KM,COM,Anjouan,Anjouan,KM-A,"autonomous island",,155.5,,,4,Indian/Comoro,FALSE,1174884489
"Mro Mouhouli","Mro Mouhouli",,-12.2250,44.3031,Comoros,KM,COM,Anjouan,Anjouan,KM-A,"autonomous island",,155.5,,,4,Indian/Comoro,FALSE,1174291152
Simboussa,Simboussa,,-11.4681,43.2778,Comoros,KM,COM,"Grande Comore","Grande Comore",KM-G,"autonomous island",,448.9,,,3,Indian/Comoro,FALSE,1174743676
Chezani,Chezani,Cezani,-11.4333,43.3833,Comoros,KM,COM,"Grande Comore","Grande Comore",KM-G,"autonomous island",,448.9,,,3,Indian/Comoro,FALSE,1174661160
Bangoma,Bangoma,,-12.2839,43.7514,Comoros,KM,COM,Mohéli,Moheli,KM-M,"autonomous island",,1652.4,,,3,Indian/Comoro,FALSE,1174395654
Missouiri,Missouiri,,-11.8525,43.4703,Comoros,KM,COM,"Grande Comore","Grande Comore",KM-G,"autonomous island",,448.9,,,3,Indian/Comoro,FALSE,1174188202
Bangoi,Bangoi,,-11.8167,43.3000,Comoros,KM,COM,"Grande Comore","Grande Comore",KM-G,"autonomous island",,448.9,,,3,Indian/Comoro,FALSE,1174120391
Minassini,Minassini,,-11.6628,43.2733,Comoros,KM,COM,"Grande Comore","Grande Comore",KM-G,"autonomous island",,448.9,,,3,Indian/Comoro,FALSE,1174544879
Itsamia,Itsamia,,-12.3642,43.8678,Comoros,KM,COM,Mohéli,Moheli,KM-M,"autonomous island",,1652.4,,,3,Indian/Comoro,FALSE,1174983524
Sambakouni,Sambakouni,,-11.6481,43.2736,Comoros,KM,COM,"Grande Comore","Grande Comore",KM-G,"autonomous island",,448.9,,,3,Indian/Comoro,FALSE,1174714427
Kouambani,Kouambani,Kombani|Combani,-11.8558,43.4733,Comoros,KM,COM,"Grande Comore","Grande Comore",KM-G,"autonomous island",,448.9,,,3,Indian/Comoro,FALSE,1174574782
Choungoui,Choungoui,,-12.2519,44.3969,Comoros,KM,COM,Anjouan,Anjouan,KM-A,"autonomous island",,155.5,,,4,Indian/Comoro,FALSE,1174863428
Maoré,Maore,,-11.4211,43.3842,Comoros,KM,COM,"Grande Comore","Grande Comore",KM-G,"autonomous island",,448.9,,,3,Indian/Comoro,FALSE,1174097664
"Napa Beau","Napa Beau",,-11.7519,43.2261,Comoros,KM,COM,"Grande Comore","Grande Comore",KM-G,"autonomous island",,448.9,,,3,Indian/Comoro,FALSE,1174031899
Dzindri,Dzindri,,-12.2333,44.3500,Comoros,KM,COM,Anjouan,Anjouan,KM-A,"autonomous island",,155.5,,,4,Indian/Comoro,FALSE,1174325672
Damou,Damou,,-12.3000,43.6500,Comoros,KM,COM,Mohéli,Moheli,KM-M,"autonomous island",,1652.4,,,3,Indian/Comoro,FALSE,1174367643
Mtsangamléni,Mtsangamleni,,-12.1811,44.2578,Comoros,KM,COM,Anjouan,Anjouan,KM-A,"autonomous island",,155.5,,,4,Indian/Comoro,FALSE,1174239668
Itsambouni,Itsambouni,,-11.7258,43.2553,Comoros,KM,COM,"Grande Comore","Grande Comore",KM-G,"autonomous island",,448.9,,,3,Indian/Comoro,FALSE,1174070621
Mlalouankoudjou,Mlalouankoudjou,,-11.8653,43.4589,Comoros,KM,COM,"Grande Comore","Grande Comore",KM-G,"autonomous island",,448.9,,,3,Indian/Comoro,FALSE,1174521539
Longoni,Longoni,,-12.2500,44.4167,Comoros,KM,COM,Anjouan,Anjouan,KM-A,"autonomous island",,155.5,,,4,Indian/Comoro,FALSE,1174655096
Kourani,Kourani,,-11.4936,43.3683,Comoros,KM,COM,"Grande Comore","Grande Comore",KM-G,"autonomous island",,448.9,,,3,Indian/Comoro,TRUE,1174143809
Tsangadjou,Tsangadjou,,-11.7150,43.4250,Comoros,KM,COM,"Grande Comore","Grande Comore",KM-G,"autonomous island",,448.9,,,3,Indian/Comoro,FALSE,1174079871
Hagnengélé,Hagnengele,,-12.3750,43.8308,Comoros,KM,COM,Mohéli,Moheli,KM-M,"autonomous island",,1652.4,,,3,Indian/Comoro,FALSE,1174691939
Chongochahari,Chongochahari,,-12.1906,44.3186,Comoros,KM,COM,Anjouan,Anjouan,KM-A,"autonomous island",,155.5,,,4,Indian/Comoro,FALSE,1174635449
Membéni,Membeni,,-11.7739,43.4331,Comoros,KM,COM,"Grande Comore","Grande Comore",KM-G,"autonomous island",,448.9,,,3,Indian/Comoro,FALSE,1174636698
"La Grille","La Grille",,-11.4500,43.3333,Comoros,KM,COM,"Grande Comore","Grande Comore",KM-G,"autonomous island",,448.9,,,3,Indian/Comoro,FALSE,1174769077
Bouéni,Boueni,,-11.6308,43.3525,Comoros,KM,COM,"Grande Comore","Grande Comore",KM-G,"autonomous island",,448.9,,,3,Indian/Comoro,FALSE,1174467688
Mdé,Mde,,-11.7361,43.2406,Comoros,KM,COM,"Grande Comore","Grande Comore",KM-G,"autonomous island",,448.9,,,3,Indian/Comoro,FALSE,1174575457
Nounga,Nounga,Nunga,-12.3464,44.5028,Comoros,KM,COM,Anjouan,Anjouan,KM-A,"autonomous island",,155.5,,,4,Indian/Comoro,FALSE,1174985213
Hamsaoua,Hamsaoua,,-11.8314,43.2844,Comoros,KM,COM,"Grande Comore","Grande Comore",KM-G,"autonomous island",,448.9,,,3,Indian/Comoro,FALSE,1174634728
Samba,Samba,,-11.8472,43.3294,Comoros,KM,COM,"Grande Comore","Grande Comore",KM-G,"autonomous island",,448.9,,,3,Indian/Comoro,FALSE,1174049561
Samba,Samba,,-11.6683,43.2689,Comoros,KM,COM,"Grande Comore","Grande Comore",KM-G,"autonomous island",,448.9,,,3,Indian/Comoro,TRUE,1174129051
Sambia,Sambia,M’Tsumbia,-12.3667,43.8000,Comoros,KM,COM,Mohéli,Moheli,KM-M,"autonomous island",,1652.4,,,3,Indian/Comoro,FALSE,1174292854
Mkirijou,Mkirijou,,-12.1944,44.3178,Comoros,KM,COM,Anjouan,Anjouan,KM-A,"autonomous island",,155.5,,,4,Indian/Comoro,FALSE,1174973317
Mirondoni,Mirondoni,Miroudoni,-12.3222,44.5211,Comoros,KM,COM,Anjouan,Anjouan,KM-A,"autonomous island",,155.5,,,4,Indian/Comoro,FALSE,1174225898
Tsidjé,Tsidje,,-11.7000,43.2667,Comoros,KM,COM,"Grande Comore","Grande Comore",KM-G,"autonomous island",,448.9,,,3,Indian/Comoro,FALSE,1174657880
Bouenindi,Bouenindi,,-11.5622,43.2772,Comoros,KM,COM,"Grande Comore","Grande Comore",KM-G,"autonomous island",,448.9,,,3,Indian/Comoro,FALSE,1174847032
"Mouandzaza Djoumbé","Mouandzaza Djoumbe",,-11.7742,43.2561,Comoros,KM,COM,"Grande Comore","Grande Comore",KM-G,"autonomous island",,448.9,,,3,Indian/Comoro,FALSE,1174061254
Tsimbeo,Tsimbeo,,-12.2000,44.4667,Comoros,KM,COM,Anjouan,Anjouan,KM-A,"autonomous island",,155.5,,,4,Indian/Comoro,FALSE,1174241807
"Sada Mouamboua","Sada Mouamboua",,-11.4956,43.3717,Comoros,KM,COM,"Grande Comore","Grande Comore",KM-G,"autonomous island",,448.9,,,3,Indian/Comoro,FALSE,1174020166
Bandamaji,Bandamaji,,-12.3622,44.5200,Comoros,KM,COM,Anjouan,Anjouan,KM-A,"autonomous island",,155.5,,,4,Indian/Comoro,FALSE,1174733565
"Banda Mtsanga","Banda Mtsanga",,-12.0767,44.4811,Comoros,KM,COM,Anjouan,Anjouan,KM-A,"autonomous island",,155.5,,,4,Indian/Comoro,FALSE,1174710830
Ngamaroumbo,Ngamaroumbo,,-12.2617,43.6731,Comoros,KM,COM,Mohéli,Moheli,KM-M,"autonomous island",,1652.4,,,3,Indian/Comoro,FALSE,1174259695
Bangahani,Bangahani,,-11.5800,43.2792,Comoros,KM,COM,"Grande Comore","Grande Comore",KM-G,"autonomous island",,448.9,,,3,Indian/Comoro,FALSE,1174622322
Daché,Dache,,-11.7125,43.2514,Comoros,KM,COM,"Grande Comore","Grande Comore",KM-G,"autonomous island",,448.9,,,3,Indian/Comoro,FALSE,1174424743
Djoengoé,Djoengoe,,-11.4636,43.2778,Comoros,KM,COM,"Grande Comore","Grande Comore",KM-G,"autonomous island",,448.9,,,3,Indian/Comoro,FALSE,1174353882
Mitréni,Mitreni,,-12.2292,44.3103,Comoros,KM,COM,Anjouan,Anjouan,KM-A,"autonomous island",,155.5,,,4,Indian/Comoro,FALSE,1174462902
Iconi,Iconi,Koni,-12.3500,43.8500,Comoros,KM,COM,Mohéli,Moheli,KM-M,"autonomous island",,1652.4,,,3,Indian/Comoro,FALSE,1174731252
Iconi,Iconi,,-11.7453,43.2328,Comoros,KM,COM,"Grande Comore","Grande Comore",KM-G,"autonomous island",,448.9,,,3,Indian/Comoro,FALSE,1174319903
Sahani,Sahani,,-11.7297,43.2436,Comoros,KM,COM,"Grande Comore","Grande Comore",KM-G,"autonomous island",,448.9,,,3,Indian/Comoro,FALSE,1174786438
Dzahadjou,Dzahadjou,,-11.6458,43.3597,Comoros,KM,COM,"Grande Comore","Grande Comore",KM-G,"autonomous island",,448.9,,,3,Indian/Comoro,TRUE,1174262072
Dzahadjou,Dzahadjou,,-11.5528,43.3117,Comoros,KM,COM,"Grande Comore","Grande Comore",KM-G,"autonomous island",,448.9,,,3,Indian/Comoro,TRUE,1174575633
Dzahadjou,Dzahadjou,,-11.6264,43.2747,Comoros,KM,COM,"Grande Comore","Grande Comore",KM-G,"autonomous island",,448.9,,,3,Indian/Comoro,TRUE,1174203015
Mchénazi,Mchenazi,,-11.4303,43.2678,Comoros,KM,COM,"Grande Comore","Grande Comore",KM-G,"autonomous island",,448.9,,,3,Indian/Comoro,FALSE,1174825895
Zikaledjou,Zikaledjou,,-11.8022,43.2692,Comoros,KM,COM,"Grande Comore","Grande Comore",KM-G,"autonomous island",,448.9,,,3,Indian/Comoro,FALSE,1174702086
Membouadjou,Membouadjou,,-11.4003,43.3136,Comoros,KM,COM,"Grande Comore","Grande Comore",KM-G,"autonomous island",,448.9,,,3,Indian/Comoro,FALSE,1174772909
Hadongo,Hadongo,,-12.2364,44.3311,Comoros,KM,COM,Anjouan,Anjouan,KM-A,"autonomous island",,155.5,,,4,Indian/Comoro,FALSE,1174637859
Foumboudzivouni,Foumboudzivouni,,-11.7058,43.4242,Comoros,KM,COM,"Grande Comore","Grande Comore",KM-G,"autonomous island",,448.9,,,3,Indian/Comoro,FALSE,1174953707
Ngnambéni,Ngnambeni,,-11.8944,43.4706,Comoros,KM,COM,"Grande Comore","Grande Comore",KM-G,"autonomous island",,448.9,,,3,Indian/Comoro,FALSE,1174578980
Massihini,Massihini,,-11.4183,43.3828,Comoros,KM,COM,"Grande Comore","Grande Comore",KM-G,"autonomous island",,448.9,,,3,Indian/Comoro,FALSE,1174727548
Anihani,Anihani,,-11.4108,43.2953,Comoros,KM,COM,"Grande Comore","Grande Comore",KM-G,"autonomous island",,448.9,,,3,Indian/Comoro,FALSE,1174246570
Balsa,Balsa,,-11.3944,43.3628,Comoros,KM,COM,"Grande Comore","Grande Comore",KM-G,"autonomous island",,448.9,,,3,Indian/Comoro,FALSE,1174884271
Hamamboua,Hamamboua,,-12.2656,44.3978,Comoros,KM,COM,Anjouan,Anjouan,KM-A,"autonomous island",,155.5,,,4,Indian/Comoro,FALSE,1174057485
Ajaho,Ajaho,"Outsa Daoueni",-12.2653,44.5050,Comoros,KM,COM,Anjouan,Anjouan,KM-A,"autonomous island",,155.5,,,4,Indian/Comoro,FALSE,1174248215
Bandamadji,Bandamadji,,-11.4183,43.3822,Comoros,KM,COM,"Grande Comore","Grande Comore",KM-G,"autonomous island",,448.9,,,3,Indian/Comoro,TRUE,1174922829
Bandamadji,Bandamadji,,-11.8925,43.4611,Comoros,KM,COM,"Grande Comore","Grande Comore",KM-G,"autonomous island",,448.9,,,3,Indian/Comoro,TRUE,1174166487
Bandamadji,Bandamadji,,-11.6661,43.2603,Comoros,KM,COM,"Grande Comore","Grande Comore",KM-G,"autonomous island",,448.9,,,3,Indian/Comoro,TRUE,1174738138
Foumbouni,Foumbouni,Mbajini|Fomboni|Mbagini,-11.8667,43.4833,Comoros,KM,COM,"Grande Comore","Grande Comore",KM-G,"autonomous island",,448.9,,,3,Indian/Comoro,FALSE,1174432414
Sima,Sima,,-12.1992,44.2742,Comoros,KM,COM,Anjouan,Anjouan,KM-A,"autonomous island",,155.5,,,4,Indian/Comoro,FALSE,1174000000
Sima,Sima,,-11.6100,43.3703,Comoros,KM,COM,"Grande Comore","Grande Comore",KM-G,"autonomous island",,448.9,,,3,Indian/Comoro,FALSE,1174138826
Mbambani,Mbambani,,-11.8497,43.3311,Comoros,KM,COM,"Grande Comore","Grande Comore",KM-G,"autonomous island",,448.9,,,3,Indian/Comoro,FALSE,1174911498
Kouhani,Kouhani,Kounani,-11.5675,43.3872,Comoros,KM,COM,"Grande Comore","Grande Comore",KM-G,"autonomous island",,448.9,,,3,Indian/Comoro,FALSE,1174950679
Séléyani,Seleyani,,-11.4994,43.3903,Comoros,KM,COM,"Grande Comore","Grande Comore",KM-G,"autonomous island",,448.9,,,3,Indian/Comoro,FALSE,1174438284
Kanzilé,Kanzile,,-11.8550,43.3819,Comoros,KM,COM,"Grande Comore","Grande Comore",KM-G,"autonomous island",,448.9,,,3,Indian/Comoro,FALSE,1174608775
Ntsajou,Ntsajou,,-12.1778,44.2367,Comoros,KM,COM,Anjouan,Anjouan,KM-A,"autonomous island",,155.5,,,4,Indian/Comoro,FALSE,1174086043
Mandzissani,Mandzissani,,-11.8839,43.3967,Comoros,KM,COM,"Grande Comore","Grande Comore",KM-G,"autonomous island",,448.9,,,3,Indian/Comoro,FALSE,1174377467
"Sima Ambouani","Sima Ambouani",,-11.9156,43.4617,Comoros,KM,COM,"Grande Comore","Grande Comore",KM-G,"autonomous island",,448.9,,,3,Indian/Comoro,FALSE,1174615002
Mlabanda,Mlabanda,,-12.3314,43.8114,Comoros,KM,COM,Mohéli,Moheli,KM-M,"autonomous island",,1652.4,,,3,Indian/Comoro,FALSE,1174618931
Nkozini,Nkozini,,-12.2889,44.4394,Comoros,KM,COM,Anjouan,Anjouan,KM-A,"autonomous island",,155.5,,,4,Indian/Comoro,FALSE,1174050835
Mouamoua,Mouamoua,,-12.1800,44.3783,Comoros,KM,COM,Anjouan,Anjouan,KM-A,"autonomous island",,155.5,,,4,Indian/Comoro,FALSE,1174084784
Mbachilé,Mbachile,Mtachite,-11.7547,43.2278,Comoros,KM,COM,"Grande Comore","Grande Comore",KM-G,"autonomous island",,448.9,,,3,Indian/Comoro,FALSE,1174330465
Tsinimouapanga,Tsinimouapanga,,-11.7900,43.4256,Comoros,KM,COM,"Grande Comore","Grande Comore",KM-G,"autonomous island",,448.9,,,3,Indian/Comoro,FALSE,1174762486
Koimbani,Koimbani,Combani|Kombani,-11.6167,43.3500,Comoros,KM,COM,"Grande Comore","Grande Comore",KM-G,"autonomous island",,448.9,,,3,Indian/Comoro,FALSE,1174683081
Manda,Manda,,-11.4497,43.2919,Comoros,KM,COM,"Grande Comore","Grande Comore",KM-G,"autonomous island",,448.9,,,3,Indian/Comoro,FALSE,1174688676
Bangouélamvouéra,Bangouelamvouera,,-12.1714,44.2264,Comoros,KM,COM,Anjouan,Anjouan,KM-A,"autonomous island",,155.5,,,4,Indian/Comoro,FALSE,1174989196
Mahavani,Mahavani,,-11.7872,43.4247,Comoros,KM,COM,"Grande Comore","Grande Comore",KM-G,"autonomous island",,448.9,,,3,Indian/Comoro,FALSE,1174800516
Boudé-Adjou,Boude-Adjou,,-11.7714,43.2650,Comoros,KM,COM,"Grande Comore","Grande Comore",KM-G,"autonomous island",,448.9,,,3,Indian/Comoro,FALSE,1174761225
Samba-Madi,Samba-Madi,Samba,-11.6653,43.3981,Comoros,KM,COM,"Grande Comore","Grande Comore",KM-G,"autonomous island",,448.9,,,3,Indian/Comoro,FALSE,1174041724
Ouanani,Ouanani,Oanani|Wanani,-12.3333,43.8000,Comoros,KM,COM,Mohéli,Moheli,KM-M,"autonomous island",,1652.4,,,3,Indian/Comoro,FALSE,1174191055
Ndroudé,Ndroude,,-11.4169,43.4003,Comoros,KM,COM,"Grande Comore","Grande Comore",KM-G,"autonomous island",,448.9,,,3,Indian/Comoro,FALSE,1174045271
Bangouamafsakoa,Bangouamafsakoa,,-11.3964,43.2939,Comoros,KM,COM,"Grande Comore","Grande Comore",KM-G,"autonomous island",,448.9,,,3,Indian/Comoro,FALSE,1174630631
Toyifa,Toyifa,,-11.4053,43.3053,Comoros,KM,COM,"Grande Comore","Grande Comore",KM-G,"autonomous island",,448.9,,,3,Indian/Comoro,FALSE,1174447540
Séréhini,Serehini,,-11.7564,43.2347,Comoros,KM,COM,"Grande Comore","Grande Comore",KM-G,"autonomous island",,448.9,,,3,Indian/Comoro,FALSE,1174926240
Daouéni,Daoueni,,-11.7675,43.2636,Comoros,KM,COM,"Grande Comore","Grande Comore",KM-G,"autonomous island",,448.9,,,3,Indian/Comoro,FALSE,1174836861
"Banda Daouéni","Banda Daoueni",,-11.7725,43.4386,Comoros,KM,COM,"Grande Comore","Grande Comore",KM-G,"autonomous island",,448.9,,,3,Indian/Comoro,FALSE,1174281892
Mromagi,Mromagi,,-12.2036,44.5106,Comoros,KM,COM,Anjouan,Anjouan,KM-A,"autonomous island",,155.5,,,4,Indian/Comoro,FALSE,1174790909
Barakani,Barakani,,-11.8333,43.4167,Comoros,KM,COM,"Grande Comore","Grande Comore",KM-G,"autonomous island",,448.9,,,3,Indian/Comoro,FALSE,1174436228
Séléa,Selea,,-11.7870,43.2710,Comoros,KM,COM,"Grande Comore","Grande Comore",KM-G,"autonomous island",,448.9,,,3,Indian/Comoro,FALSE,1174793527
Hadjambo,Hadjambo,Hajumbo|Hadjumbo,-11.4500,43.4167,Comoros,KM,COM,"Grande Comore","Grande Comore",KM-G,"autonomous island",,448.9,,,3,Indian/Comoro,FALSE,1174063070
Mvouni,Mvouni,,-11.7167,43.2667,Comoros,KM,COM,"Grande Comore","Grande Comore",KM-G,"autonomous island",,448.9,,,3,Indian/Comoro,FALSE,1174886129
Moujou,Moujou,,-12.1500,44.4833,Comoros,KM,COM,Anjouan,Anjouan,KM-A,"autonomous island",,155.5,,,4,Indian/Comoro,FALSE,1174821257
Haïgnandrama,Haignandrama,,-11.4422,43.2936,Comoros,KM,COM,"Grande Comore","Grande Comore",KM-G,"autonomous island",,448.9,,,3,Indian/Comoro,FALSE,1174861614
Ntsazou,Ntsazou,Sazu,-12.1667,44.2500,Comoros,KM,COM,Anjouan,Anjouan,KM-A,"autonomous island",,155.5,,,4,Indian/Comoro,FALSE,1174074600
Komioni,Komioni,,-11.8072,43.2808,Comoros,KM,COM,"Grande Comore","Grande Comore",KM-G,"autonomous island",,448.9,,,3,Indian/Comoro,FALSE,1174398022
Lamboué,Lamboue,,-12.2189,44.2894,Comoros,KM,COM,Anjouan,Anjouan,KM-A,"autonomous island",,155.5,,,4,Indian/Comoro,FALSE,1174804439
Hambo,Hambo,,-11.5833,43.3833,Comoros,KM,COM,"Grande Comore","Grande Comore",KM-G,"autonomous island",,448.9,,,3,Indian/Comoro,FALSE,1174431754
Famaré,Famare,,-11.8586,43.4233,Comoros,KM,COM,"Grande Comore","Grande Comore",KM-G,"autonomous island",,448.9,,,3,Indian/Comoro,FALSE,1174672105
Mihoungouni,Mihoungouni,,-12.3583,43.7675,Comoros,KM,COM,Mohéli,Moheli,KM-M,"autonomous island",,1652.4,,,3,Indian/Comoro,FALSE,1174890491
Siri,Siri,,-12.3342,43.7806,Comoros,KM,COM,Mohéli,Moheli,KM-M,"autonomous island",,1652.4,,,3,Indian/Comoro,FALSE,1174739976
Pidjani,Pidjani,,-11.7872,43.4536,Comoros,KM,COM,"Grande Comore","Grande Comore",KM-G,"autonomous island",,448.9,,,3,Indian/Comoro,FALSE,1174391278
Pidjani,Pidjani,,-11.4047,43.2986,Comoros,KM,COM,"Grande Comore","Grande Comore",KM-G,"autonomous island",,448.9,,,3,Indian/Comoro,TRUE,1174904481
Gnombéni,Gnombeni,,-12.3006,43.7781,Comoros,KM,COM,Mohéli,Moheli,KM-M,"autonomous island",,1652.4,,,3,Indian/Comoro,FALSE,1174868039
Irouhé,Irouhe,,-11.6331,43.3522,Comoros,KM,COM,"Grande Comore","Grande Comore",KM-G,"autonomous island",,448.9,,,3,Indian/Comoro,FALSE,1174513182
"Bangoua Kouni","Bangoua Kouni","Bangoua|Bangua|Bangoi Kouni",-11.3675,43.3528,Comoros,KM,COM,"Grande Comore","Grande Comore",KM-G,"autonomous island",,448.9,,,3,Indian/Comoro,FALSE,1174839889
Gouni,Gouni,,-11.6536,43.2567,Comoros,KM,COM,"Grande Comore","Grande Comore",KM-G,"autonomous island",,448.9,,,3,Indian/Comoro,FALSE,1174293561
Minoungouni,Minoungouni,,-11.4417,43.3017,Comoros,KM,COM,"Grande Comore","Grande Comore",KM-G,"autonomous island",,448.9,,,3,Indian/Comoro,FALSE,1174388310
Bandani,Bandani,,-12.3333,43.8167,Comoros,KM,COM,Mohéli,Moheli,KM-M,"autonomous island",,1652.4,,,3,Indian/Comoro,FALSE,1174346344
Mouroumouli,Mouroumouli,,-12.2000,44.3167,Comoros,KM,COM,Anjouan,Anjouan,KM-A,"autonomous island",,155.5,,,4,Indian/Comoro,FALSE,1174052540
Mlimani,Mlimani,,-11.8853,43.3989,Comoros,KM,COM,"Grande Comore","Grande Comore",KM-G,"autonomous island",,448.9,,,3,Indian/Comoro,FALSE,1174952705
Moya,Moya,,-12.3108,44.4369,Comoros,KM,COM,Anjouan,Anjouan,KM-A,"autonomous island",,155.5,,,4,Indian/Comoro,FALSE,1174056381
Fongapepo,Fongapepo,,-12.2500,43.6500,Comoros,KM,COM,Mohéli,Moheli,KM-M,"autonomous island",,1652.4,,,3,Indian/Comoro,FALSE,1174128483
"Mouandzaza Ambouani","Mouandzaza Ambouani",,-11.7711,43.2331,Comoros,KM,COM,"Grande Comore","Grande Comore",KM-G,"autonomous island",,448.9,,,3,Indian/Comoro,FALSE,1174984706
Mdjibari,Mdjibari,,-11.4839,43.3733,Comoros,KM,COM,"Grande Comore","Grande Comore",KM-G,"autonomous island",,448.9,,,3,Indian/Comoro,FALSE,1174968188
Magaridjou,Magaridjou,,-11.8011,43.2850,Comoros,KM,COM,"Grande Comore","Grande Comore",KM-G,"autonomous island",,448.9,,,3,Indian/Comoro,FALSE,1174199474
Lamahalé,Lamahale,,-12.1472,44.4989,Comoros,KM,COM,Anjouan,Anjouan,KM-A,"autonomous island",,155.5,,,4,Indian/Comoro,FALSE,1174510254
Chamro,Chamro,,-11.6544,43.3914,Comoros,KM,COM,"Grande Comore","Grande Comore",KM-G,"autonomous island",,448.9,,,3,Indian/Comoro,FALSE,1174459718
Mirontsi,Mirontsi,,-12.1500,44.4000,Comoros,KM,COM,Anjouan,Anjouan,KM-A,"autonomous island",,155.5,,,4,Indian/Comoro,FALSE,1174437693
Bouijou,Bouijou,,-12.3564,44.5031,Comoros,KM,COM,Anjouan,Anjouan,KM-A,"autonomous island",,155.5,,,4,Indian/Comoro,FALSE,1174771747
Ndrangani,Ndrangani,,-12.1192,44.4942,Comoros,KM,COM,Anjouan,Anjouan,KM-A,"autonomous island",,155.5,,,4,Indian/Comoro,FALSE,1174640175
Ngolé,Ngole,,-11.4653,43.3881,Comoros,KM,COM,"Grande Comore","Grande Comore",KM-G,"autonomous island",,448.9,,,3,Indian/Comoro,FALSE,1174697969
Sada,Sada,,-11.6319,43.3578,Comoros,KM,COM,"Grande Comore","Grande Comore",KM-G,"autonomous island",,448.9,,,3,Indian/Comoro,FALSE,1174746020
Ziroudani,Ziroudani,,-12.3333,43.7833,Comoros,KM,COM,Mohéli,Moheli,KM-M,"autonomous island",,1652.4,,,3,Indian/Comoro,FALSE,1174182334
Milembéni,Milembeni,,-12.1981,44.2639,Comoros,KM,COM,Anjouan,Anjouan,KM-A,"autonomous island",,155.5,,,4,Indian/Comoro,FALSE,1174390225
Majouani,Majouani,,-12.1858,44.2747,Comoros,KM,COM,Anjouan,Anjouan,KM-A,"autonomous island",,155.5,,,4,Indian/Comoro,FALSE,1174253010
Jimilimé,Jimilime,,-12.1000,44.4667,Comoros,KM,COM,Anjouan,Anjouan,KM-A,"autonomous island",,155.5,,,4,Indian/Comoro,FALSE,1174870859
Iméré,Imere,,-12.2361,44.3678,Comoros,KM,COM,Anjouan,Anjouan,KM-A,"autonomous island",,155.5,,,4,Indian/Comoro,FALSE,1174657534
Ndroini,Ndroini,,-11.7622,43.2419,Comoros,KM,COM,"Grande Comore","Grande Comore",KM-G,"autonomous island",,448.9,,,3,Indian/Comoro,FALSE,1174877445
Koué,Koue,,-12.2822,44.4194,Comoros,KM,COM,Anjouan,Anjouan,KM-A,"autonomous island",,155.5,,,4,Indian/Comoro,FALSE,1174459557
"Dzindri Mtsangani","Dzindri Mtsangani",,-12.2350,44.3619,Comoros,KM,COM,Anjouan,Anjouan,KM-A,"autonomous island",,155.5,,,4,Indian/Comoro,FALSE,1174958177
Tsinimouachongo,Tsinimouachongo,,-11.8456,43.3661,Comoros,KM,COM,"Grande Comore","Grande Comore",KM-G,"autonomous island",,448.9,,,3,Indian/Comoro,FALSE,1174534949
Kourani-Mkanga,Kourani-Mkanga,,-11.8867,43.4442,Comoros,KM,COM,"Grande Comore","Grande Comore",KM-G,"autonomous island",,448.9,,,3,Indian/Comoro,FALSE,1174667846
Idjouandradja,Idjouandradja,,-11.7219,43.4267,Comoros,KM,COM,"Grande Comore","Grande Comore",KM-G,"autonomous island",,448.9,,,3,Indian/Comoro,FALSE,1174887998
Babani,Babani,,-12.3000,43.8000,Comoros,KM,COM,Mohéli,Moheli,KM-M,"autonomous island",,1652.4,,,3,Indian/Comoro,FALSE,1174987283
"La Convalescence","La Convalescence",Convalescence,-11.7550,43.3197,Comoros,KM,COM,"Grande Comore","Grande Comore",KM-G,"autonomous island",,448.9,,,3,Indian/Comoro,FALSE,1174465204
Ouémani,Ouemani,Uemani,-11.3803,43.3253,Comoros,KM,COM,"Grande Comore","Grande Comore",KM-G,"autonomous island",,448.9,,,3,Indian/Comoro,FALSE,1174212486
Djitaché,Djitache,,-11.7572,43.2786,Comoros,KM,COM,"Grande Comore","Grande Comore",KM-G,"autonomous island",,448.9,,,3,Indian/Comoro,FALSE,1174373397
Kangani,Kangani,Kangam,-12.3400,43.8217,Comoros,KM,COM,Mohéli,Moheli,KM-M,"autonomous island",,1652.4,,,3,Indian/Comoro,FALSE,1174456220
Ouallah,Ouallah,Luala|Ouala,-12.3333,43.6667,Comoros,KM,COM,Mohéli,Moheli,KM-M,"autonomous island",,1652.4,,,3,Indian/Comoro,FALSE,1174722253
Salimani,Salimani,,-11.4200,43.3831,Comoros,KM,COM,"Grande Comore","Grande Comore",KM-G,"autonomous island",,448.9,,,3,Indian/Comoro,TRUE,1174418166
Salimani,Salimani,,-11.6803,43.2661,Comoros,KM,COM,"Grande Comore","Grande Comore",KM-G,"autonomous island",,448.9,,,3,Indian/Comoro,TRUE,1174767151
Hoani,Hoani,,-12.2500,43.6667,Comoros,KM,COM,Mohéli,Moheli,KM-M,"autonomous island",,1652.4,,,3,Indian/Comoro,FALSE,1174122740
Batou,Batou,,-11.4986,43.3575,Comoros,KM,COM,"Grande Comore","Grande Comore",KM-G,"autonomous island",,448.9,,,3,Indian/Comoro,FALSE,1174143248
Ikoni,Ikoni,,-11.7400,43.2256,Comoros,KM,COM,"Grande Comore","Grande Comore",KM-G,"autonomous island",,448.9,,,3,Indian/Comoro,FALSE,1174940056
Ouzio,Ouzio,,-11.4000,43.3653,Comoros,KM,COM,"Grande Comore","Grande Comore",KM-G,"autonomous island",,448.9,,,3,Indian/Comoro,FALSE,1174226774
Mindralou,Mindralou,,-11.8800,43.3892,Comoros,KM,COM,"Grande Comore","Grande Comore",KM-G,"autonomous island",,448.9,,,3,Indian/Comoro,FALSE,1174843253
Outsa,Outsa,,-12.2786,44.4978,Comoros,KM,COM,Anjouan,Anjouan,KM-A,"autonomous island",,155.5,,,4,Indian/Comoro,FALSE,1174828835
Salapouani,Salapouani,,-12.3711,44.5069,Comoros,KM,COM,Anjouan,Anjouan,KM-A,"autonomous island",,155.5,,,4,Indian/Comoro,FALSE,1174523673
Dimadjou,Dimadjou,,-11.6731,43.2753,Comoros,KM,COM,"Grande Comore","Grande Comore",KM-G,"autonomous island",,448.9,,,3,Indian/Comoro,FALSE,1174490558
Sidjou,Sidjou,,-11.6714,43.4050,Comoros,KM,COM,"Grande Comore","Grande Comore",KM-G,"autonomous island",,448.9,,,3,Indian/Comoro,FALSE,1174011450
Ivembeni,Ivembeni,,-11.4778,43.3181,Comoros,KM,COM,"Grande Comore","Grande Comore",KM-G,"autonomous island",,448.9,,,3,Indian/Comoro,FALSE,1174423749
Itsikoudi,Itsikoudi,Itsinkoudi,-11.5833,43.3833,Comoros,KM,COM,"Grande Comore","Grande Comore",KM-G,"autonomous island",,448.9,,,3,Indian/Comoro,FALSE,1174628800
Madjoumadjou,Madjoumadjou,,-11.7283,43.4228,Comoros,KM,COM,"Grande Comore","Grande Comore",KM-G,"autonomous island",,448.9,,,3,Indian/Comoro,FALSE,1174213318
Chomoni,Chomoni,Chamro,-11.6431,43.3858,Comoros,KM,COM,"Grande Comore","Grande Comore",KM-G,"autonomous island",,448.9,,,3,Indian/Comoro,FALSE,1174210307
Buanitonque,Buanitonque,,-12.3333,43.7167,Comoros,KM,COM,Mohéli,Moheli,KM-M,"autonomous island",,1652.4,,,3,Indian/Comoro,FALSE,1174211074
Itsangoué,Itsangoue,,-11.8103,43.4428,Comoros,KM,COM,"Grande Comore","Grande Comore",KM-G,"autonomous island",,448.9,,,3,Indian/Comoro,FALSE,1174632926
Makorani,Makorani,,-11.8511,43.3583,Comoros,KM,COM,"Grande Comore","Grande Comore",KM-G,"autonomous island",,448.9,,,3,Indian/Comoro,FALSE,1174454986
Hagnamouada,Hagnamouada,,-12.3333,43.8425,Comoros,KM,COM,Mohéli,Moheli,KM-M,"autonomous island",,1652.4,,,3,Indian/Comoro,FALSE,1174352768
Kové,Kove,,-11.8758,43.4722,Comoros,KM,COM,"Grande Comore","Grande Comore",KM-G,"autonomous island",,448.9,,,3,Indian/Comoro,FALSE,1174129769
Vanadjou,Vanadjou,,-11.6075,43.2761,Comoros,KM,COM,"Grande Comore","Grande Comore",KM-G,"autonomous island",,448.9,,,3,Indian/Comoro,FALSE,1174099916
Hahaïa,Hahaia,,-11.5608,43.2622,Comoros,KM,COM,"Grande Comore","Grande Comore",KM-G,"autonomous island",,448.9,,,3,Indian/Comoro,FALSE,1174174430
Djoumouachongo,Djoumouachongo,,-11.8067,43.2856,Comoros,KM,COM,"Grande Comore","Grande Comore",KM-G,"autonomous island",,448.9,,,3,Indian/Comoro,FALSE,1174330280
"Trou du Prophète","Trou du Prophete",,-11.3772,43.3050,Comoros,KM,COM,"Grande Comore","Grande Comore",KM-G,"autonomous island",,448.9,,,3,Indian/Comoro,FALSE,1174380967
Mnazichoumoué,Mnazichoumoue,,-12.3425,44.5019,Comoros,KM,COM,Anjouan,Anjouan,KM-A,"autonomous island",,155.5,,,4,Indian/Comoro,FALSE,1174988573
Mirémani,Miremani,,-12.3397,43.6683,Comoros,KM,COM,Mohéli,Moheli,KM-M,"autonomous island",,1652.4,,,3,Indian/Comoro,FALSE,1174844124
Mramani,Mramani,M’Ramoni|M’ramoni,-12.3500,44.5333,Comoros,KM,COM,Anjouan,Anjouan,KM-A,"autonomous island",,155.5,,,4,Indian/Comoro,FALSE,1174411781
Chitsangachélé,Chitsangachele,,-12.2356,44.3231,Comoros,KM,COM,Anjouan,Anjouan,KM-A,"autonomous island",,155.5,,,4,Indian/Comoro,FALSE,1174552733
Hassendjé,Hassendje,,-11.6178,43.3822,Comoros,KM,COM,"Grande Comore","Grande Comore",KM-G,"autonomous island",,448.9,,,3,Indian/Comoro,FALSE,1174677864
Ndzouani,Ndzouani,,-11.9014,43.4772,Comoros,KM,COM,"Grande Comore","Grande Comore",KM-G,"autonomous island",,448.9,,,3,Indian/Comoro,FALSE,1174700248
Didjoni,Didjoni,,-11.8808,43.4811,Comoros,KM,COM,"Grande Comore","Grande Comore",KM-G,"autonomous island",,448.9,,,3,Indian/Comoro,FALSE,1174077719
Mrondadjou,Mrondadjou,,-11.7956,43.4261,Comoros,KM,COM,"Grande Comore","Grande Comore",KM-G,"autonomous island",,448.9,,,3,Indian/Comoro,FALSE,1174413502
Ongoujou,Ongoujou,Ongoijou,-12.3117,44.5081,Comoros,KM,COM,Anjouan,Anjouan,KM-A,"autonomous island",,155.5,,,4,Indian/Comoro,FALSE,1174551542
Ndrondroni,Ndrondroni,,-12.3500,43.6833,Comoros,KM,COM,Mohéli,Moheli,KM-M,"autonomous island",,1652.4,,,3,Indian/Comoro,FALSE,1174959932
Sada-Chihoué,Sada-Chihoue,,-11.5094,43.3761,Comoros,KM,COM,"Grande Comore","Grande Comore",KM-G,"autonomous island",,448.9,,,3,Indian/Comoro,FALSE,1174230103
Hagniamada,Hagniamada,Agniamuada|Agniamouada,-12.3167,43.8500,Comoros,KM,COM,Mohéli,Moheli,KM-M,"autonomous island",,1652.4,,,3,Indian/Comoro,FALSE,1174479104
