city,city_ascii,city_alt,lat,lng,country,iso2,iso3,admin_name,admin_name_ascii,admin_code,admin_type,capital,density,population,population_proper,ranking,timezone,same_name,id
Guayaquil,Guayaquil,,-2.1900,-79.8875,Ecuador,EC,ECU,Guayas,Guayas,EC-G,province,admin,1303.4,2650288,2650288,1,America/Guayaquil,FALSE,1218802178
Quito,Quito,,-0.2200,-78.5125,Ecuador,EC,ECU,Pichincha,Pichincha,EC-P,province,primary,4735.0,1763275,1763275,1,America/Guayaquil,FALSE,1218441993
Cuenca,Cuenca,,-2.8974,-79.0045,Ecuador,EC,ECU,Azuay,Azuay,EC-A,province,admin,5121.5,361524,361524,2,America/Guayaquil,FALSE,1218041020
"Santo Domingo de los Colorados","Santo Domingo de los Colorados","Santo Domingo",-0.2542,-79.1719,Ecuador,EC,ECU,"Santo Domingo de los Tsáchilas","Santo Domingo de los Tsachilas",EC-SD,province,admin,367.6,334826,334826,2,America/Guayaquil,FALSE,1218148017
"Eloy Alfaro","Eloy Alfaro",Durán|Alfaro,-2.1733,-79.8311,Ecuador,EC,ECU,Guayas,Guayas,EC-G,province,,955.9,295211,295211,2,America/Guayaquil,FALSE,1218127217
Machala,Machala,,-3.2667,-79.9667,Ecuador,EC,ECU,"El Oro","El Oro",EC-O,province,admin,1471.0,288072,288072,2,America/Guayaquil,FALSE,1218378191
Manta,Manta,"Puerto de Manta",-0.9500,-80.7162,Ecuador,EC,ECU,Manabí,Manabi,EC-M,province,,1333.3,258697,258697,2,America/Guayaquil,FALSE,1218160109
Portoviejo,Portoviejo,,-1.0561,-80.4553,Ecuador,EC,ECU,Manabí,Manabi,EC-M,province,admin,621.7,244129,244129,2,America/Guayaquil,FALSE,1218169586
Loja,Loja,,-3.9833,-79.2000,Ecuador,EC,ECU,Loja,Loja,EC-L,province,admin,704.2,203496,203496,2,America/Guayaquil,FALSE,1218739896
Quevedo,Quevedo,,-1.0333,-79.4500,Ecuador,EC,ECU,"Los Ríos","Los Rios",EC-R,province,,1025.6,177792,177792,2,America/Guayaquil,FALSE,1218928435
Ambato,Ambato,,-1.2417,-78.6197,Ecuador,EC,ECU,Tungurahua,Tungurahua,EC-T,province,admin,3813.2,177316,177316,2,America/Guayaquil,FALSE,1218046148
Riobamba,Riobamba,,-1.6731,-78.6483,Ecuador,EC,ECU,Chimborazo,Chimborazo,EC-H,province,admin,4411.6,177213,177213,2,America/Guayaquil,FALSE,1218552075
Daule,Daule,,-1.8667,-79.9833,Ecuador,EC,ECU,Guayas,Guayas,EC-G,province,,575.0,161498,161498,2,America/Guayaquil,FALSE,1218253183
Milagro,Milagro,,-2.1347,-79.5872,Ecuador,EC,ECU,Guayas,Guayas,EC-G,province,,789.1,159970,159970,2,America/Guayaquil,FALSE,1218568564
Ibarra,Ibarra,,0.3627,-78.1307,Ecuador,EC,ECU,Imbabura,Imbabura,EC-I,province,admin,683.3,157941,157941,2,America/Guayaquil,FALSE,1218479054
Esmeraldas,Esmeraldas,"Volcán Chimborazo",0.9667,-79.6528,Ecuador,EC,ECU,Esmeraldas,Esmeraldas,EC-E,province,admin,5459.5,155487,155487,2,America/Guayaquil,FALSE,1218601363
"La Libertad","La Libertad",,-2.2333,-80.9000,Ecuador,EC,ECU,Guayas,Guayas,EC-G,province,,4489.8,112154,112154,2,America/Guayaquil,FALSE,1218254479
Babahoyo,Babahoyo,Babahoya,-1.8167,-79.5167,Ecuador,EC,ECU,"Los Ríos","Los Rios",EC-R,province,admin,703.5,98251,98251,2,America/Guayaquil,FALSE,1218156392
Sangolquí,Sangolqui,,-0.3344,-78.4475,Ecuador,EC,ECU,Pichincha,Pichincha,EC-P,province,,1680.8,96647,96647,3,America/Guayaquil,FALSE,1218715616
Latacunga,Latacunga,,-0.9319,-78.6161,Ecuador,EC,ECU,Cotopaxi,Cotopaxi,EC-X,province,admin,440.5,77267,77267,2,America/Guayaquil,FALSE,1218947988
Samborondón,Samborondon,Zamborondón|Samrondón,-2.1833,-79.8833,Ecuador,EC,ECU,Guayas,Guayas,EC-G,province,,326.4,72425,72425,3,America/Guayaquil,FALSE,1218370377
Montecristi,Montecristi,,-1.0500,-80.6667,Ecuador,EC,ECU,Manabí,Manabi,EC-M,province,,121.3,71066,71066,3,America/Guayaquil,FALSE,1218883853
Pasaje,Pasaje,,-3.3269,-79.8049,Ecuador,EC,ECU,"El Oro","El Oro",EC-O,province,,467.2,60147,60147,3,America/Guayaquil,FALSE,1218997966
"Santa Rosa","Santa Rosa",,-3.4522,-79.9617,Ecuador,EC,ECU,"El Oro","El Oro",EC-O,province,,356.6,56842,56842,3,America/Guayaquil,FALSE,1218626394
Tulcán,Tulcan,,0.8117,-77.7186,Ecuador,EC,ECU,Carchi,Carchi,EC-C,province,admin,517.5,56719,56719,2,America/Guayaquil,FALSE,1218976878
Huaquillas,Huaquillas,,-3.4814,-80.2432,Ecuador,EC,ECU,"El Oro","El Oro",EC-O,province,,3136.7,56021,56021,2,America/Guayaquil,FALSE,1218443042
"Nueva Loja","Nueva Loja","Lago Agrio",0.0847,-76.8828,Ecuador,EC,ECU,Sucumbíos,Sucumbios,EC-U,province,admin,217.7,55627,55627,2,America/Guayaquil,FALSE,1218895755
Chone,Chone,,-0.6833,-80.1000,Ecuador,EC,ECU,Manabí,Manabi,EC-M,province,,105.6,54629,54629,3,America/Guayaquil,FALSE,1218083347
"Santa Elena","Santa Elena",,-2.2267,-80.8583,Ecuador,EC,ECU,"Santa Elena","Santa Elena",EC-SE,province,admin,131.0,54565,54565,2,America/Guayaquil,FALSE,1218296446
"Puerto Francisco de Orellana","Puerto Francisco de Orellana","La Coca|Coca|Francisco de Orellana",-0.4625,-76.9842,Ecuador,EC,ECU,Orellana,Orellana,EC-D,province,admin,572.1,51281,51281,2,America/Guayaquil,FALSE,1218387446
Playas,Playas,"Villamil|General Villamil",-2.6300,-80.3900,Ecuador,EC,ECU,Guayas,Guayas,EC-G,province,,192.0,48156,48156,3,America/Guayaquil,FALSE,1218216648
"San Jacinto de Buena Fe","San Jacinto de Buena Fe","Buena Fe",-0.8986,-79.4889,Ecuador,EC,ECU,"Los Ríos","Los Rios",EC-R,province,,153.7,46779,46779,3,America/Guayaquil,FALSE,1218724130
Jipijapa,Jipijapa,,-1.3486,-80.5786,Ecuador,EC,ECU,Manabí,Manabi,EC-M,province,,143.4,45382,45382,3,America/Guayaquil,FALSE,1218962184
Cayambe,Cayambe,,0.0439,-78.1561,Ecuador,EC,ECU,Pichincha,Pichincha,EC-P,province,,166.2,44559,44559,3,America/Guayaquil,FALSE,1218475970
"Velasco Ibarra","Velasco Ibarra","Empalme|El Empalme",-1.0439,-79.6383,Ecuador,EC,ECU,Guayas,Guayas,EC-G,province,,329.1,41778,41778,3,America/Guayaquil,FALSE,1218000005
Otavalo,Otavalo,Otovalo,0.2303,-78.2625,Ecuador,EC,ECU,Imbabura,Imbabura,EC-I,province,,746.9,41718,41718,3,America/Guayaquil,FALSE,1218541444
Ventanas,Ventanas,,-1.4500,-79.4700,Ecuador,EC,ECU,"Los Ríos","Los Rios",EC-R,province,,329.1,41531,41531,3,America/Guayaquil,FALSE,1218067203
"La Troncal","La Troncal",,-2.4000,-79.3300,Ecuador,EC,ECU,Cañar,Canar,EC-F,province,,384.5,39600,39600,3,America/Guayaquil,FALSE,1218086252
Naranjal,Naranjal,,-2.6736,-79.6183,Ecuador,EC,ECU,Guayas,Guayas,EC-G,province,,100.3,39323,39323,3,America/Guayaquil,FALSE,1218900978
Azogues,Azogues,Azoguez,-2.7333,-78.8333,Ecuador,EC,ECU,Cañar,Canar,EC-F,province,admin,703.5,35763,35763,2,America/Guayaquil,FALSE,1218651012
"La Concordia","La Concordia",,-0.0067,-79.3958,Ecuador,EC,ECU,Esmeraldas,Esmeraldas,EC-E,province,,167.1,35474,35474,3,America/Guayaquil,FALSE,1218975936
Salinas,Salinas,,-2.2167,-80.9501,Ecuador,EC,ECU,Guayas,Guayas,EC-G,province,,1375.1,35066,35066,3,America/Guayaquil,FALSE,1218838548
Vinces,Vinces,,-1.5500,-79.7333,Ecuador,EC,ECU,"Los Ríos","Los Rios",EC-R,province,,122.6,35064,35064,3,America/Guayaquil,FALSE,1218211679
Naranjito,Naranjito,,-2.1667,-79.4653,Ecuador,EC,ECU,Guayas,Guayas,EC-G,province,,198.8,34664,34664,3,America/Guayaquil,FALSE,1218386613
Puyo,Puyo,"El Puyo",-1.4861,-78.0028,Ecuador,EC,ECU,Pastaza,Pastaza,EC-Y,province,admin,584.7,33325,33325,2,America/Guayaquil,FALSE,1218537461
Balzar,Balzar,,-1.3600,-79.9000,Ecuador,EC,ECU,Guayas,Guayas,EC-G,province,,54.7,32744,32744,3,America/Guayaquil,FALSE,1218257587
"La Maná","La Mana",,-0.9300,-79.2200,Ecuador,EC,ECU,Cotopaxi,Cotopaxi,EC-X,province,,187.3,31740,31740,3,America/Guayaquil,FALSE,1218200586
"Rosa Zarate","Rosa Zarate",Quinindé,0.3300,-79.4800,Ecuador,EC,ECU,Esmeraldas,Esmeraldas,EC-E,province,,62.6,31120,31120,3,America/Guayaquil,FALSE,1218721040
Guaranda,Guaranda,,-1.6000,-79.0000,Ecuador,EC,ECU,Bolívar,Bolivar,EC-B,province,admin,115.9,30755,30755,2,America/Guayaquil,FALSE,1218581593
Tena,Tena,"San Juan de Tena|Napo",-0.9890,-77.8159,Ecuador,EC,ECU,Napo,Napo,EC-N,province,admin,213.5,29724,29724,2,America/Guayaquil,FALSE,1218759537
"San Lorenzo de Esmeraldas","San Lorenzo de Esmeraldas","San Lorenzo|Puerto San Lorenzo",1.2864,-78.8353,Ecuador,EC,ECU,Esmeraldas,Esmeraldas,EC-E,province,,130.8,28491,28491,3,America/Guayaquil,FALSE,1218156660
Jaramijó,Jaramijo,,-0.9487,-80.6363,Ecuador,EC,ECU,Manabí,Manabi,EC-M,province,,221.9,28397,28397,3,America/Guayaquil,FALSE,1218297465
Pedernales,Pedernales,,0.0700,-80.0550,Ecuador,EC,ECU,Manabí,Manabi,EC-M,province,,51.6,27068,27068,3,America/Guayaquil,FALSE,1218670991
Catamayo,Catamayo,"La Toma",-3.9833,-79.3500,Ecuador,EC,ECU,Loja,Loja,EC-L,province,,180.1,27026,27026,3,America/Guayaquil,FALSE,1218400594
Atuntaqui,Atuntaqui,,0.3317,-78.2189,Ecuador,EC,ECU,Imbabura,Imbabura,EC-I,province,,2542.0,25115,25115,2,America/Guayaquil,FALSE,1218840955
"Pedro Carbo","Pedro Carbo",,-1.8179,-80.2330,Ecuador,EC,ECU,Guayas,Guayas,EC-G,province,,73.1,24882,24882,3,America/Guayaquil,FALSE,1218092556
Machachi,Machachi,"Ciudad de Machachi|Machache",-0.5100,-78.5700,Ecuador,EC,ECU,Pichincha,Pichincha,EC-P,province,,75.6,24188,24188,3,America/Guayaquil,FALSE,1218716306
Valencia,Valencia,,-0.9525,-79.3531,Ecuador,EC,ECU,"Los Ríos","Los Rios",EC-R,province,,52.8,22996,22996,3,America/Guayaquil,FALSE,1218923469
"Yaguachi Nuevo","Yaguachi Nuevo",Yaguachi|Yaguachi,-2.1200,-79.6900,Ecuador,EC,ECU,Guayas,Guayas,EC-G,province,,116.6,22972,22972,3,America/Guayaquil,FALSE,1218680506
"Camilo Ponce Enríquez","Camilo Ponce Enriquez",,-3.0500,-79.7333,Ecuador,EC,ECU,Azuay,Azuay,EC-A,province,,106.3,22810,22810,3,America/Guayaquil,FALSE,1218840796
Macas,Macas,,-2.3667,-78.1333,Ecuador,EC,ECU,Morona-Santiago,Morona-Santiago,EC-S,province,admin,429.2,22398,22398,2,America/Guayaquil,FALSE,1218176372
"Bahía de Caráquez","Bahia de Caraquez","Sucre|Bahía|Caracas|Bahia de Caráques",-0.5995,-80.4245,Ecuador,EC,ECU,Manabí,Manabi,EC-M,province,,171.5,22209,22209,3,America/Guayaquil,FALSE,1218764402
Guabo,Guabo,"El Guabo",-3.2388,-79.8292,Ecuador,EC,ECU,"El Oro","El Oro",EC-O,province,,170.1,22172,22172,3,America/Guayaquil,FALSE,1218736994
"Puerto Quito","Puerto Quito",,0.1272,-79.2531,Ecuador,EC,ECU,Pichincha,Pichincha,EC-P,province,,36.0,20445,20445,3,America/Guayaquil,FALSE,1218847413
Calceta,Calceta,Bolívar,-0.8400,-80.1700,Ecuador,EC,ECU,Manabí,Manabi,EC-M,province,,110.7,20011,20011,3,America/Guayaquil,FALSE,1218330963
Atacames,Atacames,Atacmes,0.8667,-79.8333,Ecuador,EC,ECU,Esmeraldas,Esmeraldas,EC-E,province,,207.0,18948,18948,3,America/Guayaquil,FALSE,1218813219
Valle,Valle,,-2.9500,-78.9833,Ecuador,EC,ECU,Azuay,Azuay,EC-A,province,,437.8,18692,18692,3,America/Guayaquil,FALSE,1218202285
Piñas,Pinas,,-3.6806,-79.6806,Ecuador,EC,ECU,"El Oro","El Oro",EC-O,province,,164.6,18482,18482,3,America/Guayaquil,FALSE,1218213967
Zamora,Zamora,,-4.0692,-78.9567,Ecuador,EC,ECU,Zamora-Chinchipe,Zamora-Chinchipe,EC-Z,province,admin,28.8,17584,17584,2,America/Guayaquil,FALSE,1218873167
"San Antonio de Ibarra","San Antonio de Ibarra","San Antonio",0.3627,-78.1307,Ecuador,EC,ECU,Imbabura,Imbabura,EC-I,province,,749.6,17500,17500,3,America/Guayaquil,FALSE,1218584009
"San Miguel de Salcedo","San Miguel de Salcedo","Salcedo|San Miguel",-1.0500,-78.5833,Ecuador,EC,ECU,Cotopaxi,Cotopaxi,EC-X,province,,205.7,16751,16751,3,America/Guayaquil,FALSE,1218435695
"Lomas de Sargentillo","Lomas de Sargentillo",,-1.8833,-80.0833,Ecuador,EC,ECU,Guayas,Guayas,EC-G,province,,331.0,16603,16603,3,America/Guayaquil,FALSE,1218238536
Montalvo,Montalvo,,-1.7900,-79.2875,Ecuador,EC,ECU,"Los Ríos","Los Rios",EC-R,province,,83.4,16248,16248,3,America/Guayaquil,FALSE,1218685895
Pujilí,Pujili,Pajili,-0.9500,-78.6900,Ecuador,EC,ECU,Cotopaxi,Cotopaxi,EC-X,province,,148.1,16152,16152,3,America/Guayaquil,FALSE,1218970258
"San Gabriel","San Gabriel",Montúfar,0.5983,-77.8353,Ecuador,EC,ECU,Carchi,Carchi,EC-C,province,,141.4,14497,14497,3,America/Guayaquil,FALSE,1218199820
Baños,Banos,,-1.3964,-78.4247,Ecuador,EC,ECU,Tungurahua,Tungurahua,EC-T,province,,184.6,14100,14100,3,America/Guayaquil,FALSE,1218100027
Ricaurte,Ricaurte,,-2.8667,-78.9333,Ecuador,EC,ECU,Azuay,Azuay,EC-A,province,,122.6,14006,14006,3,America/Guayaquil,FALSE,1218488658
Yantzaza,Yantzaza,,-3.8500,-78.7500,Ecuador,EC,ECU,Zamora-Chinchipe,Zamora-Chinchipe,EC-Z,province,,55.0,13335,13335,3,America/Guayaquil,FALSE,1218094886
Cariamanga,Cariamanga,Calvas,-4.3200,-79.5600,Ecuador,EC,ECU,Loja,Loja,EC-L,province,,63.4,13175,13175,3,America/Guayaquil,FALSE,1218774934
Baláo,Balao,Balao,-2.9100,-79.8100,Ecuador,EC,ECU,Guayas,Guayas,EC-G,province,,69.7,12850,12850,3,America/Guayaquil,FALSE,1218137948
"Puerto Ayora","Puerto Ayora",,-0.7500,-90.3167,Ecuador,EC,ECU,Galápagos,Galapagos,EC-W,province,,3847.3,12696,12696,2,Pacific/Galapagos,FALSE,1218585265
Sinincay,Sinincay,,-2.8333,-79.0000,Ecuador,EC,ECU,Azuay,Azuay,EC-A,province,,508.0,12650,12650,3,America/Guayaquil,FALSE,1218165430
"Puerto López","Puerto Lopez",López,-1.5589,-80.8106,Ecuador,EC,ECU,Manabí,Manabi,EC-M,province,,63.5,12598,12598,3,America/Guayaquil,FALSE,1218728984
Macará,Macara,,-4.3833,-79.9500,Ecuador,EC,ECU,Loja,Loja,EC-L,province,,47.4,12454,12454,3,America/Guayaquil,FALSE,1218426387
Baños,Banos,,-2.9000,-79.0667,Ecuador,EC,ECU,Azuay,Azuay,EC-A,province,,37.5,12271,12271,3,America/Guayaquil,FALSE,1218450248
Zumbagua,Zumbagua,"Hacienda Zumbagua|Zumbahua",-0.9558,-78.9017,Ecuador,EC,ECU,Cotopaxi,Cotopaxi,EC-X,province,,71.5,11895,11895,3,America/Guayaquil,FALSE,1218423664
Cumandá,Cumanda,Cumando,-2.2058,-79.1339,Ecuador,EC,ECU,Cañar,Canar,EC-F,province,,90.1,11442,11442,3,America/Guayaquil,FALSE,1218168365
Pelileo,Pelileo,,-1.3306,-78.5428,Ecuador,EC,ECU,Tungurahua,Tungurahua,EC-T,province,,495.8,11403,11403,3,America/Guayaquil,FALSE,1218236950
Tosagua,Tosagua,,-0.7800,-80.2600,Ecuador,EC,ECU,Manabí,Manabi,EC-M,province,,137.5,11317,11317,3,America/Guayaquil,FALSE,1218293218
"Santa Cruz","Santa Cruz",,-0.5333,-90.3500,Ecuador,EC,ECU,Galápagos,Galapagos,EC-W,province,,2.3,11262,11262,3,Pacific/Galapagos,FALSE,1218773967
Sucúa,Sucua,,-2.4600,-78.1700,Ecuador,EC,ECU,Morona-Santiago,Morona-Santiago,EC-S,province,,34.5,10846,10846,3,America/Guayaquil,FALSE,1218279880
Rocafuerte,Rocafuerte,,-0.9236,-80.4495,Ecuador,EC,ECU,Manabí,Manabi,EC-M,province,,139.5,10574,10574,3,America/Guayaquil,FALSE,1218553035
Cotacachi,Cotacachi,,0.3000,-78.2667,Ecuador,EC,ECU,Imbabura,Imbabura,EC-I,province,,286.6,10526,10526,3,America/Guayaquil,FALSE,1218941888
Palestina,Palestina,,-1.6263,-79.9770,Ecuador,EC,ECU,Guayas,Guayas,EC-G,province,,100.2,10392,10392,3,America/Guayaquil,TRUE,1218128437
Piedrahita,Piedrahita,Nobol|Novol,-1.9167,-80.0115,Ecuador,EC,ECU,Guayas,Guayas,EC-G,province,,174.5,10010,10010,3,America/Guayaquil,FALSE,1218821300
Zaruma,Zaruma,,-3.6833,-79.6000,Ecuador,EC,ECU,"El Oro","El Oro",EC-O,province,,1072.6,10005,10005,3,America/Guayaquil,FALSE,1218248860
Saquisilí,Saquisili,,-0.8300,-78.6700,Ecuador,EC,ECU,Cotopaxi,Cotopaxi,EC-X,province,,392.5,9883,9883,3,America/Guayaquil,FALSE,1218230817
"San Vicente","San Vicente",,-1.9000,-79.2333,Ecuador,EC,ECU,Bolívar,Bolivar,EC-B,province,,41.4,9819,9819,3,America/Guayaquil,FALSE,1218567919
Píllaro,Pillaro,,-1.1667,-78.5333,Ecuador,EC,ECU,Tungurahua,Tungurahua,EC-T,province,,299.7,9816,9816,3,America/Guayaquil,FALSE,1218633386
Gualaquiza,Gualaquiza,Santiago|Gualiquiza,-3.3800,-78.5800,Ecuador,EC,ECU,Morona-Santiago,Morona-Santiago,EC-S,province,,31.7,9157,9157,4,America/Guayaquil,FALSE,1218241886
Guano,Guano,,-1.5833,-78.6333,Ecuador,EC,ECU,Chimborazo,Chimborazo,EC-H,province,,209.3,9136,9136,3,America/Guayaquil,FALSE,1218631999
"San Miguel","San Miguel","San Miguel de Chimbo",-1.7000,-79.0333,Ecuador,EC,ECU,Bolívar,Bolivar,EC-B,province,,151.7,8806,8806,3,America/Guayaquil,FALSE,1218602565
"Simón Bolívar","Simon Bolivar",,-2.0025,-79.4856,Ecuador,EC,ECU,Guayas,Guayas,EC-G,province,,136.8,8696,8696,3,America/Guayaquil,FALSE,1218861286
"Flavio Alfaro","Flavio Alfaro",Pezcadillo|Pescadillo,-0.4038,-79.9054,Ecuador,EC,ECU,Manabí,Manabi,EC-M,province,,22.0,8312,8312,4,America/Guayaquil,FALSE,1218346681
Catacocha,Catacocha,,-4.0500,-79.6500,Ecuador,EC,ECU,Loja,Loja,EC-L,province,,30.8,7831,7831,4,America/Guayaquil,FALSE,1218131168
"Coronel Marcelino Maridueña","Coronel Marcelino Mariduena","Coronel Maridueña|Maridueña",-2.2000,-79.4200,Ecuador,EC,ECU,Guayas,Guayas,EC-G,province,,56.9,7796,7796,3,America/Guayaquil,FALSE,1218155935
Paján,Pajan,,-1.5700,-80.4200,Ecuador,EC,ECU,Manabí,Manabi,EC-M,province,,93.0,7686,7686,4,America/Guayaquil,FALSE,1218791459
Archidona,Archidona,,-0.9167,-77.7833,Ecuador,EC,ECU,Napo,Napo,EC-N,province,,20.2,7353,7353,3,America/Guayaquil,FALSE,1218000011
"Puerto Baquerizo Moreno","Puerto Baquerizo Moreno","Puerto Baquerizo|Baquerizo Moreno|Puerto Chico",-0.9025,-89.6092,Ecuador,EC,ECU,Galápagos,Galapagos,EC-W,province,admin,1.6,7290,7290,2,Pacific/Galapagos,FALSE,1218093882
Palenque,Palenque,,-1.4367,-79.7558,Ecuador,EC,ECU,"Los Ríos","Los Rios",EC-R,province,,47.2,7258,7258,4,America/Guayaquil,FALSE,1218938362
Catarama,Catarama,Urdaneta,-1.5700,-79.4700,Ecuador,EC,ECU,"Los Ríos","Los Rios",EC-R,province,,76.7,7216,7216,4,America/Guayaquil,FALSE,1218740078
"Pedro Vicente Maldonado","Pedro Vicente Maldonado",,-0.0853,-79.0511,Ecuador,EC,ECU,Pichincha,Pichincha,EC-P,province,,25.8,7162,7162,3,America/Guayaquil,FALSE,1218943732
Echeandía,Echeandia,,-1.4333,-79.2667,Ecuador,EC,ECU,Bolívar,Bolivar,EC-B,province,,57.1,7138,7138,4,America/Guayaquil,FALSE,1218503510
Chordeleg,Chordeleg,,-2.9333,-78.7667,Ecuador,EC,ECU,Azuay,Azuay,EC-A,province,,416.9,6787,6787,3,America/Guayaquil,FALSE,1218578102
Baba,Baba,,-1.7843,-79.6785,Ecuador,EC,ECU,"Los Ríos","Los Rios",EC-R,province,,138.5,6746,6746,4,America/Guayaquil,FALSE,1218403613
Turi,Turi,,-2.9500,-78.9833,Ecuador,EC,ECU,Azuay,Azuay,EC-A,province,,255.4,6692,6692,3,America/Guayaquil,FALSE,1218033609
Sucre,Sucre,,-1.2600,-80.4400,Ecuador,EC,ECU,Manabí,Manabi,EC-M,province,,79.6,6607,6607,4,America/Guayaquil,FALSE,1218621750
Chucchilán,Chucchilan,Chugchilán,-0.8000,-78.9167,Ecuador,EC,ECU,Cotopaxi,Cotopaxi,EC-X,province,,38.3,6350,6350,4,America/Guayaquil,FALSE,1218065253
Jama,Jama,,-0.2031,-80.2631,Ecuador,EC,ECU,Manabí,Manabi,EC-M,province,,47.1,6090,6090,4,America/Guayaquil,FALSE,1218470046
Alausí,Alausi,,-2.1900,-78.8500,Ecuador,EC,ECU,Chimborazo,Chimborazo,EC-H,province,,214.4,6071,6071,3,America/Guayaquil,FALSE,1218578121
"Baquerizo Moreno","Baquerizo Moreno","Juján|Alfredo Baquerizo Moreno",-1.9167,-79.5167,Ecuador,EC,ECU,Guayas,Guayas,EC-G,province,,150.5,6035,6035,4,America/Guayaquil,FALSE,1218304584
Alamor,Alamor,,-4.0333,-80.0333,Ecuador,EC,ECU,Loja,Loja,EC-L,province,,38.8,5981,5981,3,America/Guayaquil,FALSE,1218405628
Pimampiro,Pimampiro,Pimanpiro,0.3908,-77.9392,Ecuador,EC,ECU,Imbabura,Imbabura,EC-I,province,,115.8,5848,5848,4,America/Guayaquil,FALSE,1218314407
Palora,Palora,Metzera,-1.7000,-77.9400,Ecuador,EC,ECU,Morona-Santiago,Morona-Santiago,EC-S,province,,41.8,5748,5748,4,America/Guayaquil,FALSE,1218335226
Logroño,Logrono,,-2.6248,-78.1896,Ecuador,EC,ECU,Morona-Santiago,Morona-Santiago,EC-S,province,,5.5,5723,5723,3,America/Guayaquil,FALSE,1218326682
Quingeo,Quingeo,Quinjeo|Quingueo,-3.0167,-78.9167,Ecuador,EC,ECU,Azuay,Azuay,EC-A,province,,49.4,5646,5646,4,America/Guayaquil,FALSE,1218256094
Muisne,Muisne,,0.6108,-80.0186,Ecuador,EC,ECU,Esmeraldas,Esmeraldas,EC-E,province,,67.2,5574,5574,4,America/Guayaquil,FALSE,1218271569
Chambo,Chambo,,-1.7333,-78.5833,Ecuador,EC,ECU,Chimborazo,Chimborazo,EC-H,province,,82.9,5462,5462,4,America/Guayaquil,FALSE,1218594350
"El Pangui","El Pangui",Pangui,-3.6255,-78.5854,Ecuador,EC,ECU,Zamora-Chinchipe,Zamora-Chinchipe,EC-Z,province,,38.9,5340,5340,4,America/Guayaquil,FALSE,1218332584
Paccha,Paccha,,-2.9000,-78.9333,Ecuador,EC,ECU,Azuay,Azuay,EC-A,province,,207.5,5311,5311,3,America/Guayaquil,FALSE,1218785048
Molleturo,Molleturo,,-2.7500,-79.4333,Ecuador,EC,ECU,Azuay,Azuay,EC-A,province,,6.1,5221,5221,4,America/Guayaquil,FALSE,1218504855
"El Ángel","El Angel",Espejo,0.6208,-77.9397,Ecuador,EC,ECU,Carchi,Carchi,EC-C,province,,62.5,5181,5181,4,America/Guayaquil,FALSE,1218304087
Cumbe,Cumbe,,-3.0833,-79.0167,Ecuador,EC,ECU,Azuay,Azuay,EC-A,province,,70.2,5010,5010,4,America/Guayaquil,FALSE,1218524265
Valdez,Valdez,Valdés|Limones,1.2500,-79.0000,Ecuador,EC,ECU,Esmeraldas,Esmeraldas,EC-E,province,,89.0,4956,4956,4,America/Guayaquil,FALSE,1218064465
"Santa Ana","Santa Ana",,-2.9361,-78.9200,Ecuador,EC,ECU,Azuay,Azuay,EC-A,province,,104.4,4739,4739,4,America/Guayaquil,FALSE,1218683807
"Victoria del Portete","Victoria del Portete",Victoria,-3.0500,-79.0500,Ecuador,EC,ECU,Azuay,Azuay,EC-A,province,,22.4,4617,4617,4,America/Guayaquil,FALSE,1218535851
Nulti,Nulti,,-2.9167,-78.8500,Ecuador,EC,ECU,Azuay,Azuay,EC-A,province,,146.6,4589,4589,4,America/Guayaquil,FALSE,1218660804
Llacao,Llacao,,-2.8378,-78.9423,Ecuador,EC,ECU,Azuay,Azuay,EC-A,province,,376.2,4501,4501,3,America/Guayaquil,FALSE,1218665382
Llacao,Llacao,,-2.8667,-78.8833,Ecuador,EC,ECU,Azuay,Azuay,EC-A,province,,258.7,4501,4501,3,America/Guayaquil,TRUE,1218761118
Balsas,Balsas,Balzas,-3.7833,-79.8167,Ecuador,EC,ECU,"El Oro","El Oro",EC-O,province,,115.9,4500,4500,4,America/Guayaquil,FALSE,1218861043
Celica,Celica,,-4.1025,-79.9544,Ecuador,EC,ECU,Loja,Loja,EC-L,province,,34.0,4486,4486,4,America/Guayaquil,FALSE,1218525317
Pichincha,Pichincha,"Solano|Boca Solano",-1.0473,-79.8186,Ecuador,EC,ECU,Manabí,Manabi,EC-M,province,,42.8,4406,4406,4,America/Guayaquil,FALSE,1218569077
Girón,Giron,Jiron,-3.1590,-79.1476,Ecuador,EC,ECU,Azuay,Azuay,EC-A,province,,35.3,4353,4353,4,America/Guayaquil,FALSE,1218270499
Junín,Junin,,-0.9278,-80.2058,Ecuador,EC,ECU,Manabí,Manabi,EC-M,province,,89.7,4320,4320,4,America/Guayaquil,FALSE,1218442125
Pallatanga,Pallatanga,,-1.9833,-78.9500,Ecuador,EC,ECU,Chimborazo,Chimborazo,EC-H,province,,34.8,4266,4266,4,America/Guayaquil,FALSE,1218958340
Chiquintad,Chiquintad,,-2.8167,-79.0000,Ecuador,EC,ECU,Azuay,Azuay,EC-A,province,,44.2,4073,4073,4,America/Guayaquil,FALSE,1218375217
"El Chaco","El Chaco",Chaco,-0.3403,-77.8089,Ecuador,EC,ECU,Napo,Napo,EC-N,province,,112.8,4026,4026,3,America/Guayaquil,FALSE,1218496873
"Río Verde","Rio Verde",Rioverde,1.0603,-79.4100,Ecuador,EC,ECU,Esmeraldas,Esmeraldas,EC-E,province,,86.4,4010,4010,4,America/Guayaquil,FALSE,1218025889
Chunchi,Chunchi,Chinchi,-2.2833,-78.9167,Ecuador,EC,ECU,Chimborazo,Chimborazo,EC-H,province,,70.7,3799,3799,4,America/Guayaquil,FALSE,1218190057
Cevallos,Cevallos,,-1.3500,-78.6167,Ecuador,EC,ECU,Tungurahua,Tungurahua,EC-T,province,,501.5,3754,3754,3,America/Guayaquil,FALSE,1218401545
Zapotillo,Zapotillo,,-4.3864,-80.2436,Ecuador,EC,ECU,Loja,Loja,EC-L,province,,22.0,3599,3599,4,America/Guayaquil,FALSE,1218110102
Sidcay,Sidcay,,-2.8333,-78.9500,Ecuador,EC,ECU,Azuay,Azuay,EC-A,province,,202.3,3439,3439,3,America/Guayaquil,FALSE,1218705742
Chillanes,Chillanes,,-1.9333,-79.0667,Ecuador,EC,ECU,Bolívar,Bolivar,EC-B,province,,34.1,3251,3251,4,America/Guayaquil,FALSE,1218780446
Guamote,Guamote,,-1.9333,-78.7167,Ecuador,EC,ECU,Chimborazo,Chimborazo,EC-H,province,,71.7,3076,3076,4,America/Guayaquil,FALSE,1218121499
Sigchos,Sigchos,,-0.7000,-78.8833,Ecuador,EC,ECU,Cotopaxi,Cotopaxi,EC-X,province,,12.1,2816,2816,4,America/Guayaquil,FALSE,1218187424
Cajabamba,Cajabamba,Sicalpa|Colta,-1.7000,-78.7500,Ecuador,EC,ECU,Chimborazo,Chimborazo,EC-H,province,,110.2,2785,2785,4,America/Guayaquil,FALSE,1218905537
Checa,Checa,Jidcay|Sdcay,-2.7833,-79.0000,Ecuador,EC,ECU,Azuay,Azuay,EC-A,province,,41.8,2698,2698,4,America/Guayaquil,FALSE,1218270316
Patate,Patate,,-1.3167,-78.5167,Ecuador,EC,ECU,Tungurahua,Tungurahua,EC-T,province,,123.7,2514,2514,4,America/Guayaquil,FALSE,1218528663
"Octavio Cordero","Octavio Cordero","O. Cordero Palacios|Cordero Palacios|Palacios|Octavio Cordero Palacios",-2.8000,-78.9667,Ecuador,EC,ECU,Azuay,Azuay,EC-A,province,,111.3,2271,2271,4,America/Guayaquil,FALSE,1218829635
"Puerto Villamil","Puerto Villamil",Villamil,-0.9568,-90.9672,Ecuador,EC,ECU,Galápagos,Galapagos,EC-W,province,,676.6,2200,2200,3,Pacific/Galapagos,FALSE,1218383536
"Puerto El Carmen de Putumayo","Puerto El Carmen de Putumayo","El Carmen de Putumayo|Puerto Carmen de Putumayo|Palomares|Putumayo",0.1000,-75.8500,Ecuador,EC,ECU,Sucumbíos,Sucumbios,EC-U,province,,3.8,2012,2012,4,America/Guayaquil,FALSE,1218128239
Gonzanamá,Gonzanama,,-4.2314,-79.4353,Ecuador,EC,ECU,Loja,Loja,EC-L,province,,38.6,1973,1973,4,America/Guayaquil,FALSE,1218884669
"El Corazón","El Corazon","Carazón|Corazon|El Carozón|Pangua",-1.1333,-79.0667,Ecuador,EC,ECU,Cotopaxi,Cotopaxi,EC-X,province,,48.3,1872,1872,4,America/Guayaquil,FALSE,1218712603
Tarapoa,Tarapoa,,-0.1333,-76.4167,Ecuador,EC,ECU,Sucumbíos,Sucumbios,EC-U,province,,6.6,1728,1728,4,America/Guayaquil,FALSE,1218240485
Chaucha,Chaucha,,-2.9000,-79.4000,Ecuador,EC,ECU,Azuay,Azuay,EC-A,province,,4.8,1633,1633,4,America/Guayaquil,FALSE,1218416397
"La Unión","La Union",,-2.8500,-78.7833,Ecuador,EC,ECU,Azuay,Azuay,EC-A,province,,115.0,1622,1622,4,America/Guayaquil,FALSE,1218188683
Tisaleo,Tisaleo,,-1.3500,-78.6667,Ecuador,EC,ECU,Tungurahua,Tungurahua,EC-T,province,,1229.1,1561,1561,3,America/Guayaquil,FALSE,1218918773
"El Cisne","El Cisne",Cisne,-3.8512,-79.4253,Ecuador,EC,ECU,Loja,Loja,EC-L,province,,16.9,1532,1532,4,America/Guayaquil,FALSE,1218325385
Chaguarpamba,Chaguarpamba,Chahuarbamba,-3.8500,-79.6500,Ecuador,EC,ECU,Loja,Loja,EC-L,province,,39.3,1342,1342,4,America/Guayaquil,FALSE,1218676533
"Carlos Julio Arosemena Tola","Carlos Julio Arosemena Tola","Arosemena|C.J. Arosemena Tola|Carlos J. Arosemena Tola|Arosemena Tola",-1.1667,-77.8500,Ecuador,EC,ECU,Napo,Napo,EC-N,province,,12.0,1273,1273,4,America/Guayaquil,FALSE,1218361114
"Las Naves","Las Naves",,-1.2833,-79.3000,Ecuador,EC,ECU,Bolívar,Bolivar,EC-B,province,,44.5,1191,1191,3,America/Guayaquil,FALSE,1218776534
Montañita,Montanita,,-1.8333,-80.7500,Ecuador,EC,ECU,Guayas,Guayas,EC-G,province,,91.6,1000,1000,4,America/Guayaquil,FALSE,1218918188
Mera,Mera,,-1.3708,-78.0194,Ecuador,EC,ECU,Pastaza,Pastaza,EC-Y,province,,5.5,768,768,3,America/Guayaquil,FALSE,1218906204
"Nuevo Rocafuerte","Nuevo Rocafuerte","San Pedro de Aguarico|Rocafuerte",-0.9333,-75.4000,Ecuador,EC,ECU,Orellana,Orellana,EC-D,province,,1.0,657,657,4,America/Guayaquil,FALSE,1218053010
Ayampe,Ayampe,Ayambe,-1.6778,-80.8125,Ecuador,EC,ECU,Manabí,Manabi,EC-M,province,,59.6,400,400,4,America/Guayaquil,FALSE,1218694615
Yaupi,Yaupi,,-2.8379,-77.9357,Ecuador,EC,ECU,Morona-Santiago,Morona-Santiago,EC-S,province,,2.7,293,293,4,America/Guayaquil,FALSE,1218516951
Borrero,Borrero,Charasol,-2.7724,-78.8478,Ecuador,EC,ECU,Cañar,Canar,EC-F,province,,703.5,,,3,America/Guayaquil,FALSE,1218216900
Cochaloma,Cochaloma,,-0.3781,-78.3355,Ecuador,EC,ECU,Pichincha,Pichincha,EC-P,province,,45.7,,,4,America/Guayaquil,FALSE,1218584523
"La Estada","La Estada",Estacada,-2.0000,-79.9667,Ecuador,EC,ECU,Guayas,Guayas,EC-G,province,,1303.4,,,3,America/Guayaquil,FALSE,1218012904
Chuqui,Chuqui,Chuquir|Chúquer,-3.1882,-79.4433,Ecuador,EC,ECU,Azuay,Azuay,EC-A,province,,19.1,,,4,America/Guayaquil,FALSE,1218251034
"Pachinche Afuera","Pachinche Afuera",Pachinche,-1.1402,-80.3648,Ecuador,EC,ECU,Manabí,Manabi,EC-M,province,,621.7,,,3,America/Guayaquil,FALSE,1218335503
Pillangal,Pillangal,,-3.6000,-79.2667,Ecuador,EC,ECU,Loja,Loja,EC-L,province,,26.1,,,4,America/Guayaquil,FALSE,1218485146
"Hacienda Carrillo","Hacienda Carrillo",Carrillo,-1.0833,-78.6667,Ecuador,EC,ECU,Cotopaxi,Cotopaxi,EC-X,province,,44.4,,,4,America/Guayaquil,FALSE,1218159078
Zuro,Zuro,,-4.3667,-79.6667,Ecuador,EC,ECU,Loja,Loja,EC-L,province,,12.3,,,4,America/Guayaquil,FALSE,1218189393
Acacia,Acacia,"Hacienda Las Acacias",-2.2137,-79.8714,Ecuador,EC,ECU,Guayas,Guayas,EC-G,province,,955.9,,,3,America/Guayaquil,FALSE,1218113193
Sequita,Sequita,,-1.0264,-80.5835,Ecuador,EC,ECU,Manabí,Manabi,EC-M,province,,121.3,,,4,America/Guayaquil,FALSE,1218003202
Buijo,Buijo,Butjo,-2.1000,-79.8167,Ecuador,EC,ECU,Guayas,Guayas,EC-G,province,,680.1,,,3,America/Guayaquil,FALSE,1218063845
"Corral del Señor","Corral del Senor",,-4.1500,-79.9833,Ecuador,EC,ECU,Loja,Loja,EC-L,province,,34.0,,,4,America/Guayaquil,FALSE,1218846623
"Hacienda Alor","Hacienda Alor",Alor,0.4543,-77.9080,Ecuador,EC,ECU,Carchi,Carchi,EC-C,province,,56.0,,,4,America/Guayaquil,FALSE,1218041711
"Hacienda Palestina","Hacienda Palestina",Palestina,-1.9371,-79.7140,Ecuador,EC,ECU,Guayas,Guayas,EC-G,province,,137.9,,,4,America/Guayaquil,FALSE,1218464137
Zhurunit,Zhurunit,,-3.3000,-79.3500,Ecuador,EC,ECU,Azuay,Azuay,EC-A,province,,48.9,,,4,America/Guayaquil,FALSE,1218061514
Pocaguso,Pocaguso,,-2.7899,-78.6514,Ecuador,EC,ECU,Azuay,Azuay,EC-A,province,,42.6,,,4,America/Guayaquil,FALSE,1218893235
"Rancho Chico","Rancho Chico",,-2.2000,-79.9500,Ecuador,EC,ECU,Guayas,Guayas,EC-G,province,,1303.4,,,3,America/Guayaquil,FALSE,1218496148
"Hacienda Chiñolo","Hacienda Chinolo",Chiñolo,-0.7667,-78.9000,Ecuador,EC,ECU,Cotopaxi,Cotopaxi,EC-X,province,,43.3,,,4,America/Guayaquil,FALSE,1218636207
"Rancho Chico","Rancho Chico",,-3.6833,-80.2000,Ecuador,EC,ECU,"El Oro","El Oro",EC-O,province,,8.8,,,5,America/Lima,FALSE,1218811799
"Hacienda El Troje","Hacienda El Troje","El Troje",-0.3333,-78.5167,Ecuador,EC,ECU,Pichincha,Pichincha,EC-P,province,,5428.5,,,2,America/Guayaquil,FALSE,1218379956
Porotoyacu,Porotoyacu,,-0.8853,-77.7604,Ecuador,EC,ECU,Napo,Napo,EC-N,province,,53.0,,,4,America/Guayaquil,FALSE,1218333806
"Hacienda El Troje","Hacienda El Troje","El Troje",0.2833,-78.1000,Ecuador,EC,ECU,Imbabura,Imbabura,EC-I,province,,236.3,,,3,America/Guayaquil,FALSE,1218228470
Paredones,Paredones,,-3.4890,-79.1487,Ecuador,EC,ECU,Azuay,Azuay,EC-A,province,,13.0,,,4,America/Guayaquil,FALSE,1218089203
"Santa Martha","Santa Martha",,-0.6108,-79.5310,Ecuador,EC,ECU,Manabí,Manabi,EC-M,province,,56.4,,,4,America/Guayaquil,FALSE,1218355484
Pichic,Pichic,Pichect,-3.7055,-79.2642,Ecuador,EC,ECU,Loja,Loja,EC-L,province,,32.9,,,4,America/Guayaquil,FALSE,1218556891
Quillualpa,Quillualpa,,-2.9667,-78.8333,Ecuador,EC,ECU,Azuay,Azuay,EC-A,province,,184.0,,,4,America/Guayaquil,FALSE,1218259274
Atahualpa,Atahualpa,"Engabao de Chanduy|Engabao",-2.3128,-80.7732,Ecuador,EC,ECU,Guayas,Guayas,EC-G,province,,60.0,,,4,America/Guayaquil,FALSE,1218684201
"Cerco Pata","Cerco Pata",,-2.4833,-79.1333,Ecuador,EC,ECU,Cañar,Canar,EC-F,province,,52.0,,,4,America/Guayaquil,FALSE,1218119533
Ana,Ana,,-2.0667,-79.9167,Ecuador,EC,ECU,Guayas,Guayas,EC-G,province,,1303.4,,,3,America/Guayaquil,FALSE,1218542087
"Francisco Aro","Francisco Aro",,-1.8000,-79.8833,Ecuador,EC,ECU,Guayas,Guayas,EC-G,province,,188.5,,,4,America/Guayaquil,FALSE,1218893336
Aguayacu,Aguayacu,,-0.8977,-77.7758,Ecuador,EC,ECU,Napo,Napo,EC-N,province,,53.0,,,4,America/Guayaquil,FALSE,1218515437
"San Isidro de Cajas","San Isidro de Cajas",,0.1245,-78.1738,Ecuador,EC,ECU,Pichincha,Pichincha,EC-P,province,,166.2,,,4,America/Guayaquil,FALSE,1218067213
"Hacienda Choyata","Hacienda Choyata",Choyata,-1.2413,-78.4952,Ecuador,EC,ECU,Tungurahua,Tungurahua,EC-T,province,,74.4,,,4,America/Guayaquil,FALSE,1218798734
"Los Laureles","Los Laureles",,0.1414,-78.9674,Ecuador,EC,ECU,Pichincha,Pichincha,EC-P,province,,25.8,,,4,America/Guayaquil,FALSE,1218663248
"Los Laureles","Los Laureles",,-0.8803,-79.3770,Ecuador,EC,ECU,"Los Ríos","Los Rios",EC-R,province,,52.8,,,4,America/Guayaquil,FALSE,1218963970
Delia,Delia,,-2.2109,-79.8104,Ecuador,EC,ECU,Guayas,Guayas,EC-G,province,,955.9,,,3,America/Guayaquil,FALSE,1218150716
Capzol,Capzol,Capsol,-2.3029,-78.9246,Ecuador,EC,ECU,Chimborazo,Chimborazo,EC-H,province,,40.0,,,4,America/Guayaquil,FALSE,1218478036
"Flor de Mongolia","Flor de Mongolia",,-0.1476,-79.6210,Ecuador,EC,ECU,Manabí,Manabi,EC-M,province,,41.3,,,4,America/Guayaquil,FALSE,1218525078
Paparado,Paparado,Reparado,-1.2667,-76.4000,Ecuador,EC,ECU,Orellana,Orellana,EC-D,province,,0.5,,,5,America/Guayaquil,FALSE,1218169724
"El Cauchal","El Cauchal",,1.4058,-78.8847,Ecuador,EC,ECU,Esmeraldas,Esmeraldas,EC-E,province,,51.8,,,4,America/Guayaquil,FALSE,1218340563
"La Rota","La Rota",,-4.1369,-80.1159,Ecuador,EC,ECU,Loja,Loja,EC-L,province,,44.6,,,4,America/Guayaquil,FALSE,1218092489
Ranchería,Rancheria,"Río Camumbí",1.1333,-78.5000,Ecuador,EC,ECU,Carchi,Carchi,EC-C,province,,1.7,,,5,America/Guayaquil,FALSE,1218996918
Ajospamba,Ajospamba,,-1.8223,-78.8711,Ecuador,EC,ECU,Chimborazo,Chimborazo,EC-H,province,,16.9,,,4,America/Guayaquil,FALSE,1218000053
"Hacienda Nápoles","Hacienda Napoles",Nápoles,-0.1500,-78.3667,Ecuador,EC,ECU,Pichincha,Pichincha,EC-P,province,,534.2,,,3,America/Guayaquil,FALSE,1218749280
"Hacienda Nápoles","Hacienda Napoles",Nápoles,0.0500,-78.1333,Ecuador,EC,ECU,Pichincha,Pichincha,EC-P,province,,166.2,,,4,America/Guayaquil,TRUE,1218793640
"Hacienda Siria","Hacienda Siria",Sivia|Siria,-0.2667,-78.4500,Ecuador,EC,ECU,Pichincha,Pichincha,EC-P,province,,1012.5,,,3,America/Guayaquil,FALSE,1218759311
"Tambo Unión","Tambo Union",,-1.5333,-77.9500,Ecuador,EC,ECU,Pastaza,Pastaza,EC-Y,province,,14.5,,,4,America/Guayaquil,FALSE,1218520494
"Puerto Nancy","Puerto Nancy",,-2.1833,-80.8500,Ecuador,EC,ECU,Guayas,Guayas,EC-G,province,,131.0,,,4,America/Guayaquil,FALSE,1218822683
"Hacienda Huacas","Hacienda Huacas",Huacas,0.6333,-77.7667,Ecuador,EC,ECU,Carchi,Carchi,EC-C,province,,44.8,,,4,America/Guayaquil,FALSE,1218000010
Maquifucuna,Maquifucuna,,0.0667,-78.6167,Ecuador,EC,ECU,Pichincha,Pichincha,EC-P,province,,13.4,,,4,America/Guayaquil,FALSE,1218916421
Algarrobal,Algarrobal,,-3.0167,-80.1500,Ecuador,EC,ECU,Guayas,Guayas,EC-G,province,,10.4,,,4,America/Guayaquil,FALSE,1218187037
Pillin,Pillin,,-2.9331,-78.9179,Ecuador,EC,ECU,Azuay,Azuay,EC-A,province,,150.0,,,4,America/Guayaquil,FALSE,1218197344
Jabilla,Jabilla,,-1.5667,-79.4000,Ecuador,EC,ECU,"Los Ríos","Los Rios",EC-R,province,,76.7,,,4,America/Guayaquil,FALSE,1218540564
Cerritos,Cerritos,,-2.2500,-79.7000,Ecuador,EC,ECU,Guayas,Guayas,EC-G,province,,955.9,,,3,America/Guayaquil,FALSE,1218447788
"San José del Tigre","San Jose del Tigre",,-0.1336,-79.6879,Ecuador,EC,ECU,Manabí,Manabi,EC-M,province,,12.6,,,4,America/Guayaquil,FALSE,1218093355
"Hacienda Achiral","Hacienda Achiral","Achiral|Hacienda La Chiral",-4.4000,-79.8000,Ecuador,EC,ECU,Loja,Loja,EC-L,province,,18.3,,,4,America/Guayaquil,FALSE,1218308945
Habas,Habas,,-2.9307,-79.3732,Ecuador,EC,ECU,Azuay,Azuay,EC-A,province,,5.0,,,5,America/Guayaquil,FALSE,1218240337
"La Sandía","La Sandia",,-0.3116,-79.6765,Ecuador,EC,ECU,Manabí,Manabi,EC-M,province,,18.4,,,4,America/Guayaquil,FALSE,1218007071
Lumbisí,Lumbisi,,-0.2307,-78.4484,Ecuador,EC,ECU,Pichincha,Pichincha,EC-P,province,,1876.8,,,3,America/Guayaquil,FALSE,1218295505
Gloria,Gloria,,-1.8833,-79.8000,Ecuador,EC,ECU,Guayas,Guayas,EC-G,province,,276.8,,,3,America/Guayaquil,FALSE,1218223777
Gloria,Gloria,"Hacienda Gloria",-2.2525,-79.5856,Ecuador,EC,ECU,Guayas,Guayas,EC-G,province,,130.9,,,4,America/Guayaquil,TRUE,1218476493
"El Sauco","El Sauco",,-4.2833,-80.0500,Ecuador,EC,ECU,Loja,Loja,EC-L,province,,47.4,,,4,America/Guayaquil,FALSE,1218958525
Gloria,Gloria,,0.9167,-79.4000,Ecuador,EC,ECU,Esmeraldas,Esmeraldas,EC-E,province,,18.8,,,4,America/Guayaquil,FALSE,1218716362
Choaló,Choalo,,-0.6965,-79.0316,Ecuador,EC,ECU,Cotopaxi,Cotopaxi,EC-X,province,,13.5,,,4,America/Guayaquil,FALSE,1218575276
Piñanguso,Pinanguso,,-2.4333,-78.9667,Ecuador,EC,ECU,Cañar,Canar,EC-F,province,,30.0,,,4,America/Guayaquil,FALSE,1218494919
Lelia,Lelia,,-0.3108,-79.0308,Ecuador,EC,ECU,Pichincha,Pichincha,EC-P,province,,19.2,,,4,America/Guayaquil,FALSE,1218560359
"Tzunantza Bajo","Tzunantza Bajo",,-4.0482,-78.9208,Ecuador,EC,ECU,Zamora-Chinchipe,Zamora-Chinchipe,EC-Z,province,,29.9,,,4,America/Guayaquil,FALSE,1218682785
Rumicorral,Rumicorral,,-3.5233,-79.4797,Ecuador,EC,ECU,Loja,Loja,EC-L,province,,17.9,,,4,America/Guayaquil,FALSE,1218000738
"El Tránsito","El Transito",,-0.3042,-78.8602,Ecuador,EC,ECU,"Santo Domingo de los Tsáchilas","Santo Domingo de los Tsachilas",EC-SD,province,,19.2,,,4,America/Guayaquil,FALSE,1218699998
"Lligua Alto","Lligua Alto",,-1.3667,-78.3833,Ecuador,EC,ECU,Tungurahua,Tungurahua,EC-T,province,,33.2,,,4,America/Guayaquil,FALSE,1218812317
"Hacienda Santiago de Monjas","Hacienda Santiago de Monjas","Santiago de Monjas",0.3894,-78.1611,Ecuador,EC,ECU,Imbabura,Imbabura,EC-I,province,,125.0,,,4,America/Guayaquil,FALSE,1218369714
"Ortega Bajo","Ortega Bajo",,-3.5346,-78.9114,Ecuador,EC,ECU,Zamora-Chinchipe,Zamora-Chinchipe,EC-Z,province,,4.9,,,5,America/Guayaquil,FALSE,1218934097
España,Espana,,-1.8667,-79.7667,Ecuador,EC,ECU,Guayas,Guayas,EC-G,province,,106.8,,,4,America/Guayaquil,FALSE,1218684595
"La Esmeraldita","La Esmeraldita",,-3.3167,-79.7167,Ecuador,EC,ECU,"El Oro","El Oro",EC-O,province,,45.4,,,4,America/Guayaquil,FALSE,1218685554
"Hacienda Cuatis Acosta","Hacienda Cuatis Acosta","Hacienda Cuatis de Acosta|Cuatis Acosta",0.6333,-77.7167,Ecuador,EC,ECU,Carchi,Carchi,EC-C,province,,182.8,,,4,America/Guayaquil,FALSE,1218055850
"La Auxiliadora","La Auxiliadora",,-1.9000,-79.9500,Ecuador,EC,ECU,Guayas,Guayas,EC-G,province,,575.0,,,3,America/Guayaquil,FALSE,1218462581
"Pirca Guayco","Pirca Guayco",,-3.1000,-79.0167,Ecuador,EC,ECU,Azuay,Azuay,EC-A,province,,94.8,,,4,America/Guayaquil,FALSE,1218847326
Chillogallo,Chillogallo,,-0.2754,-78.5558,Ecuador,EC,ECU,Pichincha,Pichincha,EC-P,province,,5428.5,,,2,America/Guayaquil,FALSE,1218579555
Guelemón,Guelemon,,-3.6333,-79.2500,Ecuador,EC,ECU,Loja,Loja,EC-L,province,,136.3,,,4,America/Guayaquil,FALSE,1218002205
Infante,Infante,,-1.5000,-79.7000,Ecuador,EC,ECU,"Los Ríos","Los Rios",EC-R,province,,122.6,,,4,America/Guayaquil,FALSE,1218303860
"Trigo Pamba","Trigo Pamba",,-3.2667,-79.2167,Ecuador,EC,ECU,Azuay,Azuay,EC-A,province,,63.1,,,4,America/Guayaquil,FALSE,1218507283
Lucarqui,Lucarqui,Lucarque,-4.1264,-79.8352,Ecuador,EC,ECU,Loja,Loja,EC-L,province,,10.9,,,4,America/Guayaquil,FALSE,1218188030
Puñapi,Punapi,,-1.3874,-78.4759,Ecuador,EC,ECU,Tungurahua,Tungurahua,EC-T,province,,249.8,,,3,America/Guayaquil,FALSE,1218111266
"Hacienda Zaldumbide","Hacienda Zaldumbide",Zaldumbide,-0.1000,-78.4833,Ecuador,EC,ECU,Pichincha,Pichincha,EC-P,province,,5428.5,,,2,America/Guayaquil,FALSE,1218334861
"Hacienda Zaldumbide","Hacienda Zaldumbide",Zaldumbide,-0.2833,-78.5667,Ecuador,EC,ECU,Pichincha,Pichincha,EC-P,province,,5428.5,,,2,America/Guayaquil,TRUE,1218730781
"La Independencia","La Independencia",,-0.3408,-79.3716,Ecuador,EC,ECU,"Santo Domingo de los Tsáchilas","Santo Domingo de los Tsachilas",EC-SD,province,,53.7,,,4,America/Guayaquil,FALSE,1218237170
"Hacienda San Ricardo","Hacienda San Ricardo","San Ricardo",0.3667,-78.1833,Ecuador,EC,ECU,Imbabura,Imbabura,EC-I,province,,268.4,,,3,America/Guayaquil,FALSE,1218135257
Vicin,Vicin,,-4.2585,-80.0911,Ecuador,EC,ECU,Loja,Loja,EC-L,province,,28.9,,,4,America/Guayaquil,FALSE,1218597219
"El Caucho","El Caucho",,0.3132,-79.6244,Ecuador,EC,ECU,Esmeraldas,Esmeraldas,EC-E,province,,62.6,,,4,America/Guayaquil,FALSE,1218740259
"Volcán Grande","Volcan Grande",,-2.1667,-80.6000,Ecuador,EC,ECU,Guayas,Guayas,EC-G,province,,36.4,,,4,America/Guayaquil,FALSE,1218805977
"Ciénaga de Afuera","Cienaga de Afuera","Cienega de Afuera",-2.3333,-80.3667,Ecuador,EC,ECU,Guayas,Guayas,EC-G,province,,28.4,,,4,America/Guayaquil,FALSE,1218874661
"Villa de Dios","Villa de Dios",,-1.8000,-80.0167,Ecuador,EC,ECU,Guayas,Guayas,EC-G,province,,220.3,,,3,America/Guayaquil,FALSE,1218451430
"Hacienda Curipungu","Hacienda Curipungu",Curipungu,-0.3833,-78.4333,Ecuador,EC,ECU,Pichincha,Pichincha,EC-P,province,,1765.0,,,3,America/Guayaquil,FALSE,1218483493
Zarumaurcu,Zarumaurcu,Zarumaurco,-3.6667,-79.6500,Ecuador,EC,ECU,"El Oro","El Oro",EC-O,province,,164.6,,,4,America/Guayaquil,FALSE,1218563372
"Hacienda Digna","Hacienda Digna",Digna,-1.4667,-79.9333,Ecuador,EC,ECU,Guayas,Guayas,EC-G,province,,54.7,,,4,America/Guayaquil,FALSE,1218924231
"Quebrada La Merced","Quebrada La Merced",,0.0667,-78.4000,Ecuador,EC,ECU,Pichincha,Pichincha,EC-P,province,,96.7,,,4,America/Guayaquil,FALSE,1218942320
"San Buenaventura","San Buenaventura",,-0.8945,-78.6110,Ecuador,EC,ECU,Cotopaxi,Cotopaxi,EC-X,province,,440.5,,,3,America/Guayaquil,FALSE,1218337293
"Hacienda Rosaschupa","Hacienda Rosaschupa",Rosaschupa,-0.4000,-78.3833,Ecuador,EC,ECU,Pichincha,Pichincha,EC-P,province,,45.7,,,4,America/Guayaquil,FALSE,1218977546
"Hacienda Bramaderos","Hacienda Bramaderos",Bramaderos,-4.0790,-79.8232,Ecuador,EC,ECU,Loja,Loja,EC-L,province,,10.4,,,4,America/Guayaquil,FALSE,1218151762
"La Misión","La Mision",,-3.8446,-78.8919,Ecuador,EC,ECU,Zamora-Chinchipe,Zamora-Chinchipe,EC-Z,province,,14.1,,,4,America/Guayaquil,FALSE,1218273757
Maspa,Maspa,Maspo|Mospa,-0.4167,-78.0167,Ecuador,EC,ECU,Napo,Napo,EC-N,province,,3.2,,,5,America/Guayaquil,FALSE,1218943532
"Hacienda Ayaurcu","Hacienda Ayaurcu",Ayaurcu,-0.4333,-78.5667,Ecuador,EC,ECU,Pichincha,Pichincha,EC-P,province,,65.3,,,4,America/Guayaquil,FALSE,1218098320
"Hacienda Tabloncillo","Hacienda Tabloncillo","Tabloncillo|Tabloncillo Hacienda",-4.4373,-79.5596,Ecuador,EC,ECU,Loja,Loja,EC-L,province,,63.4,,,4,America/Guayaquil,FALSE,1218762200
"La Misión","La Mision",,-3.0533,-77.9986,Ecuador,EC,ECU,Morona-Santiago,Morona-Santiago,EC-S,province,,9.4,,,5,America/Guayaquil,FALSE,1218774799
"El Guabo","El Guabo",,-4.2000,-80.2000,Ecuador,EC,ECU,Loja,Loja,EC-L,province,,19.5,,,4,America/Guayaquil,FALSE,1218931502
"El Guabo","El Guabo",,-4.1713,-80.3357,Ecuador,EC,ECU,Loja,Loja,EC-L,province,,9.2,,,5,America/Guayaquil,TRUE,1218252043
"El Guabo","El Guabo",,-2.6500,-79.7167,Ecuador,EC,ECU,Guayas,Guayas,EC-G,province,,77.2,,,4,America/Guayaquil,FALSE,1218419925
Tudo,Tudo,,-4.3167,-79.8167,Ecuador,EC,ECU,Loja,Loja,EC-L,province,,14.5,,,4,America/Guayaquil,FALSE,1218226173
Machipamba,Machipamba,,-2.9500,-78.7667,Ecuador,EC,ECU,Azuay,Azuay,EC-A,province,,501.9,,,3,America/Guayaquil,FALSE,1218395257
"Hacienda Laurel","Hacienda Laurel",Laurel,-1.5500,-79.9500,Ecuador,EC,ECU,Guayas,Guayas,EC-G,province,,38.4,,,4,America/Guayaquil,FALSE,1218131768
Tachina,Tachina,,0.9625,-79.6281,Ecuador,EC,ECU,Esmeraldas,Esmeraldas,EC-E,province,,71.7,,,4,America/Guayaquil,FALSE,1218721573
Tachina,Tachina,,0.9993,-78.8375,Ecuador,EC,ECU,Esmeraldas,Esmeraldas,EC-E,province,,38.2,,,4,America/Guayaquil,TRUE,1218056872
"Flor de Azalea","Flor de Azalea",,0.8620,-79.8512,Ecuador,EC,ECU,Esmeraldas,Esmeraldas,EC-E,province,,207.0,,,3,America/Guayaquil,FALSE,1218000034
Cusubamba,Cusubamba,,-1.0667,-78.7000,Ecuador,EC,ECU,Cotopaxi,Cotopaxi,EC-X,province,,44.4,,,4,America/Guayaquil,FALSE,1218569907
Bermeja,Bermeja,"La Bermeja",0.2831,-77.0794,Ecuador,EC,ECU,Sucumbíos,Sucumbios,EC-U,province,,10.8,,,4,America/Guayaquil,FALSE,1218340436
"Puerto Salazar","Puerto Salazar",Salazar,-0.8371,-77.2337,Ecuador,EC,ECU,Napo,Napo,EC-N,province,,11.5,,,4,America/Guayaquil,FALSE,1218963556
Texas,Texas,,-2.9167,-79.8667,Ecuador,EC,ECU,Guayas,Guayas,EC-G,province,,69.7,,,4,America/Guayaquil,FALSE,1218717600
"Boca de Guanábano","Boca de Guanabano",,-1.7718,-80.3955,Ecuador,EC,ECU,Guayas,Guayas,EC-G,province,,33.8,,,4,America/Guayaquil,FALSE,1218606213
"Hacienda El Corral","Hacienda El Corral","El Corral",-4.2500,-79.3333,Ecuador,EC,ECU,Loja,Loja,EC-L,province,,38.5,,,4,America/Guayaquil,FALSE,1218765135
Zancudo,Zancudo,,-0.5500,-75.5000,Ecuador,EC,ECU,Orellana,Orellana,EC-D,province,,0.8,,,5,America/Guayaquil,FALSE,1218603701
"Pozo Cutuy","Pozo Cutuy",,-2.7500,-80.1167,Ecuador,EC,ECU,Guayas,Guayas,EC-G,province,,10.4,,,4,America/Guayaquil,FALSE,1218014183
"La Granja","La Granja",,-4.2114,-79.2401,Ecuador,EC,ECU,Loja,Loja,EC-L,province,,38.5,,,4,America/Guayaquil,FALSE,1218366144
"El Aguila","El Aguila",,-0.5978,-79.6578,Ecuador,EC,ECU,Manabí,Manabi,EC-M,province,,105.6,,,4,America/Guayaquil,FALSE,1218273407
"La Granja","La Granja",,-2.1167,-79.6000,Ecuador,EC,ECU,Guayas,Guayas,EC-G,province,,789.1,,,3,America/Guayaquil,FALSE,1218499557
"La Granja","La Granja",Granja,-1.9167,-80.0000,Ecuador,EC,ECU,Guayas,Guayas,EC-G,province,,575.0,,,3,America/Guayaquil,TRUE,1218835488
"La Granja","La Granja",,-1.7000,-79.9833,Ecuador,EC,ECU,Guayas,Guayas,EC-G,province,,133.0,,,4,America/Guayaquil,TRUE,1218765611
Totoracocha,Totoracocha,,-2.8918,-78.9811,Ecuador,EC,ECU,Azuay,Azuay,EC-A,province,,5303.0,,,2,America/Guayaquil,FALSE,1218959682
Chalupas,Chalupas,,-0.8447,-78.3340,Ecuador,EC,ECU,Napo,Napo,EC-N,province,,2.9,,,5,America/Guayaquil,FALSE,1218206434
"Hacienda Maravilla","Hacienda Maravilla",Maravilla,-1.9253,-79.5291,Ecuador,EC,ECU,Guayas,Guayas,EC-G,province,,139.1,,,4,America/Guayaquil,FALSE,1218813939
Piñán,Pinan,,-3.5747,-79.2246,Ecuador,EC,ECU,Loja,Loja,EC-L,province,,16.3,,,4,America/Guayaquil,FALSE,1218000166
Piñán,Pinan,,0.5333,-78.4333,Ecuador,EC,ECU,Imbabura,Imbabura,EC-I,province,,27.5,,,4,America/Guayaquil,FALSE,1218513921
"Hacienda Shamanga","Hacienda Shamanga",Shamanga,-1.7155,-78.7641,Ecuador,EC,ECU,Chimborazo,Chimborazo,EC-H,province,,110.2,,,4,America/Guayaquil,FALSE,1218956675
"Hacienda Cunchibamba de Chiriboga","Hacienda Cunchibamba de Chiriboga","Cunchibamba de Chiriboga",-1.0833,-78.6167,Ecuador,EC,ECU,Cotopaxi,Cotopaxi,EC-X,province,,185.3,,,4,America/Guayaquil,FALSE,1218298900
Ila,Ila,,-1.1681,-77.8745,Ecuador,EC,ECU,Napo,Napo,EC-N,province,,12.0,,,4,America/Guayaquil,FALSE,1218581016
"Hacienda Amanta","Hacienda Amanta",Amanta,-2.6000,-78.8167,Ecuador,EC,ECU,Cañar,Canar,EC-F,province,,32.9,,,4,America/Guayaquil,FALSE,1218303653
"Hacienda Nagsiche","Hacienda Nagsiche",Nagsiche,-1.0833,-78.6167,Ecuador,EC,ECU,Cotopaxi,Cotopaxi,EC-X,province,,185.3,,,4,America/Guayaquil,FALSE,1218420333
Pueblito,Pueblito,,-0.6833,-80.0168,Ecuador,EC,ECU,Manabí,Manabi,EC-M,province,,105.6,,,4,America/Guayaquil,FALSE,1218896572
Pueblito,Pueblito,"Caserio Pueblito",1.0167,-78.9000,Ecuador,EC,ECU,Esmeraldas,Esmeraldas,EC-E,province,,24.9,,,4,America/Guayaquil,FALSE,1218292029
Pueblito,Pueblito,,0.4667,-79.9333,Ecuador,EC,ECU,Esmeraldas,Esmeraldas,EC-E,province,,16.7,,,4,America/Guayaquil,TRUE,1218436627
"El Salto Grande","El Salto Grande","El Salto",-1.2181,-79.9023,Ecuador,EC,ECU,Guayas,Guayas,EC-G,province,,54.7,,,4,America/Guayaquil,FALSE,1218732552
Jumón,Jumon,,-3.4538,-80.0053,Ecuador,EC,ECU,"El Oro","El Oro",EC-O,province,,356.6,,,3,America/Guayaquil,FALSE,1218510347
"El Descanso","El Descanso",,-0.6630,-79.4467,Ecuador,EC,ECU,"Los Ríos","Los Rios",EC-R,province,,153.7,,,4,America/Guayaquil,FALSE,1218538707
Sabaneta,Sabaneta,,-1.8500,-79.4500,Ecuador,EC,ECU,"Los Ríos","Los Rios",EC-R,province,,703.5,,,3,America/Guayaquil,FALSE,1218997844
Sucre,Sucre,,1.0012,-78.8029,Ecuador,EC,ECU,Esmeraldas,Esmeraldas,EC-E,province,,2.6,,,5,America/Guayaquil,FALSE,1218365075
"Tambo Sasanama","Tambo Sasanama",,-4.1000,-79.9500,Ecuador,EC,ECU,Loja,Loja,EC-L,province,,34.0,,,4,America/Guayaquil,FALSE,1218895645
Tocachi,Tocachi,,0.0459,-78.2870,Ecuador,EC,ECU,Pichincha,Pichincha,EC-P,province,,25.9,,,4,America/Guayaquil,FALSE,1218145487
Yataquí,Yataqui,,-1.3505,-78.5167,Ecuador,EC,ECU,Tungurahua,Tungurahua,EC-T,province,,501.8,,,3,America/Guayaquil,FALSE,1218987173
"La Villegas","La Villegas",,-0.0554,-79.4425,Ecuador,EC,ECU,Esmeraldas,Esmeraldas,EC-E,province,,167.1,,,4,America/Guayaquil,FALSE,1218079782
Charohuaiña,Charohuaina,Charohuina,-3.5833,-79.2333,Ecuador,EC,ECU,Loja,Loja,EC-L,province,,23.0,,,4,America/Guayaquil,FALSE,1218069908
"Hacienda El Huásimo","Hacienda El Huasimo","El Huásimo",-4.4167,-79.8167,Ecuador,EC,ECU,Loja,Loja,EC-L,province,,30.1,,,4,America/Guayaquil,FALSE,1218915562
Carmen,Carmen,,-2.1667,-79.6667,Ecuador,EC,ECU,Guayas,Guayas,EC-G,province,,132.2,,,4,America/Guayaquil,FALSE,1218240920
Sacay,Sacay,,-2.8833,-79.0333,Ecuador,EC,ECU,Azuay,Azuay,EC-A,province,,4708.0,,,2,America/Guayaquil,FALSE,1218389305
"La Andina","La Andina",,-3.3167,-79.6667,Ecuador,EC,ECU,"El Oro","El Oro",EC-O,province,,35.4,,,4,America/Guayaquil,FALSE,1218149774
Moromoro,Moromoro,,-3.6831,-79.7432,Ecuador,EC,ECU,"El Oro","El Oro",EC-O,province,,18.7,,,4,America/Guayaquil,FALSE,1218848754
"Manantial de Guangala","Manantial de Guangala",,-2.0000,-80.6000,Ecuador,EC,ECU,Guayas,Guayas,EC-G,province,,36.4,,,4,America/Guayaquil,FALSE,1218801353
"Dieciocho de Noviembre","Dieciocho de Noviembre",,-0.1108,-79.0527,Ecuador,EC,ECU,"Santo Domingo de los Tsáchilas","Santo Domingo de los Tsachilas",EC-SD,province,,367.6,,,3,America/Guayaquil,FALSE,1218211241
"Hacienda El Troje","Hacienda El Troje","El Troje",-1.6973,-78.6178,Ecuador,EC,ECU,Chimborazo,Chimborazo,EC-H,province,,470.4,,,3,America/Guayaquil,FALSE,1218292520
Cacagual,Cacagual,,1.1676,-78.9943,Ecuador,EC,ECU,Esmeraldas,Esmeraldas,EC-E,province,,87.1,,,4,America/Guayaquil,FALSE,1218479331
Sardinas,Sardinas,,-0.3837,-77.8379,Ecuador,EC,ECU,Napo,Napo,EC-N,province,,7.9,,,5,America/Guayaquil,FALSE,1218573678
Sardinas,Sardinas,,-0.7750,-77.7869,Ecuador,EC,ECU,Napo,Napo,EC-N,province,,7.2,,,5,America/Guayaquil,TRUE,1218643053
Lluillán,Lluillan,,-2.5806,-78.9354,Ecuador,EC,ECU,Cañar,Canar,EC-F,province,,89.7,,,4,America/Guayaquil,FALSE,1218257673
"San Luis de Cajones","San Luis de Cajones",,-0.2988,-79.4341,Ecuador,EC,ECU,Manabí,Manabi,EC-M,province,,115.1,,,4,America/Guayaquil,FALSE,1218882129
"La Corona","La Corona",,-1.7125,-79.8812,Ecuador,EC,ECU,Guayas,Guayas,EC-G,province,,123.6,,,4,America/Guayaquil,FALSE,1218546485
Sardinas,Sardinas,,-0.1069,-77.1315,Ecuador,EC,ECU,Orellana,Orellana,EC-D,province,,19.9,,,4,America/Guayaquil,FALSE,1218508625
Manzoya,Manzoya,,0.3333,-76.1333,Ecuador,EC,ECU,Sucumbíos,Sucumbios,EC-U,province,,5.2,,,5,America/Guayaquil,FALSE,1218195680
Guayusa,Guayusa,,-1.8500,-76.3167,Ecuador,EC,ECU,Pastaza,Pastaza,EC-Y,province,,0.2,,,5,America/Guayaquil,FALSE,1218683119
"El Burro","El Burro",,-3.2167,-79.1333,Ecuador,EC,ECU,Azuay,Azuay,EC-A,province,,42.8,,,4,America/Guayaquil,FALSE,1218444401
"Hacienda Tamarindo","Hacienda Tamarindo",Tamarindo,-4.3833,-79.9667,Ecuador,EC,ECU,Loja,Loja,EC-L,province,,47.3,,,4,America/Guayaquil,FALSE,1218435870
"La Lechería","La Lecheria",,-1.2667,-79.9500,Ecuador,EC,ECU,Guayas,Guayas,EC-G,province,,54.7,,,4,America/Guayaquil,FALSE,1218559949
"La Magdalena","La Magdalena","Magdalena|Hacienda Magdalena",0.2667,-78.1000,Ecuador,EC,ECU,Imbabura,Imbabura,EC-I,province,,114.5,,,4,America/Guayaquil,FALSE,1218516344
"La Magdalena","La Magdalena",Magdalena|Chapacoto,-1.6641,-79.0679,Ecuador,EC,ECU,Bolívar,Bolivar,EC-B,province,,66.4,,,4,America/Guayaquil,FALSE,1218761914
"La Magdalena","La Magdalena",,-1.7833,-79.8500,Ecuador,EC,ECU,Guayas,Guayas,EC-G,province,,264.0,,,3,America/Guayaquil,FALSE,1218588005
"El Arenal","El Arenal","Cruz del Arenal",-1.4667,-78.8833,Ecuador,EC,ECU,Bolívar,Bolivar,EC-B,province,,43.5,,,4,America/Guayaquil,FALSE,1218939913
"El Arenal","El Arenal",,-2.8667,-78.8333,Ecuador,EC,ECU,Azuay,Azuay,EC-A,province,,99.9,,,4,America/Guayaquil,FALSE,1218566881
Gigantones,Gigantones,,-3.2291,-79.2044,Ecuador,EC,ECU,Azuay,Azuay,EC-A,province,,42.2,,,4,America/Guayaquil,FALSE,1218599068
"El Arenal","El Arenal",,-1.8333,-79.7000,Ecuador,EC,ECU,"Los Ríos","Los Rios",EC-R,province,,138.5,,,4,America/Guayaquil,FALSE,1218989862
"El Arenal","El Arenal",,-3.3992,-78.4816,Ecuador,EC,ECU,Morona-Santiago,Morona-Santiago,EC-S,province,,11.5,,,4,America/Guayaquil,FALSE,1218436253
"Hacienda Uchucay","Hacienda Uchucay",Uchucay,-3.3562,-79.3602,Ecuador,EC,ECU,Loja,Loja,EC-L,province,,10.4,,,4,America/Guayaquil,FALSE,1218718358
Sinangue,Sinangue,,0.1228,-77.4312,Ecuador,EC,ECU,Sucumbíos,Sucumbios,EC-U,province,,1.8,,,5,America/Guayaquil,FALSE,1218529593
Guarumales,Guarumales,,-2.3833,-79.1667,Ecuador,EC,ECU,Cañar,Canar,EC-F,province,,21.0,,,4,America/Guayaquil,FALSE,1218458251
"Tollo Intag","Tollo Intag","Talla Intag|Tallo Intac",0.2687,-78.5858,Ecuador,EC,ECU,Imbabura,Imbabura,EC-I,province,,16.1,,,4,America/Guayaquil,FALSE,1218271555
"La Fritada","La Fritada",,-3.4000,-80.2167,Ecuador,EC,ECU,"El Oro","El Oro",EC-O,province,,9.0,,,5,America/Guayaquil,FALSE,1218952028
"Hacienda Tajamar","Hacienda Tajamar",Taramar|Tajamar,-0.0667,-78.4500,Ecuador,EC,ECU,Pichincha,Pichincha,EC-P,province,,2409.1,,,2,America/Guayaquil,FALSE,1218848515
"La Nueva Santa Rosa","La Nueva Santa Rosa","Nuevo Santa Rosa de Sucumbíos|Santa Rosa de Sucumbíos",0.2542,-76.4243,Ecuador,EC,ECU,Sucumbíos,Sucumbios,EC-U,province,,32.7,,,4,America/Bogota,FALSE,1218258452
Panguigua,Panguigua,,-1.1985,-78.5500,Ecuador,EC,ECU,Tungurahua,Tungurahua,EC-T,province,,314.2,,,3,America/Guayaquil,FALSE,1218293179
Tambo-guaico,Tambo-guaico,,-3.1333,-78.9833,Ecuador,EC,ECU,Azuay,Azuay,EC-A,province,,70.6,,,4,America/Guayaquil,FALSE,1218325777
Naute,Naute,Chalay,-2.7757,-78.6688,Ecuador,EC,ECU,Azuay,Azuay,EC-A,province,,83.2,,,4,America/Guayaquil,FALSE,1218584668
"San Sebastián del Coca","San Sebastian del Coca",,-0.3333,-77.0000,Ecuador,EC,ECU,Orellana,Orellana,EC-D,province,,19.9,,,4,America/Guayaquil,FALSE,1218349821
Naute,Naute,,-1.7585,-78.6733,Ecuador,EC,ECU,Chimborazo,Chimborazo,EC-H,province,,143.0,,,4,America/Guayaquil,FALSE,1218287461
"La Virgen","La Virgen",,-1.7500,-79.8167,Ecuador,EC,ECU,Guayas,Guayas,EC-G,province,,161.8,,,4,America/Guayaquil,FALSE,1218036739
Changaymina,Changaymina,"La Libertad|Changainima|Changaimina",-4.2206,-79.5241,Ecuador,EC,ECU,Loja,Loja,EC-L,province,,25.5,,,4,America/Guayaquil,FALSE,1218342938
"El Jurón","El Juron",Lurón|Jurón,-1.2820,-80.7069,Ecuador,EC,ECU,Manabí,Manabi,EC-M,province,,23.2,,,4,America/Guayaquil,FALSE,1218989091
Dinma,Dinma,,-0.5389,-79.3688,Ecuador,EC,ECU,"Santo Domingo de los Tsáchilas","Santo Domingo de los Tsachilas",EC-SD,province,,52.0,,,4,America/Guayaquil,FALSE,1218116856
Jatupamba,Jatupamba,,-2.7951,-78.9866,Ecuador,EC,ECU,Azuay,Azuay,EC-A,province,,52.6,,,4,America/Guayaquil,FALSE,1218561363
Same,Same,,0.8451,-79.9252,Ecuador,EC,ECU,Esmeraldas,Esmeraldas,EC-E,province,,74.8,,,4,America/Guayaquil,FALSE,1218989733
Aláquez,Alaquez,Alaques,-0.8617,-78.5944,Ecuador,EC,ECU,Cotopaxi,Cotopaxi,EC-X,province,,43.9,,,4,America/Guayaquil,FALSE,1218528913
Barraganetal,Barraganetal,,-2.1747,-79.2982,Ecuador,EC,ECU,Guayas,Guayas,EC-G,province,,198.8,,,4,America/Guayaquil,FALSE,1218013086
"La Búrsula","La Bursula",,-1.3000,-80.1000,Ecuador,EC,ECU,Manabí,Manabi,EC-M,province,,29.1,,,4,America/Guayaquil,FALSE,1218690940
"Hacienda Venecia","Hacienda Venecia",Venecia,-2.1500,-79.5132,Ecuador,EC,ECU,Guayas,Guayas,EC-G,province,,148.2,,,4,America/Guayaquil,FALSE,1218055798
"Hacienda Venecia","Hacienda Venecia",Venecia,-2.0167,-79.4833,Ecuador,EC,ECU,Guayas,Guayas,EC-G,province,,136.8,,,4,America/Guayaquil,TRUE,1218810255
Jeroshunshi,Jeroshunshi,,-2.7378,-78.8783,Ecuador,EC,ECU,Cañar,Canar,EC-F,province,,228.3,,,3,America/Guayaquil,FALSE,1218029753
Huila,Huila,,0.0500,-78.8833,Ecuador,EC,ECU,Pichincha,Pichincha,EC-P,province,,29.4,,,4,America/Guayaquil,FALSE,1218891977
"Nanguipa Alto","Nanguipa Alto",,-3.9400,-78.7476,Ecuador,EC,ECU,Zamora-Chinchipe,Zamora-Chinchipe,EC-Z,province,,29.9,,,4,America/Guayaquil,FALSE,1218719568
"Hacienda Pigunchuela","Hacienda Pigunchuela",Pigunchuela,0.4339,-78.2027,Ecuador,EC,ECU,Imbabura,Imbabura,EC-I,province,,63.6,,,4,America/Guayaquil,FALSE,1218319015
"El Retiro","El Retiro",,-0.4599,-76.2954,Ecuador,EC,ECU,Orellana,Orellana,EC-D,province,,16.7,,,4,America/Guayaquil,FALSE,1218506574
Camarones,Camarones,,-0.7190,-79.4186,Ecuador,EC,ECU,"Los Ríos","Los Rios",EC-R,province,,52.8,,,4,America/Guayaquil,FALSE,1218165813
"El Cerro","El Cerro",,-0.7899,-79.2837,Ecuador,EC,ECU,"Los Ríos","Los Rios",EC-R,province,,52.8,,,4,America/Guayaquil,FALSE,1218788898
Boliche,Boliche,,-0.4500,-78.7000,Ecuador,EC,ECU,Pichincha,Pichincha,EC-P,province,,48.9,,,4,America/Guayaquil,FALSE,1218393150
Cachahuaico,Cachahuaico,,-2.6500,-78.7833,Ecuador,EC,ECU,Cañar,Canar,EC-F,province,,433.5,,,3,America/Guayaquil,FALSE,1218053745
Camarones,Camarones,,0.9938,-79.5496,Ecuador,EC,ECU,Esmeraldas,Esmeraldas,EC-E,province,,21.3,,,4,America/Guayaquil,FALSE,1218528325
"El Cerro","El Cerro",Cerro,-1.0657,-80.5673,Ecuador,EC,ECU,Manabí,Manabi,EC-M,province,,121.3,,,4,America/Guayaquil,FALSE,1218075618
"Vía Marina","Via Marina",,0.8497,-79.9219,Ecuador,EC,ECU,Esmeraldas,Esmeraldas,EC-E,province,,74.8,,,4,America/Guayaquil,FALSE,1218000030
Camarones,Camarones,,-4.4167,-80.3833,Ecuador,EC,ECU,Loja,Loja,EC-L,province,,6.9,,,5,America/Guayaquil,FALSE,1218503248
"Jesús Teresa","Jesus Teresa",,-2.0333,-79.4500,Ecuador,EC,ECU,Guayas,Guayas,EC-G,province,,136.8,,,4,America/Guayaquil,FALSE,1218032446
Bebo,Bebo,,-1.7208,-79.7943,Ecuador,EC,ECU,Guayas,Guayas,EC-G,province,,138.5,,,4,America/Guayaquil,FALSE,1218365924
Huapante,Huapante,,-1.0769,-78.4698,Ecuador,EC,ECU,Tungurahua,Tungurahua,EC-T,province,,205.7,,,3,America/Guayaquil,FALSE,1218754159
Yalaré,Yalare,,1.0885,-78.8787,Ecuador,EC,ECU,Esmeraldas,Esmeraldas,EC-E,province,,14.1,,,4,America/Guayaquil,FALSE,1218176634
Convento,Convento,,-1.9167,-79.6000,Ecuador,EC,ECU,Guayas,Guayas,EC-G,province,,139.1,,,4,America/Guayaquil,FALSE,1218763414
"Hacienda Hortencia María","Hacienda Hortencia Maria","Hortencia María",-3.3167,-79.3000,Ecuador,EC,ECU,Azuay,Azuay,EC-A,province,,48.9,,,4,America/Guayaquil,FALSE,1218949728
Convento,Convento,,-0.2774,-80.0361,Ecuador,EC,ECU,Manabí,Manabi,EC-M,province,,25.2,,,4,America/Guayaquil,FALSE,1218039254
Guapa,Guapa,Luapa,-1.1667,-78.4500,Ecuador,EC,ECU,Tungurahua,Tungurahua,EC-T,province,,25.3,,,4,America/Guayaquil,FALSE,1218387404
Venus,Venus,,-1.5333,-79.4500,Ecuador,EC,ECU,"Los Ríos","Los Rios",EC-R,province,,76.7,,,4,America/Guayaquil,FALSE,1218446511
Monchuca,Monchuca,,-1.1833,-78.6667,Ecuador,EC,ECU,Tungurahua,Tungurahua,EC-T,province,,224.3,,,3,America/Guayaquil,FALSE,1218928487
Anguasha,Anguasha,"Jibaro Anquasha|Jibaro Anguasha",-2.0167,-77.9500,Ecuador,EC,ECU,Morona-Santiago,Morona-Santiago,EC-S,province,,16.2,,,4,America/Guayaquil,FALSE,1218696684
Rumisalia,Rumisalia,,0.1242,-75.9921,Ecuador,EC,ECU,Sucumbíos,Sucumbios,EC-U,province,,4.9,,,5,America/Guayaquil,FALSE,1218227047
"Hacienda Piaba","Hacienda Piaba",Piaba,0.3167,-78.2500,Ecuador,EC,ECU,Imbabura,Imbabura,EC-I,province,,418.2,,,3,America/Guayaquil,FALSE,1218906364
Bijagual,Bijagual,,-0.2423,-79.6918,Ecuador,EC,ECU,Manabí,Manabi,EC-M,province,,22.0,,,4,America/Guayaquil,FALSE,1218713080
Suro,Suro,,-3.5527,-79.3185,Ecuador,EC,ECU,Loja,Loja,EC-L,province,,47.5,,,4,America/Guayaquil,FALSE,1218000099
Manzano,Manzano,,-3.1306,-79.0141,Ecuador,EC,ECU,Azuay,Azuay,EC-A,province,,94.8,,,4,America/Guayaquil,FALSE,1218660972
Manzano,Manzano,,-3.2333,-79.1500,Ecuador,EC,ECU,Azuay,Azuay,EC-A,province,,43.0,,,4,America/Guayaquil,TRUE,1218801888
Manzano,Manzano,,-3.1500,-79.2333,Ecuador,EC,ECU,Azuay,Azuay,EC-A,province,,27.4,,,4,America/Guayaquil,TRUE,1218233099
"Hacienda La Estancia","Hacienda La Estancia","La Estancia",-0.1000,-78.3000,Ecuador,EC,ECU,Pichincha,Pichincha,EC-P,province,,268.7,,,3,America/Guayaquil,FALSE,1218329632
"El Cisne","El Cisne",,0.1752,-79.0380,Ecuador,EC,ECU,Pichincha,Pichincha,EC-P,province,,25.8,,,4,America/Guayaquil,FALSE,1218246693
Monoacana,Monoacana,,-2.4000,-79.1500,Ecuador,EC,ECU,Cañar,Canar,EC-F,province,,21.0,,,4,America/Guayaquil,FALSE,1218624705
Quillosara,Quillosara,,-4.1753,-80.1186,Ecuador,EC,ECU,Loja,Loja,EC-L,province,,19.5,,,4,America/Guayaquil,FALSE,1218127211
"El Cisne","El Cisne",,-3.6463,-78.9064,Ecuador,EC,ECU,Zamora-Chinchipe,Zamora-Chinchipe,EC-Z,province,,7.9,,,5,America/Guayaquil,FALSE,1218991548
Urichisinga,Urichisinga,,-4.1000,-79.2333,Ecuador,EC,ECU,Loja,Loja,EC-L,province,,203.4,,,3,America/Guayaquil,FALSE,1218017404
Peñas,Penas,,-3.0128,-77.9344,Ecuador,EC,ECU,Morona-Santiago,Morona-Santiago,EC-S,province,,9.4,,,5,America/Guayaquil,FALSE,1218285534
"Hacienda San Juan Chico","Hacienda San Juan Chico","San Juan Chico",-1.6667,-78.7500,Ecuador,EC,ECU,Chimborazo,Chimborazo,EC-H,province,,110.2,,,4,America/Guayaquil,FALSE,1218909385
"Hacienda Guasaya","Hacienda Guasaya",Guasaya,-0.0167,-78.5167,Ecuador,EC,ECU,Pichincha,Pichincha,EC-P,province,,25.5,,,4,America/Guayaquil,FALSE,1218581049
Montebajo,Montebajo,,-1.9167,-79.7333,Ecuador,EC,ECU,Guayas,Guayas,EC-G,province,,122.2,,,4,America/Guayaquil,FALSE,1218667354
"Hacienda Cruz Blanca","Hacienda Cruz Blanca","Cruz Blanca",-4.0525,-80.4702,Ecuador,EC,ECU,Loja,Loja,EC-L,province,,4.9,,,5,America/Guayaquil,FALSE,1218675358
"Boca Dashiño","Boca Dashino","Boca Dasmiño",-0.0667,-77.2833,Ecuador,EC,ECU,Napo,Napo,EC-N,province,,7.1,,,5,America/Guayaquil,FALSE,1218749668
"Campamento Ruiseñor","Campamento Ruisenor",,-4.5233,-78.6578,Ecuador,EC,ECU,Zamora-Chinchipe,Zamora-Chinchipe,EC-Z,province,,1.5,,,5,America/Guayaquil,FALSE,1218175791
Columbe,Columbe,,-1.8871,-78.7236,Ecuador,EC,ECU,Chimborazo,Chimborazo,EC-H,province,,81.5,,,4,America/Guayaquil,FALSE,1218102465
Paquimaro,Paquimaro,,-0.2500,-79.1167,Ecuador,EC,ECU,Pichincha,Pichincha,EC-P,province,,367.6,,,3,America/Guayaquil,FALSE,1218767380
Picoazá,Picoaza,,-1.0333,-80.5000,Ecuador,EC,ECU,Manabí,Manabi,EC-M,province,,621.7,,,3,America/Guayaquil,FALSE,1218192817
"Puerto Ventura","Puerto Ventura",,-1.0117,-75.4619,Ecuador,EC,ECU,Orellana,Orellana,EC-D,province,,1.0,,,5,America/Guayaquil,FALSE,1218560001
"Los Hachos","Los Hachos",,-3.8049,-78.7426,Ecuador,EC,ECU,Zamora-Chinchipe,Zamora-Chinchipe,EC-Z,province,,55.0,,,4,America/Guayaquil,FALSE,1218772248
"Hacienda Pirca","Hacienda Pirca","Pirca Vieja|Pirca",0.1500,-78.4167,Ecuador,EC,ECU,Pichincha,Pichincha,EC-P,province,,29.4,,,4,America/Guayaquil,FALSE,1218150467
Capailoma,Capailoma,,0.1667,-78.0833,Ecuador,EC,ECU,Pichincha,Pichincha,EC-P,province,,21.3,,,4,America/Guayaquil,FALSE,1218749511
"La Vega Grande","La Vega Grande","La Vega",-4.0951,-79.5311,Ecuador,EC,ECU,Loja,Loja,EC-L,province,,20.9,,,4,America/Guayaquil,FALSE,1218596884
"El Bajo","El Bajo",,-1.4667,-79.8667,Ecuador,EC,ECU,Guayas,Guayas,EC-G,province,,73.1,,,4,America/Guayaquil,FALSE,1218253847
Otoncito,Otoncito,,-0.0179,-78.2295,Ecuador,EC,ECU,Pichincha,Pichincha,EC-P,province,,140.0,,,4,America/Guayaquil,FALSE,1218624854
"Hacienda Chambellán","Hacienda Chambellan",Chambellán,-4.0182,-79.4566,Ecuador,EC,ECU,Loja,Loja,EC-L,province,,16.8,,,4,America/Guayaquil,FALSE,1218788433
"El Tropezón","El Tropezon",,-0.0994,-79.5590,Ecuador,EC,ECU,Manabí,Manabi,EC-M,province,,41.3,,,4,America/Guayaquil,FALSE,1218567824
Daligshi,Daligshi,,-3.3652,-79.4955,Ecuador,EC,ECU,"El Oro","El Oro",EC-O,province,,26.1,,,4,America/Guayaquil,FALSE,1218791771
"Las Trandas","Las Trandas",,-3.2500,-79.5833,Ecuador,EC,ECU,Azuay,Azuay,EC-A,province,,31.3,,,4,America/Guayaquil,FALSE,1218402405
"San Pedro de Cariamanga","San Pedro de Cariamanga",,-4.3000,-79.6000,Ecuador,EC,ECU,Loja,Loja,EC-L,province,,63.4,,,4,America/Guayaquil,FALSE,1218230715
"Hacienda Asunción","Hacienda Asuncion",Asunción,-2.9167,-79.8000,Ecuador,EC,ECU,Guayas,Guayas,EC-G,province,,69.7,,,4,America/Guayaquil,FALSE,1218314622
Purunuma,Purunuma,Eguiguren|Egniguren,-4.2093,-79.3736,Ecuador,EC,ECU,Loja,Loja,EC-L,province,,8.7,,,5,America/Guayaquil,FALSE,1218316132
Corralito,Corralito,,-2.7167,-79.9500,Ecuador,EC,ECU,Guayas,Guayas,EC-G,province,,10.4,,,4,America/Guayaquil,FALSE,1218300700
Corralito,Corralito,,-2.9333,-79.9333,Ecuador,EC,ECU,Guayas,Guayas,EC-G,province,,0,,,5,America/Guayaquil,TRUE,1218417492
Peripa,Peripa,,-0.8833,-79.7167,Ecuador,EC,ECU,Guayas,Guayas,EC-G,province,,42.2,,,4,America/Guayaquil,FALSE,1218719548
Canaria,Canaria,,-1.3167,-79.8500,Ecuador,EC,ECU,Guayas,Guayas,EC-G,province,,54.7,,,4,America/Guayaquil,FALSE,1218493291
"Hacienda Lulunquí","Hacienda Lulunqui",,-0.3333,-78.1000,Ecuador,EC,ECU,Imbabura,Imbabura,EC-I,province,,4.8,,,5,America/Guayaquil,FALSE,1218943753
"Hacienda La Cruz","Hacienda La Cruz","La Cruz",-4.3667,-80.0000,Ecuador,EC,ECU,Loja,Loja,EC-L,province,,47.1,,,4,America/Guayaquil,FALSE,1218613630
"Hacienda La Cruz","Hacienda La Cruz","La Cruz",-3.0833,-79.8667,Ecuador,EC,ECU,"El Oro","El Oro",EC-O,province,,40.5,,,4,America/Guayaquil,FALSE,1218224888
"Hacienda Cuvintzi","Hacienda Cuvintzi",Cuvintzi,0.0167,-78.2500,Ecuador,EC,ECU,Pichincha,Pichincha,EC-P,province,,124.2,,,4,America/Guayaquil,FALSE,1218872272
"La Revesa","La Revesa",,-2.9500,-78.8000,Ecuador,EC,ECU,Azuay,Azuay,EC-A,province,,163.4,,,4,America/Guayaquil,FALSE,1218076893
Villao,Villao,,-1.8457,-80.3372,Ecuador,EC,ECU,Guayas,Guayas,EC-G,province,,73.1,,,4,America/Guayaquil,FALSE,1218255803
Conguime,Conguime,,-3.5092,-78.5498,Ecuador,EC,ECU,Morona-Santiago,Morona-Santiago,EC-S,province,,8.9,,,5,America/Guayaquil,FALSE,1218858960
"Isabel María","Isabel Maria",,-1.8667,-79.7333,Ecuador,EC,ECU,Guayas,Guayas,EC-G,province,,106.8,,,4,America/Guayaquil,FALSE,1218753339
"Nueva Jerusalén","Nueva Jerusalen",,0.3239,-79.3626,Ecuador,EC,ECU,Esmeraldas,Esmeraldas,EC-E,province,,62.6,,,4,America/Guayaquil,FALSE,1218574317
Jempents,Jempents,,-2.7440,-77.4892,Ecuador,EC,ECU,Morona-Santiago,Morona-Santiago,EC-S,province,,6.4,,,5,America/Guayaquil,FALSE,1218269906
"La Eugenia","La Eugenia",,-1.9000,-79.6667,Ecuador,EC,ECU,Guayas,Guayas,EC-G,province,,126.3,,,4,America/Guayaquil,FALSE,1218056441
Pelincay,Pelincay,,-3.1833,-79.5333,Ecuador,EC,ECU,Azuay,Azuay,EC-A,province,,19.1,,,4,America/Guayaquil,FALSE,1218494402
Volcancito,Volcancito,,-2.1667,-80.6167,Ecuador,EC,ECU,Guayas,Guayas,EC-G,province,,131.0,,,4,America/Guayaquil,FALSE,1218851590
"Santa Marianita","Santa Marianita",,0.2125,-78.0917,Ecuador,EC,ECU,Imbabura,Imbabura,EC-I,province,,31.9,,,4,America/Guayaquil,FALSE,1218350274
"Santa Marianita","Santa Marianita",,-0.9977,-80.8491,Ecuador,EC,ECU,Manabí,Manabi,EC-M,province,,82.3,,,4,America/Guayaquil,FALSE,1218813431
"Niño Jesús","Nino Jesus",,-0.4000,-78.3500,Ecuador,EC,ECU,Pichincha,Pichincha,EC-P,province,,45.7,,,4,America/Guayaquil,FALSE,1218128111
"Santa Marianita","Santa Marianita",,0.0026,-78.2087,Ecuador,EC,ECU,Pichincha,Pichincha,EC-P,province,,60.8,,,4,America/Guayaquil,FALSE,1218918200
"Santa Marianita","Santa Marianita",,0.1133,-79.1901,Ecuador,EC,ECU,Pichincha,Pichincha,EC-P,province,,36.8,,,4,America/Guayaquil,TRUE,1218533788
Conchabón,Conchabon,,-3.5429,-79.2908,Ecuador,EC,ECU,Loja,Loja,EC-L,province,,26.1,,,4,America/Guayaquil,FALSE,1218000087
"Las Garzas","Las Garzas",,-2.0167,-80.5167,Ecuador,EC,ECU,Guayas,Guayas,EC-G,province,,36.4,,,4,America/Guayaquil,FALSE,1218504093
Shilla,Shilla,Shia|Zhila|Shio,-3.4557,-79.1668,Ecuador,EC,ECU,Azuay,Azuay,EC-A,province,,13.0,,,4,America/Guayaquil,FALSE,1218751966
"Hacienda Villanueva","Hacienda Villanueva",Villanueva,-2.5961,-79.6033,Ecuador,EC,ECU,Guayas,Guayas,EC-G,province,,78.5,,,4,America/Guayaquil,FALSE,1218693933
Macuchi,Macuchi,,-0.9291,-79.0504,Ecuador,EC,ECU,Cotopaxi,Cotopaxi,EC-X,province,,24.6,,,4,America/Guayaquil,FALSE,1218409751
"La Estación","La Estacion",,-2.9167,-79.9333,Ecuador,EC,ECU,Guayas,Guayas,EC-G,province,,0,,,5,America/Guayaquil,FALSE,1218757354
"Río Lulú","Rio Lulu",,-0.8522,-79.4099,Ecuador,EC,ECU,"Los Ríos","Los Rios",EC-R,province,,52.8,,,4,America/Guayaquil,FALSE,1218124262
"Las Mareas","Las Mareas",,0.8408,-79.8335,Ecuador,EC,ECU,Esmeraldas,Esmeraldas,EC-E,province,,207.0,,,3,America/Guayaquil,FALSE,1218000028
Dominguillo,Dominguillo,,-4.1385,-79.9921,Ecuador,EC,ECU,Loja,Loja,EC-L,province,,34.0,,,4,America/Guayaquil,FALSE,1218359710
"Campo Alegre","Campo Alegre",,-2.8239,-80.1358,Ecuador,EC,ECU,Guayas,Guayas,EC-G,province,,10.4,,,4,America/Guayaquil,FALSE,1218049035
"Campo Alegre","Campo Alegre",,0.9000,-79.7833,Ecuador,EC,ECU,Esmeraldas,Esmeraldas,EC-E,province,,160.0,,,4,America/Guayaquil,FALSE,1218690292
"Hacienda Durán","Hacienda Duran",Durán,-3.0667,-79.0500,Ecuador,EC,ECU,Azuay,Azuay,EC-A,province,,31.1,,,4,America/Guayaquil,FALSE,1218345733
Lucrecia,Lucrecia,,-1.8500,-79.9833,Ecuador,EC,ECU,Guayas,Guayas,EC-G,province,,575.0,,,3,America/Guayaquil,FALSE,1218838366
Cuambo,Cuambo,Coambo,0.5833,-78.1667,Ecuador,EC,ECU,Imbabura,Imbabura,EC-I,province,,10.3,,,4,America/Guayaquil,FALSE,1218610823
Cuambo,Cuambo,,-4.5833,-79.4500,Ecuador,EC,ECU,Loja,Loja,EC-L,province,,33.5,,,4,America/Guayaquil,FALSE,1218877494
"Manuel Cornejo Astorga","Manuel Cornejo Astorga","Cornejo Astorga|M. Cornejo Astorga",-0.4166,-78.7993,Ecuador,EC,ECU,Pichincha,Pichincha,EC-P,province,,9.5,,,5,America/Guayaquil,FALSE,1218990554
Chumundé,Chumunde,Shumundé,0.8323,-79.4189,Ecuador,EC,ECU,Esmeraldas,Esmeraldas,EC-E,province,,8.8,,,5,America/Guayaquil,FALSE,1218141151
"Hacienda El Cucho","Hacienda El Cucho","El Cucho",-3.2333,-79.2000,Ecuador,EC,ECU,Azuay,Azuay,EC-A,province,,42.2,,,4,America/Guayaquil,FALSE,1218836824
"Hacienda Ishpingo","Hacienda Ishpingo","Ishpingo|Hacienda Ihspingo",0.6041,-77.9411,Ecuador,EC,ECU,Carchi,Carchi,EC-C,province,,62.5,,,4,America/Guayaquil,FALSE,1218618440
Bocana,Bocana,,-4.1500,-80.4167,Ecuador,EC,ECU,Loja,Loja,EC-L,province,,4.5,,,5,America/Guayaquil,FALSE,1218738614
Bocana,Bocana,,-3.1351,-79.8679,Ecuador,EC,ECU,"El Oro","El Oro",EC-O,province,,131.4,,,4,America/Guayaquil,FALSE,1218919584
"Dos de Agosto","Dos de Agosto",,-0.4913,-79.4828,Ecuador,EC,ECU,Manabí,Manabi,EC-M,province,,115.1,,,4,America/Guayaquil,FALSE,1218959060
Bocana,Bocana,,1.0800,-79.3005,Ecuador,EC,ECU,Esmeraldas,Esmeraldas,EC-E,province,,13.4,,,4,America/Guayaquil,FALSE,1218938292
Bocana,Bocana,,-1.8333,-79.8167,Ecuador,EC,ECU,Guayas,Guayas,EC-G,province,,264.0,,,3,America/Guayaquil,FALSE,1218758448
"San Roberto","San Roberto",,-1.9833,-79.9667,Ecuador,EC,ECU,Guayas,Guayas,EC-G,province,,76.5,,,4,America/Guayaquil,FALSE,1218947314
Gañalaurco,Ganalaurco,Cañalaurco,-3.3805,-79.0798,Ecuador,EC,ECU,Azuay,Azuay,EC-A,province,,30.5,,,4,America/Guayaquil,FALSE,1218507638
"Potreros Altos","Potreros Altos",,-0.5000,-78.5833,Ecuador,EC,ECU,Pichincha,Pichincha,EC-P,province,,182.1,,,4,America/Guayaquil,FALSE,1218930852
Gercelán,Gercelan,,-3.4667,-79.4000,Ecuador,EC,ECU,Loja,Loja,EC-L,province,,17.2,,,4,America/Guayaquil,FALSE,1218208687
"Leocapa Chico","Leocapa Chico",,-3.1799,-79.1689,Ecuador,EC,ECU,Azuay,Azuay,EC-A,province,,42.2,,,4,America/Guayaquil,FALSE,1218776239
"San Isidro","San Isidro","San Isidro de Patulú",-1.5859,-78.6935,Ecuador,EC,ECU,Chimborazo,Chimborazo,EC-H,province,,88.0,,,4,America/Guayaquil,FALSE,1218612604
Tamarindo,Tamarindo,,-2.5167,-80.3000,Ecuador,EC,ECU,Guayas,Guayas,EC-G,province,,1303.4,,,3,America/Guayaquil,FALSE,1218437834
Tamarindo,Tamarindo,,-1.9667,-79.7333,Ecuador,EC,ECU,Guayas,Guayas,EC-G,province,,276.8,,,3,America/Guayaquil,TRUE,1218024179
Tamarindo,Tamarindo,,-2.3333,-80.2667,Ecuador,EC,ECU,Guayas,Guayas,EC-G,province,,44.3,,,4,America/Guayaquil,TRUE,1218861703
"Juana Amalia","Juana Amalia",,-1.8500,-79.9833,Ecuador,EC,ECU,Guayas,Guayas,EC-G,province,,575.0,,,3,America/Guayaquil,FALSE,1218529981
Tamarindo,Tamarindo,,-4.3833,-80.3667,Ecuador,EC,ECU,Loja,Loja,EC-L,province,,6.9,,,5,America/Guayaquil,FALSE,1218247898
Tamarindo,Tamarindo,,-4.1833,-80.4167,Ecuador,EC,ECU,Loja,Loja,EC-L,province,,4.5,,,5,America/Guayaquil,TRUE,1218367767
"Los Laureles","Los Laureles",,-0.1090,-79.3597,Ecuador,EC,ECU,"Santo Domingo de los Tsáchilas","Santo Domingo de los Tsachilas",EC-SD,province,,80.3,,,4,America/Guayaquil,FALSE,1218815442
"Hacienda Providencia","Hacienda Providencia",Providencia,-0.3500,-78.4500,Ecuador,EC,ECU,Pichincha,Pichincha,EC-P,province,,1765.0,,,3,America/Guayaquil,FALSE,1218360654
Albornoz,Albornoz,,-1.3000,-78.5500,Ecuador,EC,ECU,Tungurahua,Tungurahua,EC-T,province,,446.8,,,3,America/Guayaquil,FALSE,1218737748
"El Dorado de Cascales","El Dorado de Cascales",,0.0790,-77.2130,Ecuador,EC,ECU,Sucumbíos,Sucumbios,EC-U,province,,10.1,,,4,America/Guayaquil,FALSE,1218541689
"San Lorenzo","San Lorenzo",,0.2725,-78.5979,Ecuador,EC,ECU,Imbabura,Imbabura,EC-I,province,,8.5,,,5,America/Guayaquil,FALSE,1218009215
"San Lorenzo","San Lorenzo",,-0.6554,-80.0951,Ecuador,EC,ECU,Manabí,Manabi,EC-M,province,,105.6,,,4,America/Guayaquil,FALSE,1218046671
"San Lorenzo","San Lorenzo",,-1.0675,-80.9061,Ecuador,EC,ECU,Manabí,Manabi,EC-M,province,,50.3,,,4,America/Guayaquil,TRUE,1218778806
"Hacienda Jesús Teresa","Hacienda Jesus Teresa","Jesús Teresa",-2.0167,-79.4667,Ecuador,EC,ECU,Guayas,Guayas,EC-G,province,,136.8,,,4,America/Guayaquil,FALSE,1218162747
"San Lorenzo","San Lorenzo",,-1.6765,-78.9975,Ecuador,EC,ECU,Bolívar,Bolivar,EC-B,province,,21.3,,,4,America/Guayaquil,FALSE,1218100547
"San Lorenzo","San Lorenzo",,-2.2167,-80.9667,Ecuador,EC,ECU,Guayas,Guayas,EC-G,province,,1969.8,,,3,America/Guayaquil,FALSE,1218570722
"San Lorenzo","San Lorenzo",,-2.5368,-79.7774,Ecuador,EC,ECU,Guayas,Guayas,EC-G,province,,1303.4,,,3,America/Guayaquil,TRUE,1218946950
"San Lorenzo","San Lorenzo",,-2.2853,-79.8572,Ecuador,EC,ECU,Guayas,Guayas,EC-G,province,,1303.4,,,3,America/Guayaquil,TRUE,1218181205
"San Lorenzo","San Lorenzo",,-1.8833,-79.7833,Ecuador,EC,ECU,Guayas,Guayas,EC-G,province,,171.8,,,4,America/Guayaquil,TRUE,1218454920
"San Lorenzo","San Lorenzo",,-1.9167,-79.8333,Ecuador,EC,ECU,Guayas,Guayas,EC-G,province,,140.8,,,4,America/Guayaquil,TRUE,1218789983
"San Lorenzo","San Lorenzo","San Lorenzo del Mate",-2.4572,-80.2835,Ecuador,EC,ECU,Guayas,Guayas,EC-G,province,,44.3,,,4,America/Guayaquil,TRUE,1218844917
"Hacienda Portete","Hacienda Portete",,-3.1346,-79.1226,Ecuador,EC,ECU,Azuay,Azuay,EC-A,province,,42.2,,,4,America/Guayaquil,FALSE,1218575535
"San Lorenzo","San Lorenzo",,-0.5081,-78.9277,Ecuador,EC,ECU,Cotopaxi,Cotopaxi,EC-X,province,,17.0,,,4,America/Guayaquil,FALSE,1218154611
"Buen Suceso","Buen Suceso",,0.1597,-79.0657,Ecuador,EC,ECU,Pichincha,Pichincha,EC-P,province,,25.8,,,4,America/Guayaquil,FALSE,1218962207
"San Lorenzo","San Lorenzo",,0.1878,-76.8781,Ecuador,EC,ECU,Sucumbíos,Sucumbios,EC-U,province,,215.3,,,3,America/Guayaquil,FALSE,1218324470
"Cerro Verde","Cerro Verde",,-0.9017,-89.4430,Ecuador,EC,ECU,Galápagos,Galapagos,EC-W,province,,1.6,,,5,Pacific/Galapagos,FALSE,1218999351
Cazaderos,Cazaderos,,-4.0865,-80.4811,Ecuador,EC,ECU,Loja,Loja,EC-L,province,,5.4,,,5,America/Guayaquil,FALSE,1218760671
Pindo,Pindo,,-3.3167,-79.5500,Ecuador,EC,ECU,Azuay,Azuay,EC-A,province,,29.8,,,4,America/Guayaquil,FALSE,1218159123
Gutiupamba,Gutiupamba,,-0.8283,-77.8225,Ecuador,EC,ECU,Napo,Napo,EC-N,province,,7.2,,,5,America/Guayaquil,FALSE,1218721811
Chiches,Chiches,,-3.6444,-78.5985,Ecuador,EC,ECU,Zamora-Chinchipe,Zamora-Chinchipe,EC-Z,province,,38.9,,,4,America/Guayaquil,FALSE,1218432941
"El Siete","El Siete",,-2.1667,-79.6500,Ecuador,EC,ECU,Guayas,Guayas,EC-G,province,,135.2,,,4,America/Guayaquil,FALSE,1218123745
"El Cuzco","El Cuzco",Cuzco,-4.0827,-80.4966,Ecuador,EC,ECU,Loja,Loja,EC-L,province,,14.4,,,4,America/Lima,FALSE,1218532477
Marco,Marco,,-1.8667,-79.8667,Ecuador,EC,ECU,Guayas,Guayas,EC-G,province,,142.3,,,4,America/Guayaquil,FALSE,1218876885
Paquicahuán,Paquicahuan,,-1.6333,-78.6167,Ecuador,EC,ECU,Chimborazo,Chimborazo,EC-H,province,,267.5,,,3,America/Guayaquil,FALSE,1218296411
Papaurcu,Papaurcu,,-1.0500,-78.5167,Ecuador,EC,ECU,Cotopaxi,Cotopaxi,EC-X,province,,188.1,,,4,America/Guayaquil,FALSE,1218884404
"Santa Marta","Santa Marta",,-0.2258,-78.7703,Ecuador,EC,ECU,Pichincha,Pichincha,EC-P,province,,9.8,,,5,America/Guayaquil,FALSE,1218425309
"Hacienda Puente Tierra","Hacienda Puente Tierra","Puente Tierra",0.7116,-77.7308,Ecuador,EC,ECU,Carchi,Carchi,EC-C,province,,96.3,,,4,America/Guayaquil,FALSE,1218339206
"Hacienda El Inga","Hacienda El Inga","El Inga|Inga",-0.3032,-78.3358,Ecuador,EC,ECU,Pichincha,Pichincha,EC-P,province,,82.0,,,4,America/Guayaquil,FALSE,1218042534
Pescadillo,Pescadillo,,-0.7685,-79.6641,Ecuador,EC,ECU,Manabí,Manabi,EC-M,province,,56.4,,,4,America/Guayaquil,FALSE,1218862724
"Hacienda San Rafael","Hacienda San Rafael","San Rafael",-2.9833,-79.0167,Ecuador,EC,ECU,Azuay,Azuay,EC-A,province,,91.9,,,4,America/Guayaquil,FALSE,1218396578
"Hacienda San Rafael","Hacienda San Rafael","San Rafael",0.8167,-77.6833,Ecuador,EC,ECU,Carchi,Carchi,EC-C,province,,133.8,,,4,America/Guayaquil,FALSE,1218923201
"Hacienda San Rafael","Hacienda San Rafael","San Rafael",0.6667,-77.7167,Ecuador,EC,ECU,Carchi,Carchi,EC-C,province,,96.3,,,4,America/Guayaquil,TRUE,1218670220
"Hacienda San Rafael","Hacienda San Rafael","San Rafael",0.4123,-77.9118,Ecuador,EC,ECU,Carchi,Carchi,EC-C,province,,58.6,,,4,America/Guayaquil,TRUE,1218433035
"Hacienda San Rafael","Hacienda San Rafael","San Rafael",-2.5515,-78.9552,Ecuador,EC,ECU,Cañar,Canar,EC-F,province,,266.1,,,3,America/Guayaquil,FALSE,1218858022
"Hacienda San Rafael","Hacienda San Rafael","San Rafael",-2.9673,-79.7706,Ecuador,EC,ECU,Guayas,Guayas,EC-G,province,,102.4,,,4,America/Guayaquil,FALSE,1218782631
Balzar,Balzar,,-0.4860,-80.0738,Ecuador,EC,ECU,Manabí,Manabi,EC-M,province,,26.4,,,4,America/Guayaquil,FALSE,1218314647
Miguir,Miguir,Mehuir,-2.8020,-79.3032,Ecuador,EC,ECU,Azuay,Azuay,EC-A,province,,10.7,,,4,America/Guayaquil,FALSE,1218391382
Sábalo,Sabalo,,0.2411,-79.1843,Ecuador,EC,ECU,Pichincha,Pichincha,EC-P,province,,36.8,,,4,America/Guayaquil,FALSE,1218276082
"San Luis de El Acho","San Luis de El Acho",,-2.7714,-78.2818,Ecuador,EC,ECU,Morona-Santiago,Morona-Santiago,EC-S,province,,13.2,,,4,America/Guayaquil,FALSE,1218902116
"Pata de Pájaro","Pata de Pajaro","Pata Pajaro",0.0333,-79.9833,Ecuador,EC,ECU,Manabí,Manabi,EC-M,province,,51.6,,,4,America/Guayaquil,FALSE,1218892460
Ganillac,Ganillac,,-3.2167,-78.9667,Ecuador,EC,ECU,Azuay,Azuay,EC-A,province,,18.0,,,4,America/Guayaquil,FALSE,1218961999
Cucuy,Cucuy,,-0.4550,-80.1446,Ecuador,EC,ECU,Manabí,Manabi,EC-M,province,,26.4,,,4,America/Guayaquil,FALSE,1218610932
Pioter,Pioter,,0.6446,-77.7831,Ecuador,EC,ECU,Carchi,Carchi,EC-C,province,,44.0,,,4,America/Guayaquil,FALSE,1218060914
Buri,Buri,,-3.0833,-79.5167,Ecuador,EC,ECU,Azuay,Azuay,EC-A,province,,19.1,,,4,America/Guayaquil,FALSE,1218301943
"La Boca","La Boca","La Piedra|Dos Bocas",1.1303,-78.7724,Ecuador,EC,ECU,Esmeraldas,Esmeraldas,EC-E,province,,29.4,,,4,America/Guayaquil,FALSE,1218011819
"La Boca","La Boca",,-1.9667,-79.9833,Ecuador,EC,ECU,Guayas,Guayas,EC-G,province,,140.8,,,4,America/Guayaquil,FALSE,1218814525
"La Boca","La Boca",,-3.0167,-79.9167,Ecuador,EC,ECU,Guayas,Guayas,EC-G,province,,0,,,5,America/Guayaquil,TRUE,1218073295
"Hacienda Los Álamos","Hacienda Los Alamos","Los Álamos",-2.5333,-79.6167,Ecuador,EC,ECU,Guayas,Guayas,EC-G,province,,15.0,,,4,America/Guayaquil,FALSE,1218924239
Troncoquemado,Troncoquemado,,-4.4333,-80.4000,Ecuador,EC,ECU,Loja,Loja,EC-L,province,,6.9,,,5,America/Guayaquil,FALSE,1218322124
"Hacienda El Porvenir","Hacienda El Porvenir",,-1.8333,-80.7083,Ecuador,EC,ECU,Guayas,Guayas,EC-G,province,,91.6,,,4,America/Guayaquil,FALSE,1218819924
"La Avanzada","La Avanzada",Avanzada,-3.5500,-79.9833,Ecuador,EC,ECU,"El Oro","El Oro",EC-O,province,,36.3,,,4,America/Guayaquil,FALSE,1218483078
"La Joya de los Sachas","La Joya de los Sachas",,-0.3000,-76.8550,Ecuador,EC,ECU,Orellana,Orellana,EC-D,province,,151.2,,,4,America/Guayaquil,FALSE,1218946018
"Hacienda Chalanga","Hacienda Chalanga",Chalanga,-4.2667,-79.3833,Ecuador,EC,ECU,Loja,Loja,EC-L,province,,27.4,,,4,America/Guayaquil,FALSE,1218080497
Jiménez,Jimenez,,-3.3926,-79.2341,Ecuador,EC,ECU,Azuay,Azuay,EC-A,province,,15.3,,,4,America/Guayaquil,FALSE,1218000151
"La Florida","La Florida",,0.0854,-76.9577,Ecuador,EC,ECU,Sucumbíos,Sucumbios,EC-U,province,,38.0,,,4,America/Guayaquil,FALSE,1218347039
Mataje,Mataje,,1.0667,-78.5833,Ecuador,EC,ECU,Esmeraldas,Esmeraldas,EC-E,province,,8.2,,,5,America/Guayaquil,FALSE,1218797728
Mataje,Mataje,,1.3626,-78.7178,Ecuador,EC,ECU,Esmeraldas,Esmeraldas,EC-E,province,,6.3,,,5,America/Guayaquil,TRUE,1218999361
"La Florida","La Florida",,-0.0052,-78.9584,Ecuador,EC,ECU,Pichincha,Pichincha,EC-P,province,,29.4,,,4,America/Guayaquil,FALSE,1218509566
Atahualpa,Atahualpa,Chisalata,-1.2183,-78.6113,Ecuador,EC,ECU,Tungurahua,Tungurahua,EC-T,province,,2314.7,,,2,America/Guayaquil,FALSE,1218114881
"Hacienda Avelina","Hacienda Avelina",Avelina,-0.8000,-78.6333,Ecuador,EC,ECU,Cotopaxi,Cotopaxi,EC-X,province,,282.0,,,3,America/Guayaquil,FALSE,1218135156
"La Florida","La Florida",,-0.7935,-78.6834,Ecuador,EC,ECU,Cotopaxi,Cotopaxi,EC-X,province,,114.9,,,4,America/Guayaquil,FALSE,1218809315
"La Florida","La Florida",,-3.9191,-78.7331,Ecuador,EC,ECU,Zamora-Chinchipe,Zamora-Chinchipe,EC-Z,province,,29.9,,,4,America/Guayaquil,FALSE,1218804192
"La Florida","La Florida",,-3.6290,-78.9977,Ecuador,EC,ECU,Zamora-Chinchipe,Zamora-Chinchipe,EC-Z,province,,7.9,,,5,America/Guayaquil,TRUE,1218316753
"La Florida","La Florida",,1.2406,-78.7716,Ecuador,EC,ECU,Esmeraldas,Esmeraldas,EC-E,province,,130.8,,,4,America/Guayaquil,FALSE,1218778046
"La Florida","La Florida",,0.3546,-79.1084,Ecuador,EC,ECU,Esmeraldas,Esmeraldas,EC-E,province,,19.2,,,4,America/Guayaquil,TRUE,1218255502
Atahualpa,Atahualpa,,-0.0274,-79.9684,Ecuador,EC,ECU,Manabí,Manabi,EC-M,province,,17.7,,,4,America/Guayaquil,FALSE,1218466149
Salatí,Salati,,-3.7534,-79.5344,Ecuador,EC,ECU,"El Oro","El Oro",EC-O,province,,8.4,,,5,America/Guayaquil,FALSE,1218724160
"La Florida","La Florida",,-0.8444,-79.6783,Ecuador,EC,ECU,Manabí,Manabi,EC-M,province,,56.4,,,4,America/Guayaquil,FALSE,1218573625
"La Florida","La Florida",,-0.4251,-80.4495,Ecuador,EC,ECU,Manabí,Manabi,EC-M,province,,20.7,,,4,America/Guayaquil,TRUE,1218717380
Atahualpa,Atahualpa,,0.8667,-78.9833,Ecuador,EC,ECU,Esmeraldas,Esmeraldas,EC-E,province,,15.8,,,4,America/Guayaquil,FALSE,1218985704
Manzanilla,Manzanilla,,-3.2167,-79.5333,Ecuador,EC,ECU,Azuay,Azuay,EC-A,province,,19.1,,,4,America/Guayaquil,FALSE,1218664659
"Hacienda Valencia","Hacienda Valencia",Valencia,-0.3667,-78.4000,Ecuador,EC,ECU,Pichincha,Pichincha,EC-P,province,,485.8,,,3,America/Guayaquil,FALSE,1218638238
"Las Tolas","Las Tolas",,0.0823,-78.7749,Ecuador,EC,ECU,Pichincha,Pichincha,EC-P,province,,20.9,,,4,America/Guayaquil,FALSE,1218840716
"Hacienda Unagua","Hacienda Unagua",Unagua,-0.5333,-78.5667,Ecuador,EC,ECU,Pichincha,Pichincha,EC-P,province,,73.5,,,4,America/Guayaquil,FALSE,1218882050
Chichocucho,Chichocucho,,-3.4034,-79.2369,Ecuador,EC,ECU,Azuay,Azuay,EC-A,province,,15.3,,,4,America/Guayaquil,FALSE,1218000152
Curacaca,Curacaca,Curacaco,-3.7734,-78.8995,Ecuador,EC,ECU,Zamora-Chinchipe,Zamora-Chinchipe,EC-Z,province,,7.7,,,5,America/Guayaquil,FALSE,1218342262
"Nuestra Patria","Nuestra Patria",,0.0900,-79.2094,Ecuador,EC,ECU,Pichincha,Pichincha,EC-P,province,,36.8,,,4,America/Guayaquil,FALSE,1218299476
Jiat,Jiat,,-2.6130,-77.4687,Ecuador,EC,ECU,Morona-Santiago,Morona-Santiago,EC-S,province,,6.4,,,5,America/Guayaquil,FALSE,1218911932
"San Mateo","San Mateo",,-0.9592,-80.8116,Ecuador,EC,ECU,Manabí,Manabi,EC-M,province,,1333.3,,,3,America/Guayaquil,FALSE,1218367805
"San Mateo","San Mateo",,0.8917,-79.6331,Ecuador,EC,ECU,Esmeraldas,Esmeraldas,EC-E,province,,41.4,,,4,America/Guayaquil,FALSE,1218442752
"Hacienda Gualguro","Hacienda Gualguro",Gualguro,-3.2667,-79.4667,Ecuador,EC,ECU,Azuay,Azuay,EC-A,province,,19.1,,,4,America/Guayaquil,FALSE,1218967592
"Hacienda Chambapongo","Hacienda Chambapongo","Hacienda Chambapamgo",-1.0500,-78.5167,Ecuador,EC,ECU,Cotopaxi,Cotopaxi,EC-X,province,,188.1,,,4,America/Guayaquil,FALSE,1218629794
"Puerto Velasco Ibarra","Puerto Velasco Ibarra",,-1.2806,-90.4800,Ecuador,EC,ECU,Galápagos,Galapagos,EC-W,province,,0.7,,,5,Pacific/Galapagos,FALSE,1218022315
"Hacienda Ceuceda","Hacienda Ceuceda",Ceuceda,-2.2167,-80.1000,Ecuador,EC,ECU,Guayas,Guayas,EC-G,province,,1303.4,,,3,America/Guayaquil,FALSE,1218389436
"Hacienda Celestina","Hacienda Celestina",Celestina,-2.0833,-79.4000,Ecuador,EC,ECU,Guayas,Guayas,EC-G,province,,80.2,,,4,America/Guayaquil,FALSE,1218165692
"Las Lozas","Las Lozas",,-2.7540,-79.9064,Ecuador,EC,ECU,Guayas,Guayas,EC-G,province,,10.4,,,4,America/Guayaquil,FALSE,1218861165
Achiote,Achiote,,-1.6667,-79.6500,Ecuador,EC,ECU,"Los Ríos","Los Rios",EC-R,province,,91.5,,,4,America/Guayaquil,FALSE,1218277526
Achiote,Achiote,Achique|Achote,-1.2167,-79.5167,Ecuador,EC,ECU,"Los Ríos","Los Rios",EC-R,province,,83.0,,,4,America/Guayaquil,TRUE,1218134128
"Hacienda Pishinameca","Hacienda Pishinameca",Pishinameca,-4.2692,-79.6027,Ecuador,EC,ECU,Loja,Loja,EC-L,province,,63.4,,,4,America/Guayaquil,FALSE,1218288573
"Nambija Bajo","Nambija Bajo",,-3.9796,-78.8393,Ecuador,EC,ECU,Zamora-Chinchipe,Zamora-Chinchipe,EC-Z,province,,31.5,,,4,America/Guayaquil,FALSE,1218449992
"Hacienda Rumipungu","Hacienda Rumipungu",Rumipungu,-0.9333,-78.5500,Ecuador,EC,ECU,Cotopaxi,Cotopaxi,EC-X,province,,440.5,,,3,America/Guayaquil,FALSE,1218825276
"Hacienda La Delicia","Hacienda La Delicia","Delicias|La Delicia",-0.3000,-78.4833,Ecuador,EC,ECU,Pichincha,Pichincha,EC-P,province,,2633.0,,,2,America/Guayaquil,FALSE,1218577279
Sacansa,Sacansa,,-4.1219,-78.9128,Ecuador,EC,ECU,Zamora-Chinchipe,Zamora-Chinchipe,EC-Z,province,,9.1,,,5,America/Guayaquil,FALSE,1218594395
"Hacienda La Delicia","Hacienda La Delicia","La Delicia",-1.3038,-78.5088,Ecuador,EC,ECU,Tungurahua,Tungurahua,EC-T,province,,124.5,,,4,America/Guayaquil,FALSE,1218211771
"Hacienda Señor Farfán","Hacienda Senor Farfan","Señor Farfán",-2.8833,-79.0667,Ecuador,EC,ECU,Azuay,Azuay,EC-A,province,,1960.2,,,3,America/Guayaquil,FALSE,1218280944
Timbopamba,Timbopamba,,-1.6706,-78.9959,Ecuador,EC,ECU,Bolívar,Bolivar,EC-B,province,,21.3,,,4,America/Guayaquil,FALSE,1218000075
"Hacienda Algarrobera","Hacienda Algarrobera","Algarrobera|Hacienda Algarrovera",-4.0374,-79.3924,Ecuador,EC,ECU,Loja,Loja,EC-L,province,,16.9,,,4,America/Guayaquil,FALSE,1218590412
"Hacienda Taura","Hacienda Taura",,-2.3472,-79.6321,Ecuador,EC,ECU,Guayas,Guayas,EC-G,province,,15.0,,,4,America/Guayaquil,FALSE,1218603985
"Hacienda La Delicia","Hacienda La Delicia","La Delicia",-1.4667,-79.9333,Ecuador,EC,ECU,Guayas,Guayas,EC-G,province,,54.7,,,4,America/Guayaquil,FALSE,1218732111
"Hacienda La Delicia","Hacienda La Delicia","La Delicia",-1.5833,-78.6833,Ecuador,EC,ECU,Chimborazo,Chimborazo,EC-H,province,,69.3,,,4,America/Guayaquil,FALSE,1218499561
Colay,Colay,,-4.0876,-80.0052,Ecuador,EC,ECU,Loja,Loja,EC-L,province,,34.0,,,4,America/Guayaquil,FALSE,1218062280
"El Sesteadero","El Sesteadero",,-4.0667,-79.8833,Ecuador,EC,ECU,Loja,Loja,EC-L,province,,10.4,,,4,America/Guayaquil,FALSE,1218000009
"Hacienda Felicidad","Hacienda Felicidad",Felicidad,-1.7333,-78.6167,Ecuador,EC,ECU,Chimborazo,Chimborazo,EC-H,province,,82.9,,,4,America/Guayaquil,FALSE,1218486834
Ichañag,Ichanag,Ichañac|Ichaina,-1.9594,-78.6235,Ecuador,EC,ECU,Chimborazo,Chimborazo,EC-H,province,,16.6,,,4,America/Guayaquil,FALSE,1218999331
"Hacienda Limones","Hacienda Limones",Limones,-4.4167,-80.3833,Ecuador,EC,ECU,Loja,Loja,EC-L,province,,6.9,,,5,America/Guayaquil,FALSE,1218200748
Cargalchina,Cargalchina,,-2.5500,-79.2333,Ecuador,EC,ECU,Cañar,Canar,EC-F,province,,6.2,,,5,America/Guayaquil,FALSE,1218225327
Buenavista,Buenavista,,-3.8919,-79.7157,Ecuador,EC,ECU,Loja,Loja,EC-L,province,,30.5,,,4,America/Guayaquil,FALSE,1218562410
Buenavista,Buenavista,,-3.3631,-79.8440,Ecuador,EC,ECU,"El Oro","El Oro",EC-O,province,,179.9,,,4,America/Guayaquil,FALSE,1218256662
Buenavista,Buenavista,,-2.9897,-79.7310,Ecuador,EC,ECU,Guayas,Guayas,EC-G,province,,122.3,,,4,America/Guayaquil,FALSE,1218814621
Buenavista,Buenavista,,-2.2000,-80.3667,Ecuador,EC,ECU,Guayas,Guayas,EC-G,province,,7.6,,,5,America/Guayaquil,TRUE,1218591372
Antisana,Antisana,,-2.9500,-79.0167,Ecuador,EC,ECU,Azuay,Azuay,EC-A,province,,404.4,,,3,America/Guayaquil,FALSE,1218523216
"Todos los Santos","Todos los Santos",,-3.4667,-79.7667,Ecuador,EC,ECU,"El Oro","El Oro",EC-O,province,,41.7,,,4,America/Guayaquil,FALSE,1218147555
Trapasola,Trapasola,Trapazola,-3.8833,-80.1167,Ecuador,EC,ECU,"El Oro","El Oro",EC-O,province,,11.1,,,4,America/Guayaquil,FALSE,1218136398
Manzanapata,Manzanapata,,-2.6400,-78.6648,Ecuador,EC,ECU,Azuay,Azuay,EC-A,province,,29.4,,,4,America/Guayaquil,FALSE,1218660688
Buenavista,Buenavista,,0.4350,-76.2789,Ecuador,EC,ECU,Sucumbíos,Sucumbios,EC-U,province,,19.1,,,4,America/Guayaquil,FALSE,1218822947
Iñazari,Inazari,,-3.0333,-78.8500,Ecuador,EC,ECU,Azuay,Azuay,EC-A,province,,130.2,,,4,America/Guayaquil,FALSE,1218303261
"Hacienda San Carlos","Hacienda San Carlos","San Carlos",-0.1333,-78.5000,Ecuador,EC,ECU,Pichincha,Pichincha,EC-P,province,,5428.5,,,2,America/Guayaquil,FALSE,1218737625
"Hacienda San Carlos","Hacienda San Carlos","San Carlos",-0.2167,-78.4167,Ecuador,EC,ECU,Pichincha,Pichincha,EC-P,province,,1053.2,,,3,America/Guayaquil,TRUE,1218797292
"Hacienda San Carlos","Hacienda San Carlos","San Carlos",-0.1820,-78.3297,Ecuador,EC,ECU,Pichincha,Pichincha,EC-P,province,,307.5,,,3,America/Guayaquil,TRUE,1218779491
"Hacienda San Carlos","Hacienda San Carlos","San Carlos",-1.1724,-78.5184,Ecuador,EC,ECU,Tungurahua,Tungurahua,EC-T,province,,47.5,,,4,America/Guayaquil,FALSE,1218119124
"Hacienda San Carlos","Hacienda San Carlos","San Carlos",0.4484,-78.1645,Ecuador,EC,ECU,Imbabura,Imbabura,EC-I,province,,51.2,,,4,America/Guayaquil,FALSE,1218671318
"Hacienda San Carlos","Hacienda San Carlos","San Carlos",0.6333,-78.1500,Ecuador,EC,ECU,Imbabura,Imbabura,EC-I,province,,18.4,,,4,America/Guayaquil,TRUE,1218211641
Barbascal,Barbascal,,-2.0164,-80.6148,Ecuador,EC,ECU,Guayas,Guayas,EC-G,province,,36.4,,,4,America/Guayaquil,FALSE,1218460517
Salima,Salima,,0.3167,-79.9667,Ecuador,EC,ECU,Esmeraldas,Esmeraldas,EC-E,province,,35.1,,,4,America/Guayaquil,FALSE,1218350698
Cauchiche,Cauchiche,,-2.7500,-80.2167,Ecuador,EC,ECU,Guayas,Guayas,EC-G,province,,10.4,,,4,America/Guayaquil,FALSE,1218530413
"Hacienda Colache","Hacienda Colache",Colache,-0.5167,-78.5500,Ecuador,EC,ECU,Pichincha,Pichincha,EC-P,province,,73.5,,,4,America/Guayaquil,FALSE,1218709090
"Hacienda San Carlos","Hacienda San Carlos","San Carlos",-2.2167,-79.5167,Ecuador,EC,ECU,Guayas,Guayas,EC-G,province,,148.2,,,4,America/Guayaquil,FALSE,1218437581
"Hacienda San Carlos","Hacienda San Carlos",,-2.7923,-79.9349,Ecuador,EC,ECU,Guayas,Guayas,EC-G,province,,10.4,,,4,America/Guayaquil,TRUE,1218310800
"Balsa Real","Balsa Real",,-4.2382,-80.2442,Ecuador,EC,ECU,Loja,Loja,EC-L,province,,10.5,,,4,America/Guayaquil,FALSE,1218399807
Nunipaikami,Nunipaikami,,-3.1811,-78.2456,Ecuador,EC,ECU,Morona-Santiago,Morona-Santiago,EC-S,province,,3.1,,,5,America/Guayaquil,FALSE,1218120502
"Los Potreros","Los Potreros",,-1.2333,-79.7500,Ecuador,EC,ECU,"Los Ríos","Los Rios",EC-R,province,,47.2,,,4,America/Guayaquil,FALSE,1218199958
"Hacienda El Chicho","Hacienda El Chicho","El Chicho",-3.3747,-79.1637,Ecuador,EC,ECU,Azuay,Azuay,EC-A,province,,12.9,,,4,America/Guayaquil,FALSE,1218300198
"Hacienda Chizaló","Hacienda Chizalo",Chizaló,-0.7000,-78.8167,Ecuador,EC,ECU,Cotopaxi,Cotopaxi,EC-X,province,,30.7,,,4,America/Guayaquil,FALSE,1218776277
"Hacienda El Molino","Hacienda El Molino","El Molino",0.3667,-78.2500,Ecuador,EC,ECU,Imbabura,Imbabura,EC-I,province,,27.5,,,4,America/Guayaquil,FALSE,1218152624
"Sigsal Bajo","Sigsal Bajo",,0.0500,-78.1500,Ecuador,EC,ECU,Pichincha,Pichincha,EC-P,province,,166.2,,,4,America/Guayaquil,FALSE,1218258702
"El Portón","El Porton",Portón,-3.2667,-79.2667,Ecuador,EC,ECU,Azuay,Azuay,EC-A,province,,92.9,,,4,America/Guayaquil,FALSE,1218273439
"Hacienda El Molino","Hacienda El Molino","El Molino",-0.1167,-78.2833,Ecuador,EC,ECU,Pichincha,Pichincha,EC-P,province,,261.8,,,3,America/Guayaquil,FALSE,1218715656
"Luz de América","Luz de America",,-0.4012,-79.2988,Ecuador,EC,ECU,"Santo Domingo de los Tsáchilas","Santo Domingo de los Tsachilas",EC-SD,province,,45.8,,,4,America/Guayaquil,FALSE,1218027101
Ayamu,Ayamu,,-1.6502,-76.0726,Ecuador,EC,ECU,Pastaza,Pastaza,EC-Y,province,,0.5,,,5,America/Guayaquil,FALSE,1218434719
Lorocachi,Lorocachi,Loracachi,-1.6141,-75.9870,Ecuador,EC,ECU,Pastaza,Pastaza,EC-Y,province,,0.5,,,5,America/Guayaquil,FALSE,1218764153
Lorocachi,Lorocachi,,-2.0077,-76.4449,Ecuador,EC,ECU,Pastaza,Pastaza,EC-Y,province,,0.2,,,5,America/Guayaquil,TRUE,1218000101
Shordán,Shordan,Zhordan,-2.8346,-78.7229,Ecuador,EC,ECU,Azuay,Azuay,EC-A,province,,92.7,,,4,America/Guayaquil,FALSE,1218019146
Shordan,Shordan,,-2.6500,-78.6167,Ecuador,EC,ECU,Azuay,Azuay,EC-A,province,,28.7,,,4,America/Guayaquil,TRUE,1218774362
Miler,Miler,,0.0500,-78.9500,Ecuador,EC,ECU,Pichincha,Pichincha,EC-P,province,,29.4,,,4,America/Guayaquil,FALSE,1218735062
"Los Puentes","Los Puentes",,0.0460,-78.6743,Ecuador,EC,ECU,Pichincha,Pichincha,EC-P,province,,13.4,,,4,America/Guayaquil,FALSE,1218553159
Cera,Cera,,-3.9062,-79.2893,Ecuador,EC,ECU,Loja,Loja,EC-L,province,,44.1,,,4,America/Guayaquil,FALSE,1218493110
"Hacienda San Francisco","Hacienda San Francisco",,-1.2213,-78.5708,Ecuador,EC,ECU,Tungurahua,Tungurahua,EC-T,province,,581.2,,,3,America/Guayaquil,FALSE,1218616082
"Puerto San Miguel","Puerto San Miguel",,0.2408,-76.8442,Ecuador,EC,ECU,Sucumbíos,Sucumbios,EC-U,province,,18.4,,,4,America/Bogota,FALSE,1218834938
Tuntún,Tuntun,,-4.3167,-79.5667,Ecuador,EC,ECU,Loja,Loja,EC-L,province,,63.4,,,4,America/Guayaquil,FALSE,1218156453
"Hacienda San Francisco","Hacienda San Francisco","San Francisco",-0.2000,-78.5333,Ecuador,EC,ECU,Pichincha,Pichincha,EC-P,province,,5428.5,,,2,America/Guayaquil,FALSE,1218142203
"Hacienda San Francisco","Hacienda San Francisco","San Francisco",-0.2580,-78.4843,Ecuador,EC,ECU,Pichincha,Pichincha,EC-P,province,,4702.4,,,2,America/Guayaquil,TRUE,1218590151
"Hacienda San Francisco","Hacienda San Francisco","San Francisco",-0.3167,-78.4333,Ecuador,EC,ECU,Pichincha,Pichincha,EC-P,province,,1407.5,,,3,America/Guayaquil,TRUE,1218228343
"Hacienda San Francisco","Hacienda San Francisco","San Francisco",-0.5500,-78.5833,Ecuador,EC,ECU,Pichincha,Pichincha,EC-P,province,,73.5,,,4,America/Guayaquil,TRUE,1218511775
"Hacienda San Francisco","Hacienda San Francisco","San Francisco",0.0000,-78.5000,Ecuador,EC,ECU,Pichincha,Pichincha,EC-P,province,,25.5,,,4,America/Guayaquil,TRUE,1218975734
"Hacienda San Francisco","Hacienda San Francisco","San Francisco",0.3482,-78.0969,Ecuador,EC,ECU,Imbabura,Imbabura,EC-I,province,,683.3,,,3,America/Guayaquil,FALSE,1218841404
"Hacienda San Francisco","Hacienda San Francisco","San Francisco",0.4542,-78.2165,Ecuador,EC,ECU,Imbabura,Imbabura,EC-I,province,,50.1,,,4,America/Guayaquil,TRUE,1218336661
"Quince de Mayo","Quince de Mayo",,0.2335,-79.1346,Ecuador,EC,ECU,Pichincha,Pichincha,EC-P,province,,25.8,,,4,America/Guayaquil,FALSE,1218229809
"Hacienda San Francisco","Hacienda San Francisco","San Francisco",0.5090,-77.9888,Ecuador,EC,ECU,Carchi,Carchi,EC-C,province,,28.2,,,4,America/Guayaquil,FALSE,1218285936
"Hacienda San Francisco","Hacienda San Francisco","San Francisco",-2.9167,-79.5667,Ecuador,EC,ECU,Azuay,Azuay,EC-A,province,,14.9,,,4,America/Guayaquil,FALSE,1218438215
Juncal,Juncal,,-2.4863,-78.9682,Ecuador,EC,ECU,Cañar,Canar,EC-F,province,,23.6,,,4,America/Guayaquil,FALSE,1218331334
Capur,Capur,,-3.8245,-79.2274,Ecuador,EC,ECU,Loja,Loja,EC-L,province,,32.9,,,4,America/Guayaquil,FALSE,1218695509
Curiachi,Curiachi,,-4.0536,-80.1165,Ecuador,EC,ECU,Loja,Loja,EC-L,province,,48.4,,,4,America/Guayaquil,FALSE,1218451008
Juncal,Juncal,Tambo|Jucal,0.8500,-78.0500,Ecuador,EC,ECU,Carchi,Carchi,EC-C,province,,8.8,,,5,America/Guayaquil,FALSE,1218439122
Guangancho,Guangancho,,-2.8833,-78.8167,Ecuador,EC,ECU,Azuay,Azuay,EC-A,province,,231.6,,,3,America/Guayaquil,FALSE,1218526550
Pititic,Pititic,,-1.3982,-78.4353,Ecuador,EC,ECU,Tungurahua,Tungurahua,EC-T,province,,168.0,,,4,America/Guayaquil,FALSE,1218301127
Arquillo,Arquillo,,-2.7667,-79.4500,Ecuador,EC,ECU,Azuay,Azuay,EC-A,province,,8.8,,,5,America/Guayaquil,FALSE,1218727238
Jimbilla,Jimbilla,,-3.8603,-79.1721,Ecuador,EC,ECU,Loja,Loja,EC-L,province,,12.2,,,4,America/Guayaquil,FALSE,1218480706
"Quebrada Seca","Quebrada Seca",,-3.5000,-79.7667,Ecuador,EC,ECU,"El Oro","El Oro",EC-O,province,,3.6,,,5,America/Guayaquil,FALSE,1218701933
Zatzayacu,Zatzayacu,Zarzayacu,-1.1833,-77.8667,Ecuador,EC,ECU,Napo,Napo,EC-N,province,,12.0,,,4,America/Guayaquil,FALSE,1218408096
"Jibaría Añangu","Jibaria Anangu",,-2.4500,-76.9833,Ecuador,EC,ECU,Pastaza,Pastaza,EC-Y,province,,0.7,,,5,America/Guayaquil,FALSE,1218156241
Chaupihacienda,Chaupihacienda,,-2.9833,-78.9000,Ecuador,EC,ECU,Azuay,Azuay,EC-A,province,,150.0,,,4,America/Guayaquil,FALSE,1218925936
"La Cubera","La Cubera",,0.1635,-79.2235,Ecuador,EC,ECU,Pichincha,Pichincha,EC-P,province,,36.8,,,4,America/Guayaquil,FALSE,1218969853
"Hacienda Capricho","Hacienda Capricho",Capricho,-2.3500,-79.4000,Ecuador,EC,ECU,Cañar,Canar,EC-F,province,,135.7,,,4,America/Guayaquil,FALSE,1218164155
Caluguro,Caluguro,,-3.5167,-79.8833,Ecuador,EC,ECU,"El Oro","El Oro",EC-O,province,,24.3,,,4,America/Guayaquil,FALSE,1218049978
"El Cruce","El Cruce",,-3.3833,-80.3167,Ecuador,EC,ECU,"El Oro","El Oro",EC-O,province,,9.0,,,5,America/Guayaquil,FALSE,1218367938
Margarita,Margarita,,-1.9333,-79.8167,Ecuador,EC,ECU,Guayas,Guayas,EC-G,province,,140.8,,,4,America/Guayaquil,FALSE,1218311701
Margarita,Margarita,,-1.6167,-79.8667,Ecuador,EC,ECU,Guayas,Guayas,EC-G,province,,100.4,,,4,America/Guayaquil,TRUE,1218271028
"El Cruce","El Cruce",,-1.9000,-79.8500,Ecuador,EC,ECU,Guayas,Guayas,EC-G,province,,260.7,,,3,America/Guayaquil,FALSE,1218114256
"Buena Suerte","Buena Suerte",,-1.7667,-79.8167,Ecuador,EC,ECU,Guayas,Guayas,EC-G,province,,138.2,,,4,America/Guayaquil,FALSE,1218113270
Rupancay,Rupancay,,-2.9667,-78.8167,Ecuador,EC,ECU,Azuay,Azuay,EC-A,province,,184.0,,,4,America/Guayaquil,FALSE,1218000012
"Las Lomas de Arriba","Las Lomas de Arriba","Las Lomas Arriba|Lomas de Arriba",-1.8667,-80.1000,Ecuador,EC,ECU,Guayas,Guayas,EC-G,province,,331.0,,,3,America/Guayaquil,FALSE,1218422222
"Buena Suerte","Buena Suerte",,0.0528,-79.2181,Ecuador,EC,ECU,Pichincha,Pichincha,EC-P,province,,36.8,,,4,America/Guayaquil,FALSE,1218671259
Cabuya,Cabuya,,-1.4712,-79.9337,Ecuador,EC,ECU,Guayas,Guayas,EC-G,province,,54.7,,,4,America/Guayaquil,FALSE,1218866863
Mechichi,Mechichi,,-0.3000,-78.8500,Ecuador,EC,ECU,Pichincha,Pichincha,EC-P,province,,19.2,,,4,America/Guayaquil,FALSE,1218420432
"Bajo de Afuera","Bajo de Afuera",,-1.0789,-80.6696,Ecuador,EC,ECU,Manabí,Manabi,EC-M,province,,121.3,,,4,America/Guayaquil,FALSE,1218445269
"La Tapaza","La Tapaza",,-3.8285,-78.6919,Ecuador,EC,ECU,Zamora-Chinchipe,Zamora-Chinchipe,EC-Z,province,,55.0,,,4,America/Guayaquil,FALSE,1218609829
"Pablo Arenas","Pablo Arenas",,0.5010,-78.1894,Ecuador,EC,ECU,Imbabura,Imbabura,EC-I,province,,44.6,,,4,America/Guayaquil,FALSE,1218059811
"Los Calis","Los Calis",,-2.0667,-79.8167,Ecuador,EC,ECU,Guayas,Guayas,EC-G,province,,276.8,,,3,America/Guayaquil,FALSE,1218360669
"Puerto Salinas","Puerto Salinas",,-2.6333,-80.0167,Ecuador,EC,ECU,Guayas,Guayas,EC-G,province,,1303.4,,,3,America/Guayaquil,FALSE,1218148021
Musmus,Musmus,,-2.9294,-78.7627,Ecuador,EC,ECU,Azuay,Azuay,EC-A,province,,159.3,,,4,America/Guayaquil,FALSE,1218197730
Rirpur,Rirpur,,-2.4833,-79.1000,Ecuador,EC,ECU,Cañar,Canar,EC-F,province,,109.9,,,4,America/Guayaquil,FALSE,1218567822
"Don Tomás","Don Tomas",,-2.0333,-77.0500,Ecuador,EC,ECU,Pastaza,Pastaza,EC-Y,province,,0.7,,,5,America/Guayaquil,FALSE,1218022953
Sunimón,Sunimon,Sumino,-0.9580,-77.4227,Ecuador,EC,ECU,Napo,Napo,EC-N,province,,11.5,,,4,America/Guayaquil,FALSE,1218375363
Juturi,Juturi,Yuturi,-0.5701,-76.0146,Ecuador,EC,ECU,Orellana,Orellana,EC-D,province,,1.8,,,5,America/Guayaquil,FALSE,1218856578
"El Carmelo","El Carmelo",,0.6705,-77.5921,Ecuador,EC,ECU,Carchi,Carchi,EC-C,province,,110.2,,,4,America/Guayaquil,FALSE,1218281802
"El Carmelo","El Carmelo",,-2.9500,-79.9000,Ecuador,EC,ECU,Guayas,Guayas,EC-G,province,,0,,,5,America/Guayaquil,FALSE,1218507718
"El Carmelo","El Carmelo",,-3.8231,-78.8579,Ecuador,EC,ECU,Zamora-Chinchipe,Zamora-Chinchipe,EC-Z,province,,14.1,,,4,America/Guayaquil,FALSE,1218515339
Huaca,Huaca,,0.6342,-77.7247,Ecuador,EC,ECU,Carchi,Carchi,EC-C,province,,182.8,,,4,America/Guayaquil,FALSE,1218072755
"Yegua Baya","Yegua Baya",,-4.2667,-80.1667,Ecuador,EC,ECU,Loja,Loja,EC-L,province,,24.3,,,4,America/Guayaquil,FALSE,1218867867
Chichirota,Chichirota,Chichirata,-2.3595,-76.6700,Ecuador,EC,ECU,Pastaza,Pastaza,EC-Y,province,,0.7,,,5,America/Guayaquil,FALSE,1218295154
"Hacienda Naranjal","Hacienda Naranjal",Naranjal,0.6681,-78.1664,Ecuador,EC,ECU,Carchi,Carchi,EC-C,province,,20.3,,,4,America/Guayaquil,FALSE,1218712006
Cochapata,Cochapata,,-3.3916,-79.0870,Ecuador,EC,ECU,Azuay,Azuay,EC-A,province,,30.5,,,4,America/Guayaquil,FALSE,1218921831
Oso,Oso,,0.7000,-78.3000,Ecuador,EC,ECU,Imbabura,Imbabura,EC-I,province,,10.3,,,4,America/Guayaquil,FALSE,1218988181
Pujipamba,Pujipamba,,-0.7652,-78.9242,Ecuador,EC,ECU,Cotopaxi,Cotopaxi,EC-X,province,,38.3,,,4,America/Guayaquil,FALSE,1218442882
