city,city_ascii,city_alt,lat,lng,country,iso2,iso3,admin_name,admin_name_ascii,admin_code,admin_type,capital,density,population,population_proper,ranking,timezone,same_name,id
Cairo,Cairo,"Misr|El Kahira|El Kahirah|Masr|Le Caire|Kairo|El-Qâhira|Al Qāhirah",30.0444,31.2358,Egypt,EG,EGY,"Al Qāhirah","Al Qahirah",EG-C,governorate,primary,10097.5,20296000,9500000,1,Africa/Cairo,FALSE,1818253931
Giza,Giza,"Ghizeh|El-Gîza|El Gizeh|Gizah|Gizeh|Gîza|Al Jīzah",29.9870,31.2118,Egypt,EG,EGY,"Al Jīzah","Al Jizah",EG-GZ,governorate,admin,44383.6,5598402,5598402,1,Africa/Cairo,FALSE,1818925479
Alexandria,Alexandria,"Iskindirîya|Alexandrie|Alessandria|El Iskandarīya|Al Iskandarīyah",31.1975,29.8925,Egypt,EG,EGY,"Al Iskandarīyah","Al Iskandariyah",EG-ALX,governorate,admin,1930.2,4870000,4870000,1,Africa/Cairo,FALSE,1818695837
"Shubrā al Khaymah","Shubra al Khaymah","Shubra al-Khayma|Shubra el-Kheima",30.1286,31.2422,Egypt,EG,EGY,"Al Qalyūbīyah","Al Qalyubiyah",EG-KB,governorate,,3788.9,1025569,1025569,1,Africa/Cairo,FALSE,1818909612
Ashmūn,Ashmun,ASHMŪN,30.2941,31.0342,Egypt,EG,EGY,"Al Minūfīyah","Al Minufiyah",EG-MNF,governorate,,2855.5,901191,901191,2,Africa/Cairo,FALSE,1818251892
Sinnūris,Sinnuris,,29.4072,30.8667,Egypt,EG,EGY,"Al Fayyūm","Al Fayyum",EG-FYM,governorate,,3077.3,692701,692701,2,Africa/Cairo,FALSE,1818442898
Dayrūţ,Dayrut,"Dayrūţ al Maḩaţţah|Dairût|Deirout|Dairût el Maḥaṭṭa|Deirut|Dayrūṭ",27.5667,30.8167,Egypt,EG,EGY,Asyūţ,Asyut,EG-AST,governorate,,2862.7,653847,653847,2,Africa/Cairo,FALSE,1818248895
Ţūkh,Tukh,"Tûkh|Ţūkh al Malaq|Tûkh el-Malaq|Ṭūkh|Toukh",30.3539,31.2007,Egypt,EG,EGY,"Al Qalyūbīyah","Al Qalyubiyah",EG-KB,governorate,,2787.7,627290,627290,2,Africa/Cairo,FALSE,1818411967
"Al Manşūrah","Al Mansurah",Mansoura|Manoura|Mansûra|El-Masûra|Mansurah|Mansourah|El-Manṣûra|Al-Manṣūrah,31.0500,31.3833,Egypt,EG,EGY,"Ad Daqahlīyah","Ad Daqahliyah",EG-DK,governorate,admin,22055.1,621953,621953,2,Africa/Cairo,FALSE,1818255319
Ḩalwān,Halwan,"Ḥelwân|Ḩulwān|Hilwan|Helwan Les Bains|Helouan|Hélouan-les-Bains",29.8453,31.3333,Egypt,EG,EGY,"Al Qāhirah","Al Qahirah",EG-C,governorate,,9527.6,619293,619293,2,Africa/Cairo,FALSE,1818000039
"Al Maḩallah al Kubrá","Al Mahallah al Kubra","Mehalla el Kobra|El Mahalla el Kubra|El Mahalla|El-Maḥalla el-Kubra|Al-Maḥallah al-Kubra’|El Mehalla el Kubra|Mahalla el Kubra",30.9686,31.1636,Egypt,EG,EGY,"Al Gharbīyah","Al Gharbiyah",EG-GH,governorate,,24164.2,592573,592573,2,Africa/Cairo,FALSE,1818406471
"Shibīn al Qanāţir","Shibin al Qanatir","Shabīn al Qanātir|Shabir al-Kanatir|Shibîn el-Qanâṭir",30.3133,31.3214,Egypt,EG,EGY,"Al Qalyūbīyah","Al Qalyubiyah",EG-KB,governorate,,4118.8,570868,570868,2,Africa/Cairo,FALSE,1818406704
"Abū Ḩummuş","Abu Hummus","Abu Ḥummuṣ|Abu Ḥuminuṣ|Abou Hommos|Abu Humus|Abū Hummuṣ",31.1006,30.3128,Egypt,EG,EGY,"Al Buḩayrah","Al Buhayrah",EG-BH,governorate,,1049.3,569157,569157,2,Africa/Cairo,FALSE,1818221429
"Port Said","Port Said","Bor Sa‘īd|Madînat Būr Sa‘īd|Madînet Port Said|Port Said|Būr Sa‘īd",31.2625,32.3061,Egypt,EG,EGY,"Būr Sa‘īd","Bur Sa'id",EG-PTS,governorate,admin,388.2,524433,524433,2,Africa/Cairo,FALSE,1818628574
"Al Fayyūm","Al Fayyum","Fayoum|Fayoom|Crocodilopolis|El Faiyûm|Medinat Fayum|Fayyoum|Madīnet el Faiyūm|Shedit|Médinat el-Fayoum|Arsinoë|Fayyum|Fayum",29.3084,30.8441,Egypt,EG,EGY,"Al Fayyūm","Al Fayyum",EG-FYM,governorate,admin,28056.6,519047,519047,2,Africa/Cairo,FALSE,1818281002
Suez,Suez,"El Seweis|El Suweis|Klysma|As Suways|El-Qulzum|Suës|Es Suweis|Al Qulzum|Clysma",29.9667,32.5500,Egypt,EG,EGY,"As Suways","As Suways",EG-SUZ,governorate,admin,2064.5,516959,516959,2,Africa/Cairo,FALSE,1818495972
"Abū Ţisht","Abu Tisht","Abū Tisht",26.1183,32.0953,Egypt,EG,EGY,Qinā,Qina,EG-KN,governorate,,71.1,514535,514535,2,Africa/Cairo,FALSE,1818097618
"Al Fashn","Al Fashn","Fashn|El Fashn",28.8227,30.8992,Egypt,EG,EGY,"Banī Suwayf","Bani Suwayf",EG-BNS,governorate,,1900.7,512242,512242,2,Africa/Cairo,FALSE,1818503615
Bibā,Biba,Beba,28.9218,30.9844,Egypt,EG,EGY,"Banī Suwayf","Bani Suwayf",EG-BNS,governorate,,2651.7,509384,509384,2,Africa/Cairo,FALSE,1818994454
Akhmīm,Akhmim,Ekhmin|Khemmis|Panopolis|Paloupolis|Akhmûn|Panospolis,26.5667,31.7500,Egypt,EG,EGY,Sūhāj,Suhaj,EG-SHG,governorate,,4241.4,482666,482666,2,Africa/Cairo,FALSE,1818295057
"Al Marāghah","Al Maraghah","El Marâgha",26.7000,31.6000,Egypt,EG,EGY,Sūhāj,Suhaj,EG-SHG,governorate,,3004.7,432678,432678,2,Africa/Cairo,FALSE,1818170583
Ţanţā,Tanta,Ṭanṭa|Tanda|Ṭanṭa|Ṭanṭā,30.7833,31.0000,Egypt,EG,EGY,"Al Gharbīyah","Al Gharbiyah",EG-GH,governorate,admin,29571.7,429503,429503,2,Africa/Cairo,FALSE,1818501770
Ismailia,Ismailia,"Ismailîya|Ismailieh|Al Ismā‘īlīyah|Al Ismā‘īlīya|Ismailiyah",30.5833,32.2667,Egypt,EG,EGY,"Al Ismā‘īlīyah","Al Isma'iliyah",EG-IS,governorate,admin,2045.1,429465,429465,2,Africa/Cairo,FALSE,1818532766
"Al Bājūr","Al Bajur","El Baqur|El-Bâgûr",30.4333,31.0569,Egypt,EG,EGY,"Al Minūfīyah","Al Minufiyah",EG-MNF,governorate,,2540.3,427017,427017,2,Africa/Cairo,FALSE,1818896076
Awsīm,Awsim,"Letopolis|Ausîm|Usiim|Letous Polis",30.1167,31.1333,Egypt,EG,EGY,"Al Jīzah","Al Jizah",EG-GZ,governorate,,5741.4,415735,415735,2,Africa/Cairo,FALSE,1818167257
Talā,Tala,Talla|Tala,30.6801,30.9438,Egypt,EG,EGY,"Al Minūfīyah","Al Minufiyah",EG-MNF,governorate,,2197.8,413839,413839,2,Africa/Cairo,FALSE,1818590732
Ţalkhā,Talkha,Talha|Ṭalkhā|Ṭalkha,31.0547,31.3756,Egypt,EG,EGY,"Ad Daqahlīyah","Ad Daqahliyah",EG-DK,governorate,,2634.3,413584,413584,2,Africa/Cairo,FALSE,1818821824
Asyūţ,Asyut,Assiut|Assuit|Siut|Lycopolis|Līkūpūlīs|Licopolis|Assiout,27.1833,31.1667,Egypt,EG,EGY,Asyūţ,Asyut,EG-AST,governorate,admin,19874.8,389307,389307,2,Africa/Cairo,FALSE,1818456592
Dikirnis,Dikirnis,Dikinis|Dekernes|DIKIRNIS,31.0883,31.5969,Egypt,EG,EGY,"Ad Daqahlīyah","Ad Daqahliyah",EG-DK,governorate,,1562.7,372871,372871,2,Africa/Cairo,FALSE,1818065059
"Ash Shuhadā’","Ash Shuhada'","El Shohada|El-Shuhada|Esh-Shuhada|Ash Shudadā’",30.6039,30.9021,Egypt,EG,EGY,"Al Minūfīyah","Al Minufiyah",EG-MNF,governorate,,2268.9,358486,358486,2,Africa/Cairo,FALSE,1818906012
"Birkat as Sab‘","Birkat as Sab`","Birket el-Sab‘|Birket es-Sab‘a|Birket es Sab",30.6338,31.0848,Egypt,EG,EGY,"Al Minūfīyah","Al Minufiyah",EG-MNF,governorate,,2768.6,330847,330847,2,Africa/Cairo,FALSE,1818672478
"Az Zaqāzīq","Az Zaqaziq","Zaqazîq|Az Zagāzīg|Zagazig|Es Zaqiziq|Ez Zaqāzīq|As Zaqāzīq",30.5667,31.5000,Egypt,EG,EGY,"Ash Sharqīyah","Ash Sharqiyah",EG-SHR,governorate,admin,30746.1,302840,302840,2,Africa/Cairo,FALSE,1818017750
"Al Waqf","Al Waqf","El Waqf and El Qilamîna|El-Waqf|Al Waqf wa al Qilamīnah",26.0808,32.4245,Egypt,EG,EGY,Qinā,Qina,EG-KN,governorate,,1689.9,301486,301486,2,Africa/Cairo,FALSE,1818448534
"Al ‘Ajamī","Al `Ajami","Al-‘Ajamī|Agami|El Agami",31.0959,29.7604,Egypt,EG,EGY,"Al Iskandarīyah","Al Iskandariyah",EG-ALX,governorate,,12188.6,300000,300000,2,Africa/Cairo,FALSE,1818001525
"Al Maţarīyah","Al Matariyah","El-Maṭarîya|El Mataria|Matarieh",31.1833,32.0333,Egypt,EG,EGY,"Ad Daqahlīyah","Ad Daqahliyah",EG-DK,governorate,,2445.5,300000,300000,2,Africa/Cairo,FALSE,1818621008
Shubrākhīt,Shubrakhit,"Shubra Khêt|Shubrā Khīt",31.0275,30.7128,Egypt,EG,EGY,"Al Buḩayrah","Al Buhayrah",EG-BH,governorate,,1509.8,295777,295777,2,Africa/Cairo,FALSE,1818459935
"Kafr Şaqr","Kafr Saqr","Kafr Ṣaqr",30.7964,31.6261,Egypt,EG,EGY,"Ash Sharqīyah","Ash Sharqiyah",EG-SHR,governorate,,1654.1,294765,294765,2,Africa/Cairo,FALSE,1818242505
Qillīn,Qillin,Qallīn,31.0464,30.8546,Egypt,EG,EGY,"Kafr ash Shaykh","Kafr ash Shaykh",EG-KFS,governorate,,1766.0,284853,284853,2,Africa/Cairo,FALSE,1818166178
"Shibīn al Kawm","Shibin al Kawm","Shibîn el-Kôm|Shebin al-Kom|Shabin al-Kum",30.5586,31.0100,Egypt,EG,EGY,"Al Minūfīyah","Al Minufiyah",EG-MNF,governorate,admin,9398.3,267945,267945,2,Africa/Cairo,FALSE,1818787044
Aswān,Aswan,Syena|Assouan|Syene|Es-Suan|Assuan|Syeue|Aswân,24.0889,32.8997,Egypt,EG,EGY,Aswān,Aswan,EG-ASN,governorate,admin,1012.7,267913,267913,2,Africa/Cairo,FALSE,1818262512
"Kafr ad Dawwār","Kafr ad Dawwar","Kafr al-Dawar|Kafr el Dawdar|Kafr el-Dauwâr|Kafr ed-Dauwâr",31.1311,30.1300,Egypt,EG,EGY,"Al Buḩayrah","Al Buhayrah",EG-BH,governorate,,445.3,262748,262748,2,Africa/Cairo,FALSE,1818347704
"Râs el-Barr","Ras el-Barr",,31.5125,31.8256,Egypt,EG,EGY,"Ad Daqahlīyah","Ad Daqahliyah",EG-DK,governorate,,4151.7,250000,250000,2,Africa/Cairo,FALSE,1818918758
"Al ‘Āshir min Ramaḑān","Al `Ashir min Ramadan","Ramadan City|10 Ramadan City|Tenth of Ramadan City|Ramadan 10 City|Ramadan the 10th City|10th of Ramadan City|Madīnat al ‘Āshir min Ramaḑān",30.3065,31.7415,Egypt,EG,EGY,"Ash Sharqīyah","Ash Sharqiyah",EG-SHR,governorate,,3729.5,246148,246148,2,Africa/Cairo,FALSE,1818297014
Damanhūr,Damanhur,"Hermupolis Parva|Hermopolis Parva|Bandar Damanhūr|Damanhûr|Damanhour",31.0361,30.4694,Egypt,EG,EGY,"Al Buḩayrah","Al Buhayrah",EG-BH,governorate,admin,46521.5,244043,244043,2,Africa/Cairo,FALSE,1818708838
"Al Minyā","Al Minya","Minieh|Minia|Minya|El-Minya|El Minia",28.1194,30.7444,Egypt,EG,EGY,"Al Minyā","Al Minya",EG-MN,governorate,admin,18907.0,236043,236043,2,Africa/Cairo,FALSE,1818607968
Biyalā,Biyala,Biyala,31.1747,31.2204,Egypt,EG,EGY,"Kafr ash Shaykh","Kafr ash Shaykh",EG-KFS,governorate,,730.7,231569,231569,2,Africa/Cairo,FALSE,1818176148
Sāqultah,Saqultah,"Sāqultah wa al ‘Arab|Saqulta and el ‘Arab|Saqulta",26.6500,31.6667,Egypt,EG,EGY,Sūhāj,Suhaj,EG-SHG,governorate,,2694.6,227719,227719,2,Africa/Cairo,FALSE,1818878774
Mallawī,Mallawi,Mallauri,27.7333,30.8333,Egypt,EG,EGY,"Al Minyā","Al Minya",EG-MN,governorate,,11028.4,212628,212628,2,Africa/Cairo,FALSE,1818284236
Farshūţ,Farshut,Farshuut|Farshūṭ,26.0550,32.1639,Egypt,EG,EGY,Qinā,Qina,EG-KN,governorate,,2527.4,207547,207547,2,Africa/Cairo,FALSE,1818845921
Damietta,Damietta,Dimyāṭ|Damiette|Dumyāţ|Dumqat|Dumiat|Damiata|Dumyâṭ,31.4167,31.8214,Egypt,EG,EGY,Dumyāţ,Dumyat,EG-DT,governorate,admin,13758.8,206664,206664,2,Africa/Cairo,FALSE,1818333966
Luxor,Luxor,"Luqsor|Luksor|El Qusur|El Uqsor|El Aqsur|El-Aksur|Louksor|El Kusur|Al-Uqṣur|Al Uqşur",25.6967,32.6444,Egypt,EG,EGY,"Al Uqşur","Al Uqsur",EG-LX,governorate,admin,486.1,202232,202232,2,Africa/Cairo,FALSE,1818948225
"Timayy al Imdīd","Timayy al Imdid","Timay al Amdīd|Timai el-Amdîd",30.9438,31.5293,Egypt,EG,EGY,"Ad Daqahlīyah","Ad Daqahliyah",EG-DK,governorate,,1541.6,201956,201956,2,Africa/Cairo,FALSE,1818481287
Qinā,Qina,Caene|Keneh|Kena|Qena|Qanā,26.1667,32.7167,Egypt,EG,EGY,Qinā,Qina,EG-KN,governorate,admin,8002.6,201191,201191,2,Africa/Cairo,FALSE,1818868450
Şidfā,Sidfa,Şidfah|Ṣidfā,26.9653,31.3808,Egypt,EG,EGY,Asyūţ,Asyut,EG-AST,governorate,,2345.9,200977,200977,2,Africa/Cairo,FALSE,1818711089
Sūhāj,Suhaj,Sawhāj|Suwhaj|Sūhāg|Sohāg|Souhag,26.5500,31.7000,Egypt,EG,EGY,Sūhāj,Suhaj,EG-SHG,governorate,admin,2851.9,193931,193931,2,Africa/Cairo,FALSE,1818460403
"Banī Suwayf","Bani Suwayf","Beni Suef|Beni Suweif|Beni Sue|Beni Souef",29.0667,31.0833,Egypt,EG,EGY,"Banī Suwayf","Bani Suwayf",EG-BNS,governorate,admin,19510.8,193048,193048,2,Africa/Cairo,FALSE,1818902849
"Al ‘Arīsh","Al `Arish","Rhinocolorum|Rhinokorura|Rhinocorura|Rhinocolura|City of Cut Noses|El-‘Arîsh",31.1249,33.8006,Egypt,EG,EGY,"Shamāl Sīnā’","Shamal Sina'",EG-SIN,governorate,admin,982.0,178651,178651,2,Africa/Cairo,FALSE,1818291145
"Ar Raḩmānīyah","Ar Rahmaniyah","Ar Raḥmāniyyah|Er-Rahmânîyeh|Ar Rahmaniyyah|Er-Raḥmânîya|El-Raḥmânîya|Al Rahmaniyah",31.1062,30.6337,Egypt,EG,EGY,"Al Buḩayrah","Al Buhayrah",EG-BH,governorate,,1435.6,176315,176315,2,Africa/Cairo,FALSE,1818669069
"Al Ghardaqah","Al Ghardaqah",El-Ghardaqa|Urgada|Hurghada|Al-Ghardaqa,27.2578,33.8117,Egypt,EG,EGY,"Al Baḩr al Aḩmar","Al Bahr al Ahmar",EG-BA,governorate,admin,1936.0,160901,160901,2,Africa/Cairo,FALSE,1818666245
Banhā,Banha,"Athribis|Bandar Banhā|Benna|Benha",30.4667,31.1833,Egypt,EG,EGY,"Al Qalyūbīyah","Al Qalyubiyah",EG-KB,governorate,admin,16720.6,157701,157701,2,Africa/Cairo,FALSE,1818596265
Qalyūb,Qalyub,Kalyûb|Qaliub,30.1997,31.2053,Egypt,EG,EGY,"Al Qalyūbīyah","Al Qalyubiyah",EG-KB,governorate,,7296.5,156363,156363,2,Africa/Cairo,FALSE,1818824672
"Madīnat as Sādis min Uktūbar","Madinat as Sadis min Uktubar","Madīnat 6 Uktūbar|Madīnat Sittat Uktūbar|October 6|6 October City",29.9833,30.9667,Egypt,EG,EGY,"Al Jīzah","Al Jizah",EG-GZ,governorate,,708.5,154093,154093,2,Africa/Cairo,FALSE,1818735651
"Kafr ash Shaykh","Kafr ash Shaykh","Kafr al-Sheikh|Kafr el-Sheikh|Kafr-Sheikh",31.1117,30.9458,Egypt,EG,EGY,"Kafr ash Shaykh","Kafr ash Shaykh",EG-KFS,governorate,admin,9681.7,147393,147393,2,Africa/Cairo,FALSE,1818743040
Disūq,Disuq,Dasūq|Dessouk,31.1422,30.6450,Egypt,EG,EGY,"Kafr ash Shaykh","Kafr ash Shaykh",EG-KFS,governorate,,4894.7,143404,143404,2,Africa/Cairo,FALSE,1818106054
Bilbays,Bilbays,Belbeis|Bilbês|Bilbeis,30.4167,31.5667,Egypt,EG,EGY,"Ash Sharqīyah","Ash Sharqiyah",EG-SHR,governorate,,2570.5,141285,141285,2,Africa/Cairo,FALSE,1818863783
Idfū,Idfu,"Apollonopolis Magna|Apollinopolis Magna|Edfou|Idfu Baḥari|Idfu|Edfu|Idfū Baḩri",24.9778,32.8733,Egypt,EG,EGY,Aswān,Aswan,EG-ASN,governorate,,212.2,133772,133772,2,Africa/Cairo,FALSE,1818755693
Rosetta,Rosetta,Er-Rashid|Bolbitine|Rashîd|Rosette|Rashīd,31.4044,30.4164,Egypt,EG,EGY,"Al Buḩayrah","Al Buhayrah",EG-BH,governorate,,1535.1,125778,125778,2,Africa/Cairo,FALSE,1818868679
"Mīt Ghamr","Mit Ghamr","Mīt Ghamr wa Kafr al Baţal|Mît Ghamr and Kafr el-Baṭal",30.7167,31.2500,Egypt,EG,EGY,"Ad Daqahlīyah","Ad Daqahliyah",EG-DK,governorate,,11551.8,121039,121039,2,Africa/Cairo,FALSE,1818400389
Munūf,Munuf,Menuf|Menoufis|Menouf|Manūf|MINŪF,30.4658,30.9308,Egypt,EG,EGY,"Al Minūfīyah","Al Minufiyah",EG-MNF,governorate,,6249.5,117240,117240,2,Africa/Cairo,FALSE,1818310821
Fāqūs,Faqus,Fakous|Fakus,30.7282,31.7970,Egypt,EG,EGY,"Ash Sharqīyah","Ash Sharqiyah",EG-SHR,governorate,,10848.3,116945,116945,2,Africa/Cairo,FALSE,1818728828
Maţrūḩ,Matruh,"Marsá Maţrūḩ|Paraetonium|Madara|Mhadara|Mersa Maṭrûḥ|Mersa Matrouh",31.3333,27.2167,Egypt,EG,EGY,Maţrūḩ,Matruh,EG-MT,governorate,admin,85.3,108774,108774,2,Africa/Cairo,FALSE,1818661611
Idkū,Idku,Edkou,31.3000,30.3000,Egypt,EG,EGY,"Al Buḩayrah","Al Buhayrah",EG-BH,governorate,,1308.8,105875,105875,2,Africa/Cairo,FALSE,1818383026
Jirjā,Jirja,Girga,26.3333,31.9000,Egypt,EG,EGY,Sūhāj,Suhaj,EG-SHG,governorate,,11542.0,102597,102597,2,Africa/Cairo,FALSE,1818327836
"Ra’s Ghārib","Ra's Gharib",,28.3597,33.0775,Egypt,EG,EGY,"Al Baḩr al Aḩmar","Al Bahr al Ahmar",EG-BA,governorate,,3.3,100000,100000,3,Africa/Cairo,FALSE,1818526915
"Al Jammālīyah","Al Jammaliyah","Al Jamālīyah|El-Gamalîya|al-Jammāliyyah",31.1806,31.8653,Egypt,EG,EGY,"Ad Daqahlīyah","Ad Daqahliyah",EG-DK,governorate,,1533.3,97682,97682,3,Africa/Cairo,FALSE,1818993341
Ziftá,Zifta,Zifta,30.7142,31.2443,Egypt,EG,EGY,"Al Gharbīyah","Al Gharbiyah",EG-GH,governorate,,2242.8,93740,93740,2,Africa/Cairo,FALSE,1818759149
Samālūţ,Samalut,Samālut,28.3097,30.7108,Egypt,EG,EGY,"Al Minyā","Al Minya",EG-MN,governorate,,2080.4,91475,91475,2,Africa/Cairo,FALSE,1818180512
"Al Badrashayn","Al Badrashayn",El-Badrshein|Badrashên,29.8520,31.2760,Egypt,EG,EGY,"Al Jīzah","Al Jizah",EG-GZ,governorate,,5206.8,90000,90000,2,Africa/Cairo,FALSE,1818909949
"Bi’r al ‘Abd","Bi'r al `Abd","Bîr el-‘Abd|Bīr al ‘Abd",31.0181,33.0111,Egypt,EG,EGY,"Shamāl Sīnā’","Shamal Sina'",EG-SIN,governorate,minor,47.1,87219,87219,3,Africa/Cairo,FALSE,1818433972
Ibshawāy,Ibshaway,Ibshawai,29.4447,30.7107,Egypt,EG,EGY,"Al Fayyūm","Al Fayyum",EG-FYM,governorate,,4224.8,86186,86186,2,Africa/Cairo,FALSE,1818830889
Manfalūţ,Manfalut,Monfalut|MANFALUṬ,27.3167,30.9667,Egypt,EG,EGY,Asyūţ,Asyut,EG-AST,governorate,,2152.1,82585,82585,2,Africa/Cairo,FALSE,1818076217
Rafaḩ,Rafah,"Rifah|Raphia|Er Rafa|Rafa|Rafaa|Rafīah|Rafaḩ al Mişrīyah",31.2808,34.2414,Egypt,EG,EGY,"Shamāl Sīnā’","Shamal Sina'",EG-SIN,governorate,minor,176.9,80823,80823,3,Africa/Cairo,FALSE,1818109072
"Mīt Salsīl","Mit Salsil",,31.1667,31.8000,Egypt,EG,EGY,"Ad Daqahlīyah","Ad Daqahliyah",EG-DK,governorate,,1452.7,79957,79957,3,Africa/Cairo,FALSE,1818883733
"Banī Mazār","Bani Mazar","Beni Mazâr",28.5000,30.8000,Egypt,EG,EGY,"Al Minyā","Al Minya",EG-MN,governorate,,2216.0,79553,79553,2,Africa/Cairo,FALSE,1818729843
"Madīnat as Sādāt","Madinat as Sadat","Sadat New Industrial City|Sadat City",30.3811,30.5266,Egypt,EG,EGY,"Al Buḩayrah","Al Buhayrah",EG-BH,governorate,,126.4,79000,79000,3,Africa/Cairo,FALSE,1818951142
"Al Khānkah","Al Khankah",Khanka|El-Khânkâh|El-Khânka,30.1601,31.3133,Egypt,EG,EGY,"Al Qalyūbīyah","Al Qalyubiyah",EG-KB,governorate,,4610.3,78185,78185,2,Africa/Cairo,FALSE,1818549245
Armant,Armant,"Armanat|Ermont|Armant Gharb|Hermōnthis",25.6167,32.5333,Egypt,EG,EGY,Qinā,Qina,EG-KN,governorate,,1142.6,76457,76457,3,Africa/Cairo,FALSE,1818701870
"Kafr az Zayyāt","Kafr az Zayyat","Kafr el-Zaiyât|Kafr ez Zaiyat|Kafraz Zayyt|Kafr az Zayāt|Kafr el-Zayat",30.8247,30.8153,Egypt,EG,EGY,"Al Gharbīyah","Al Gharbiyah",EG-GH,governorate,,2447.9,76413,76413,2,Africa/Cairo,FALSE,1818335276
Maghāghah,Maghaghah,Magagha|Maghâgha,28.6500,30.8500,Egypt,EG,EGY,"Al Minyā","Al Minya",EG-MN,governorate,,2575.4,75657,75657,2,Africa/Cairo,FALSE,1818762526
"Kawm Umbū","Kawm Umbu","Kôm Ombo|Omboi|Kum Ombu|Ombos|Kawm Ombo",24.4667,32.9500,Egypt,EG,EGY,Aswān,Aswan,EG-ASN,governorate,,380.4,71596,71596,3,Africa/Cairo,FALSE,1818527731
"Būr Fu’ād","Bur Fu'ad","Port Fuad|Port Fouad",31.2500,32.3167,Egypt,EG,EGY,"Būr Sa‘īd","Bur Sa'id",EG-PTS,governorate,,137.6,70417,70417,3,Africa/Cairo,FALSE,1818849497
"‘Izbat al Burj","`Izbat al Burj","‘Ezbet el-Burg",31.5031,31.8411,Egypt,EG,EGY,"Ad Daqahlīyah","Ad Daqahliyah",EG-DK,governorate,,3805.8,70000,70000,2,Africa/Cairo,FALSE,1818379501
"Al Qūşīyah","Al Qusiyah","Cusae|El Qūsīya|Al-Qūsiyyah",27.4143,30.8216,Egypt,EG,EGY,Asyūţ,Asyut,EG-AST,governorate,,2539.8,69388,69388,2,Africa/Cairo,FALSE,1818093562
Kirdāsah,Kirdasah,Kirdâsa,30.0320,31.1104,Egypt,EG,EGY,"Al Jīzah","Al Jizah",EG-GZ,governorate,,10618.7,69317,69317,2,Africa/Cairo,FALSE,1818864361
Isnā,Isna,Esna|Esneh|Latopolis|Latopolia|Latónpolis|Asnā,25.3000,32.5500,Egypt,EG,EGY,Qinā,Qina,EG-KN,governorate,,1157.3,68656,68656,3,Africa/Cairo,FALSE,1818782058
Abnūb,Abnub,,27.2667,31.1500,Egypt,EG,EGY,Asyūţ,Asyut,EG-AST,governorate,,3147.4,67526,67526,2,Africa/Cairo,FALSE,1818739665
Hihyā,Hihya,Rehia|Hehia,30.6687,31.5904,Egypt,EG,EGY,"Ash Sharqīyah","Ash Sharqiyah",EG-SHR,governorate,,2706.7,66702,66702,2,Africa/Cairo,FALSE,1818905246
"Al Minshāh","Al Minshah","El Manshāh|Al Manshāh|Ptolemaîs Hernnon",26.4833,31.8000,Egypt,EG,EGY,Sūhāj,Suhaj,EG-SHG,governorate,,3303.8,65484,65484,2,Africa/Cairo,FALSE,1818211426
"Al Qurayn","Al Qurayn","El-Qurein|Al Qurayn wa Ţawāḩīn al Ḩayşamīyah|El-Qurein wa Ṭawâḥîr|El Qurein and Tawaḥîn el Heiṣamîya",30.6161,31.7353,Egypt,EG,EGY,"Ash Sharqīyah","Ash Sharqiyah",EG-SHR,governorate,,3897.1,64453,64453,2,Africa/Cairo,FALSE,1818960742
"Ash Shaykh Zuwayd","Ash Shaykh Zuwayd","Korûm el-Sheikh|Kurūm ash Shaykh|El Sheikh Zuwaiyid|Ash Shaykh Zuwayyid|Sheikh Zuweiyid|Sheikh Zuwâyid",31.2119,34.1106,Egypt,EG,EGY,"Shamāl Sīnā’","Shamal Sina'",EG-SIN,governorate,minor,100.3,64305,64305,3,Africa/Cairo,FALSE,1818656208
Daljā,Dalja,Dalga|Daljā’,27.6500,30.7000,Egypt,EG,EGY,"Al Minyā","Al Minya",EG-MN,governorate,,2036.3,63751,63751,2,Africa/Cairo,FALSE,1818235648
"Abū Qurqāş","Abu Qurqas","Abu Kerkae|Abu Gurgas|Abu Kirkas|Abu-Qirqas|ABŪ QURQĀS",27.9333,30.8333,Egypt,EG,EGY,"Al Minyā","Al Minya",EG-MN,governorate,,10.4,63264,63264,3,Africa/Cairo,FALSE,1818889126
"Sīdī Barānī","Sidi Barani","El Bomba|Sidi el-Barráni|Sīdī Barrānī",31.6108,25.9256,Egypt,EG,EGY,Maţrūḩ,Matruh,EG-MT,governorate,,24.4,63098,63098,3,Africa/Cairo,FALSE,1818288433
"Naj‘ Ḩammādī","Naj` Hammadi","Nag Hamadi|Nag‘ Hammādi|Nag Hamady|Gebel el Hagif|Naj‘ al Ḩammādī|Naga Hamadi|Naj‘ Ḥammādī",26.0500,32.2500,Egypt,EG,EGY,Qinā,Qina,EG-KN,governorate,,229.3,61737,45038,3,Africa/Cairo,FALSE,1818262231
"Aş Şaff","As Saff","Es Saff|El-Saff",29.5772,31.2906,Egypt,EG,EGY,"Al Jīzah","Al Jizah",EG-GZ,governorate,,2716.6,59348,59348,2,Africa/Cairo,FALSE,1818181272
Samannūd,Samannud,Samannûd|Sebennytos|Samnūd,30.9667,31.2500,Egypt,EG,EGY,"Al Gharbīyah","Al Gharbiyah",EG-GH,governorate,,2791.8,57177,57177,2,Africa/Cairo,FALSE,1818038230
"Abū Za‘bal","Abu Za`bal","Abu Zaabal",30.2415,31.4110,Egypt,EG,EGY,"Al Qalyūbīyah","Al Qalyubiyah",EG-KB,governorate,,4610.3,55938,55938,2,Africa/Cairo,FALSE,1818913485
Dandarah,Dandarah,Tentyra|Dandara|Denderah,26.1681,32.6561,Egypt,EG,EGY,Qinā,Qina,EG-KN,governorate,,1650.7,53109,53109,3,Africa/Cairo,FALSE,1818692271
"Al Khārjah","Al Kharjah","El-Charge|Al-Kharga|Kharga|El Khârga|Al Khārijah",25.4400,30.5500,Egypt,EG,EGY,"Al Wādī al Jadīd","Al Wadi al Jadid",EG-WAD,governorate,admin,85.5,49991,49991,2,Africa/Cairo,FALSE,1818872500
"Al Balyanā","Al Balyana","Balyana|El Balyana",26.2333,32.0000,Egypt,EG,EGY,Sūhāj,Suhaj,EG-SHG,governorate,,3305.9,46997,46997,2,Africa/Cairo,FALSE,1818610123
Maţāy,Matay,Muttay|Matâi|Matay,28.4167,30.7500,Egypt,EG,EGY,"Al Minyā","Al Minya",EG-MN,governorate,,1871.1,46903,46903,3,Africa/Cairo,FALSE,1818679215
"Banī ‘Ubayd","Bani `Ubayd","Beni ‘Ibeid|Banī ‘Ibayd",31.0234,31.6479,Egypt,EG,EGY,"Ad Daqahlīyah","Ad Daqahliyah",EG-DK,governorate,,1187.5,45157,45157,3,Africa/Cairo,FALSE,1818589720
"Kafr al Baţţīkh","Kafr al Battikh","Watermelon Village|Kafr el-Baṭṭîkh",31.3234,31.7612,Egypt,EG,EGY,Dumyāţ,Dumyat,EG-DT,governorate,,1474.6,44716,44716,3,Africa/Cairo,FALSE,1818792842
"Abū al Maţāmīr","Abu al Matamir","Abû ‘elwet-Maṭâmîr|Abu el Matāmīr",30.9084,30.1485,Egypt,EG,EGY,"Al Buḩayrah","Al Buhayrah",EG-BH,governorate,,320.8,44415,44415,3,Africa/Cairo,FALSE,1818329070
"Al ‘Ayyāţ","Al `Ayyat","Ayat|El-‘Aiyaṭ|El ‘Ayyat",29.6167,31.2500,Egypt,EG,EGY,"Al Jīzah","Al Jizah",EG-GZ,governorate,,3529.3,44171,44171,2,Africa/Cairo,FALSE,1818970006
"Şān al Ḩajar al Qiblīyah","San al Hajar al Qibliyah","Ṣān al-Ḥajar al-Qibliyyah|Şān al Ḩajar|Ṣân el-Ḥagar el-Qiblîya|Tanis|Ṣân el-Ḥagar",30.9769,31.8800,Egypt,EG,EGY,"Ash Sharqīyah","Ash Sharqiyah",EG-SHR,governorate,,674.1,43157,43157,3,Africa/Cairo,FALSE,1818442798
"Al Badārī","Al Badari","El Badâri",26.9925,31.4156,Egypt,EG,EGY,Asyūţ,Asyut,EG-AST,governorate,,4065.3,42770,42770,2,Africa/Cairo,FALSE,1818459800
"Kafr al Kurdī","Kafr al Kurdi","Kafr el Kurdi|El-Kurdi|Al Kurdī",31.1429,31.7826,Egypt,EG,EGY,"Ad Daqahlīyah","Ad Daqahliyah",EG-DK,governorate,,3332.1,42651,42651,2,Africa/Cairo,FALSE,1818217629
"Dayr Mawās","Dayr Mawas","Deir Mawās",27.6333,30.8500,Egypt,EG,EGY,"Al Minyā","Al Minya",EG-MN,governorate,,1937.0,40640,40640,3,Africa/Cairo,FALSE,1818973684
"Ihnāsyā al Madīnah","Ihnasya al Madinah","Ihnasya el Madîna|Ihnāsiyat al Madīnah|Ihnāsyat al Madīnah|Heracleopolis Magna|Hērakleouspolis Megalé",29.0833,30.9333,Egypt,EG,EGY,"Banī Suwayf","Bani Suwayf",EG-BNS,governorate,,1850.2,40001,40001,3,Africa/Cairo,FALSE,1818108314
Nabarūh,Nabaruh,Nabarôh,31.0942,31.3000,Egypt,EG,EGY,"Ad Daqahlīyah","Ad Daqahliyah",EG-DK,governorate,,1730.9,38953,38953,3,Africa/Cairo,FALSE,1818811777
Darāw,Daraw,,24.4000,32.9167,Egypt,EG,EGY,Aswān,Aswan,EG-ASN,governorate,,249.9,38400,38400,3,Africa/Cairo,FALSE,1818705709
"Abū Qīr","Abu Qir","Abukir|Abou Kir",31.3167,30.0667,Egypt,EG,EGY,"Al Iskandarīyah","Al Iskandariyah",EG-ALX,governorate,,18658.2,37997,37997,2,Africa/Cairo,FALSE,1818093442
Fāraskūr,Faraskur,Fāriskūr|Fâriskûr|Faraskûr,31.3297,31.7147,Egypt,EG,EGY,Dumyāţ,Dumyat,EG-DT,governorate,,2209.0,36850,36850,2,Africa/Cairo,FALSE,1818275538
Badr,Badr,,30.1360,31.7150,Egypt,EG,EGY,"Al Qāhirah","Al Qahirah",EG-C,governorate,,79.7,33456,33456,3,Africa/Cairo,FALSE,1818845936
Shanawān,Shanawan,Shanawân,30.5031,31.0058,Egypt,EG,EGY,"Al Minūfīyah","Al Minufiyah",EG-MNF,governorate,,2821.8,33285,33285,2,Africa/Cairo,FALSE,1818140562
Quţūr,Qutur,Kotûr|Qotur|Quṭûr,30.9735,30.9563,Egypt,EG,EGY,"Al Gharbīyah","Al Gharbiyah",EG-GH,governorate,,1488.4,31366,31366,3,Africa/Cairo,FALSE,1818962685
"Maḩallat Damanah","Mahallat Damanah","Maḥâllet Damana|Mahallet Damaha|Maḥallet Damana|Maḥallat Damanah|Maḩallat Dimnah",31.0754,31.4959,Egypt,EG,EGY,"Ad Daqahlīyah","Ad Daqahliyah",EG-DK,governorate,,1702.4,31293,31293,3,Africa/Cairo,FALSE,1818420317
"Al Ḩusaynīyah","Al Husayniyah","Husseiniya|El-Ḥuseinîya|Al Huseinīya|Huseinîya|El Ḥuseinîya",30.8617,31.9181,Egypt,EG,EGY,"Ash Sharqīyah","Ash Sharqiyah",EG-SHR,governorate,,566.6,30825,30825,3,Africa/Cairo,FALSE,1818070991
"Abū Şuwayr","Abu Suwayr","Abū Şuwayr al Maḩaţţah|Abu Suweir|Abu Suweir-el-Mahatta",30.5633,32.1155,Egypt,EG,EGY,"Ash Sharqīyah","Ash Sharqiyah",EG-SHR,governorate,,45.2,30320,30320,3,Africa/Cairo,FALSE,1818806418
Safājā,Safaja,"Port Safâga|Būr Safājah|Safaga",26.7333,33.9333,Egypt,EG,EGY,"Al Baḩr al Aḩmar","Al Bahr al Ahmar",EG-BA,governorate,,10.5,28261,28261,3,Africa/Cairo,FALSE,1818038126
"Qiman al ‘Arūs","Qiman al `Arus","Qiman el ‘Arûs",29.3005,31.1683,Egypt,EG,EGY,"Banī Suwayf","Bani Suwayf",EG-BNS,governorate,,2464.7,28246,28246,2,Africa/Cairo,FALSE,1818279617
"As Sarw","As Sarw",Sirw|El-Sirw|As-Sirw,31.2387,31.6538,Egypt,EG,EGY,Dumyāţ,Dumyat,EG-DT,governorate,,2415.0,27743,27743,2,Africa/Cairo,FALSE,1818966040
Qahā,Qaha,,30.2833,31.2000,Egypt,EG,EGY,"Al Qalyūbīyah","Al Qalyubiyah",EG-KB,governorate,,4202.5,26694,26694,2,Africa/Cairo,FALSE,1818255123
"Al Karnak","Al Karnak","El Kharnâk|El Karnak|Karnak",25.7186,32.6586,Egypt,EG,EGY,"Al Uqşur","Al Uqsur",EG-LX,governorate,,28443.3,26488,26488,2,Africa/Cairo,FALSE,1818862945
"Hirrīyat Raznah","Hirriyat Raznah",,30.6028,31.5372,Egypt,EG,EGY,"Ash Sharqīyah","Ash Sharqiyah",EG-SHR,governorate,,2658.0,24359,24359,2,Africa/Cairo,FALSE,1818867916
"Kafr Shukr","Kafr Shukr",,30.5470,31.2673,Egypt,EG,EGY,"Al Minūfīyah","Al Minufiyah",EG-MNF,governorate,,2963.5,23390,23390,2,Africa/Cairo,FALSE,1818036288
Sīwah,Siwah,Siwa|Siuah|Siwe,29.2000,25.5167,Egypt,EG,EGY,Maţrūḩ,Matruh,EG-MT,governorate,,15.0,23080,23080,3,Africa/Cairo,FALSE,1818755237
"Kafr Sa‘d","Kafr Sa`d",,31.3594,31.6865,Egypt,EG,EGY,Dumyāţ,Dumyat,EG-DT,governorate,,1474.6,22500,22500,3,Africa/Cairo,FALSE,1818266119
Shārūnah,Sharunah,Shārūna,28.5667,30.8500,Egypt,EG,EGY,"Al Minyā","Al Minya",EG-MN,governorate,,2575.4,22221,22221,2,Africa/Cairo,FALSE,1818302173
"Abū Şīr Banā","Abu Sir Bana","Abu Ṣîr Bana|Abū Ṣīr Banā",30.9000,31.2347,Egypt,EG,EGY,"Al Gharbīyah","Al Gharbiyah",EG-GH,governorate,,2467.4,22214,22214,2,Africa/Cairo,FALSE,1818635025
Qifţ,Qift,Coptos|Qift,25.9956,32.8158,Egypt,EG,EGY,Qinā,Qina,EG-KN,governorate,,1397.7,22063,22063,3,Africa/Cairo,FALSE,1818432841
Naqādah,Naqadah,Naqāda,25.9000,32.7167,Egypt,EG,EGY,Qinā,Qina,EG-KN,governorate,,2030.3,21530,21530,2,Africa/Cairo,FALSE,1818662110
"Mīt Namā","Mit Nama","Mît Nama",30.1453,31.2343,Egypt,EG,EGY,"Al Qalyūbīyah","Al Qalyubiyah",EG-KB,governorate,,5003.8,21321,21321,2,Africa/Cairo,FALSE,1818236242
"Al Qays","Al Qays","Cynopolis|El Qeis|Kynn̈n Polis|El Qeis Halt",28.4833,30.7833,Egypt,EG,EGY,"Al Minyā","Al Minya",EG-MN,governorate,,2191.9,20603,20603,2,Africa/Cairo,FALSE,1818728041
Sunbāţ,Sunbat,"Sumbâṭ|Sonbat|Sunbāṭ|Kafr Sumbâṭ|Kafr Sunbāţ",30.8057,31.2070,Egypt,EG,EGY,"Al Gharbīyah","Al Gharbiyah",EG-GH,governorate,,2694.4,20599,20599,2,Africa/Cairo,FALSE,1818102859
"Şā al Ḩajar","Sa al Hajar","Ṣa el-Ḥagar|Sais|Ṣân el-Ḥagar",30.9647,30.7683,Egypt,EG,EGY,"Al Gharbīyah","Al Gharbiyah",EG-GH,governorate,,1850.1,20568,20568,3,Africa/Cairo,FALSE,1818595696
Jarājūs,Jarajus,Karakos|Garagûs|Jarajus,25.8681,32.7566,Egypt,EG,EGY,Qinā,Qina,EG-KN,governorate,,2124.5,20427,20427,2,Africa/Cairo,FALSE,1818408605
"Banī Murr","Bani Murr","Beni Murr",27.2272,31.1944,Egypt,EG,EGY,Asyūţ,Asyut,EG-AST,governorate,,4075.2,20065,20065,2,Africa/Cairo,FALSE,1818556807
"Zāwiyat Razīn","Zawiyat Razin","Zâwyet Razîn|Zāwyat Razīn",30.4122,30.8536,Egypt,EG,EGY,"Al Minūfīyah","Al Minufiyah",EG-MNF,governorate,,2338.1,19898,19898,2,Africa/Cairo,FALSE,1818480394
"Dayr Abū Ḩinnis","Dayr Abu Hinnis","Deir Abu Hinnis|Dayr Abū Ḥinnis",27.7864,30.9050,Egypt,EG,EGY,"Al Minyā","Al Minya",EG-MN,governorate,,2121.8,19638,19638,2,Africa/Cairo,FALSE,1818016476
"Banī Ḩasan ash Shurūq","Bani Hasan ash Shuruq","Beni Hasan esh Shurūq|Beni Hasan el Shurûq|Beni Ḥasan|Banī Ḥasan ash-Shurūq",27.9333,30.8833,Egypt,EG,EGY,"Al Minyā","Al Minya",EG-MN,governorate,,2232.5,18218,18218,2,Africa/Cairo,FALSE,1818622612
Ajā,Aja,Aga,30.9414,31.2942,Egypt,EG,EGY,"Ad Daqahlīyah","Ad Daqahliyah",EG-DK,governorate,,2114.4,17580,17580,2,Africa/Cairo,FALSE,1818731296
Biyahmū,Biyahmu,,29.3675,30.8528,Egypt,EG,EGY,"Al Fayyūm","Al Fayyum",EG-FYM,governorate,,2613.0,17486,17486,2,Africa/Cairo,FALSE,1818316929
"Al Ḩībah","Al Hibah","El Ḥîba|Al-Ḥībah",28.7736,30.9228,Egypt,EG,EGY,"Al Baḩr al Aḩmar","Al Bahr al Ahmar",EG-BA,governorate,,240.7,16209,16209,3,Africa/Cairo,FALSE,1818176638
"Al Madāmūd","Al Madamud","Medamôt|Medamut|Nag el Madāmūd|Naj‘ al Madāmūd",25.7167,32.6500,Egypt,EG,EGY,"Al Uqşur","Al Uqsur",EG-LX,governorate,,8638.3,15091,15091,2,Africa/Cairo,FALSE,1818431308
Sakhā,Sakha,Xoïs,31.0890,30.9510,Egypt,EG,EGY,"Kafr ash Shaykh","Kafr ash Shaykh",EG-KFS,governorate,,1145.5,14733,14733,3,Africa/Cairo,FALSE,1818238723
"Dayr al Barshā","Dayr al Barsha","Deir el Barsha",27.7500,30.9000,Egypt,EG,EGY,"Al Minyā","Al Minya",EG-MN,governorate,,929.1,14297,14297,3,Africa/Cairo,FALSE,1818073234
"Aḑ Ḑab‘ah","Ad Dab`ah","Al-Dab‘ah|El Dab‘a|Ed Dab‘a",31.0338,28.4333,Egypt,EG,EGY,Maţrūḩ,Matruh,EG-MT,governorate,,20.9,14212,14212,3,Africa/Cairo,FALSE,1818525598
Birqāsh,Birqash,,30.1692,31.0417,Egypt,EG,EGY,"Al Jīzah","Al Jizah",EG-GZ,governorate,,3135.0,14172,14172,2,Africa/Cairo,FALSE,1818471185
Qantīr,Qantir,,30.8000,31.8333,Egypt,EG,EGY,"Ash Sharqīyah","Ash Sharqiyah",EG-SHR,governorate,,1577.4,13660,13660,3,Africa/Cairo,FALSE,1818827672
"Sharm ash Shaykh","Sharm ash Shaykh","Sharm el-Sheikh|Ophira|Ofira|Sherm el Sheikh|Ras Umm Sidd|Cherm|Awfīr|Sharm esh Sheikh|Ras Muhammad|Sherm el Shekh|Sharm al Shaikh",27.9150,34.3275,Egypt,EG,EGY,"Janūb Sīnā’","Janub Sina'",EG-JS,governorate,,51.8,13561,13561,3,Africa/Cairo,FALSE,1818039222
"Sidmant al Jabal","Sidmant al Jabal","Sidmant el Gebel",29.1431,30.9000,Egypt,EG,EGY,"Al Fayyūm","Al Fayyum",EG-FYM,governorate,,1850.2,13119,13119,3,Africa/Cairo,FALSE,1818324066
Dinshawāy,Dinshaway,Dinshawâi|Denshawai,30.6000,30.8167,Egypt,EG,EGY,"Al Minūfīyah","Al Minufiyah",EG-MNF,governorate,,2111.4,13018,13018,2,Africa/Cairo,FALSE,1818787891
"Aţ Ţūr","At Tur","El-Tor|Tor|Thur|El-Tûr|Al-Tur|Et Tor",28.2417,33.6222,Egypt,EG,EGY,"Janūb Sīnā’","Janub Sina'",EG-JS,governorate,admin,16.9,12733,12733,2,Africa/Cairo,FALSE,1818306172
"Burj al ‘Arab","Burj al `Arab","Burg el ‘Arab",30.8489,29.6117,Egypt,EG,EGY,"Al Iskandarīyah","Al Iskandariyah",EG-ALX,governorate,,166.4,12625,12625,3,Africa/Cairo,FALSE,1818114873
Dishāshah,Dishashah,Dishâsha,28.9831,30.8492,Egypt,EG,EGY,"Banī Suwayf","Bani Suwayf",EG-BNS,governorate,,2044.1,11844,11844,2,Africa/Cairo,FALSE,1818375380
"Mīt Damsīs","Mit Damsis","Mît Damsis and Kafr Abu Girg|Mît Damsîs wa Kafr Abu Girg|Mīt Damsīs wa Kafr Abū Jurj",30.8267,31.2226,Egypt,EG,EGY,"Ad Daqahlīyah","Ad Daqahliyah",EG-DK,governorate,,2294.0,11528,11528,2,Africa/Cairo,FALSE,1818557641
"Qal‘at an Nakhl","Qal`at an Nakhl","An Nakhl|Nakhl",29.9000,33.7500,Egypt,EG,EGY,"Shamāl Sīnā’","Shamal Sina'",EG-SIN,governorate,,1.0,11023,11023,3,Africa/Cairo,FALSE,1818829303
Sawādah,Sawadah,Sawâda,28.0775,30.7953,Egypt,EG,EGY,"Al Minyā","Al Minya",EG-MN,governorate,,1949.3,10571,10571,3,Africa/Cairo,FALSE,1818472639
Abjīj,Abjij,Abgig,29.2861,30.8152,Egypt,EG,EGY,"Al Fayyūm","Al Fayyum",EG-FYM,governorate,,1412.9,10057,10057,3,Africa/Cairo,FALSE,1818397315
Qufādah,Qufadah,,28.5812,30.7554,Egypt,EG,EGY,"Al Minyā","Al Minya",EG-MN,governorate,,2575.4,9948,9948,2,Africa/Cairo,FALSE,1818001516
Shanhūr,Shanhur,"El Shanhûrîya|Shahhûr|Shanhur",25.8604,32.7779,Egypt,EG,EGY,Qinā,Qina,EG-KN,governorate,,2124.5,9314,9314,2,Africa/Cairo,FALSE,1818837979
Mandīshah,Mandishah,Mandīsha,28.3515,28.9317,Egypt,EG,EGY,"Al Jīzah","Al Jizah",EG-GZ,governorate,,26.0,9016,9016,4,Africa/Cairo,FALSE,1818119221
"Dayr as Sanqūrīyah","Dayr as Sanquriyah","Deir el Sanqûrîya",28.4868,30.6648,Egypt,EG,EGY,"Al Minyā","Al Minya",EG-MN,governorate,,2191.9,8911,8911,2,Africa/Cairo,FALSE,1818109000
Najrīj,Najrij,Nagrîg,30.9667,30.8667,Egypt,EG,EGY,"Al Gharbīyah","Al Gharbiyah",EG-GH,governorate,,1850.1,8656,8656,3,Africa/Cairo,FALSE,1818420168
"As Sallūm","As Sallum","El Sellûm|Es Sollūm|Solum|El Sollum|Catabathmus Magna|Es Sallum|Al-Salum|Sollum|Sellum|Panormus|Salûm|Sallum",31.5500,25.1600,Egypt,EG,EGY,Maţrūḩ,Matruh,EG-MT,governorate,,16.2,8445,8445,3,Africa/Cairo,FALSE,1818639105
"Ţihnā al Jabal","Tihna al Jabal","Tihna el Gabal|Akoris|Tihna el Gebel|Ṭihnā al-Jabal",28.1833,30.7833,Egypt,EG,EGY,"Al Minyā","Al Minya",EG-MN,governorate,,1407.8,7387,7387,3,Africa/Cairo,FALSE,1818097416
Shalātīn,Shalatin,,23.1317,35.5856,Egypt,EG,EGY,"Al Baḩr al Aḩmar","Al Bahr al Ahmar",EG-BA,governorate,,1.7,6731,6731,3,Africa/Cairo,FALSE,1818001391
"Dayr al Jarnūs","Dayr al Jarnus","Deir el Garnûs",28.6100,30.7067,Egypt,EG,EGY,"Al Minyā","Al Minya",EG-MN,governorate,,2575.4,6504,6504,2,Africa/Cairo,FALSE,1818001458
"Qaşr al Farāfirah","Qasr al Farafirah","Al Farāfirah|Qasr Farafra",27.0583,27.9700,Egypt,EG,EGY,"Al Wādī al Jadīd","Al Wadi al Jadid",EG-WAD,governorate,,59.3,5000,5000,4,Africa/Cairo,FALSE,1818000020
Dahab,Dahab,Dhahab,28.4931,34.5047,Egypt,EG,EGY,"Janūb Sīnā’","Janub Sina'",EG-JS,governorate,,2.9,4479,4479,3,Africa/Cairo,FALSE,1818690010
"Al Qaşr","Al Qasr","Qasr Dakhl|El Qasr",25.6959,28.8837,Egypt,EG,EGY,"Al Wādī al Jadīd","Al Wadi al Jadid",EG-WAD,governorate,,47.2,4474,4474,4,Africa/Cairo,FALSE,1818618401
"Kafr Ţaḩlah","Kafr Tahlah","Ṭaḥla|Kafr Ṭaḥla|Kafr Ṭaḥlah",30.3981,31.1333,Egypt,EG,EGY,"Al Qalyūbīyah","Al Qalyubiyah",EG-KB,governorate,,2864.6,4080,4080,2,Africa/Cairo,FALSE,1818555178
Balāţ,Balat,Belat,25.5640,29.2658,Egypt,EG,EGY,"Al Wādī al Jadīd","Al Wadi al Jadid",EG-WAD,governorate,,0.0,3794,3794,3,Africa/Cairo,FALSE,1818611566
Tunaydah,Tunaydah,Tanaydah|Tineida|Tenida|Teneida,25.5129,29.3400,Egypt,EG,EGY,"Al Wādī al Jadīd","Al Wadi al Jadid",EG-WAD,governorate,,42.0,3743,3743,4,Africa/Cairo,FALSE,1818992240
Durunkah,Durunkah,Durunka,27.1500,31.1833,Egypt,EG,EGY,"Al Wādī al Jadīd","Al Wadi al Jadid",EG-WAD,governorate,,2629.2,3370,3370,2,Africa/Cairo,FALSE,1818894350
Ismant,Ismant,,25.5269,29.0678,Egypt,EG,EGY,"Al Wādī al Jadīd","Al Wadi al Jadid",EG-WAD,governorate,,31.1,3231,3231,4,Africa/Cairo,FALSE,1818244056
Nuwaybi‘a,Nuwaybi`a,Nuweibeh|Nuweibá|Nuwaiba‘|Nueiba,29.0333,34.6667,Egypt,EG,EGY,"Janūb Sīnā’","Janub Sina'",EG-JS,governorate,,1.8,2898,2898,3,Africa/Cairo,FALSE,1818713552
"Zāwyat Umm ar Rakham","Zawyat Umm ar Rakham","Zāwiyat Umm ar Rakham|Zāwiyet Umm el Rakham|Zâwyet Umm el Rakham",31.4000,27.0258,Egypt,EG,EGY,Maţrūḩ,Matruh,EG-MT,governorate,,88.7,2643,2643,3,Africa/Cairo,FALSE,1818891343
"Al ‘Alamayn","Al `Alamayn","El-‘Alamên|Alamein|El ‘Alamein",30.8333,28.9500,Egypt,EG,EGY,Maţrūḩ,Matruh,EG-MT,governorate,,0.2,2413,2413,3,Africa/Cairo,FALSE,1818237095
"Marsá ‘Alam","Marsa `Alam","Marsá al ‘Alam|Marsa ‘Alam|Mersa Alam",25.0667,34.9000,Egypt,EG,EGY,"Al Baḩr al Aḩmar","Al Bahr al Ahmar",EG-BA,governorate,,0.6,1918,1918,3,Africa/Cairo,FALSE,1818687238
"Al Qalamūn","Al Qalamun","El Qalamun",25.5503,28.9081,Egypt,EG,EGY,"Al Wādī al Jadīd","Al Wadi al Jadid",EG-WAD,governorate,,49.4,1745,1745,4,Africa/Cairo,FALSE,1818654728
Aghūrmī,Aghurmi,,29.2051,25.5436,Egypt,EG,EGY,Maţrūḩ,Matruh,EG-MT,governorate,,15.0,1486,1486,4,Africa/Cairo,FALSE,1818691508
Jināḩ,Jinah,Gināh,25.3289,30.5303,Egypt,EG,EGY,"Al Wādī al Jadīd","Al Wadi al Jadid",EG-WAD,governorate,,85.5,224,224,4,Africa/Cairo,FALSE,1818317272
Barnīs,Barnis,"Port Berenice|Berenice",23.9460,35.4842,Egypt,EG,EGY,"Al Baḩr al Aḩmar","Al Bahr al Ahmar",EG-BA,governorate,,0.6,10,10,5,Africa/Cairo,FALSE,1818107956
"Nag‘ el-Zûdîya","Nag` el-Zudiya",,25.1167,32.7500,Egypt,EG,EGY,Aswān,Aswan,EG-ASN,governorate,,206.5,,,3,Africa/Cairo,FALSE,1818994159
"Al Ḩajjājīyah","Al Hajjajiyah","El-Ḥaggâgîya|Benî Sâliḥ|Banī Şāliḩ|Al-Ḥajjājiyyah",30.6930,31.7920,Egypt,EG,EGY,"Ash Sharqīyah","Ash Sharqiyah",EG-SHR,governorate,,1577.4,,,3,Africa/Cairo,FALSE,1818004744
"‘Izbat Līdbiyā","`Izbat Lidbiya","‘Izbat Lidbiyā",31.1963,30.4855,Egypt,EG,EGY,"Al Buḩayrah","Al Buhayrah",EG-BH,governorate,,1784.9,,,3,Africa/Cairo,FALSE,1818526031
"Al Jadīdah","Al Jadidah","El Gidīda",25.5779,28.8592,Egypt,EG,EGY,"Al Wādī al Jadīd","Al Wadi al Jadid",EG-WAD,governorate,,49.4,,,4,Africa/Cairo,FALSE,1818346290
"Manşūrīyat al Farastaq","Mansuriyat al Farastaq","Manṣûrîyet el-Farastaq",30.7667,30.7852,Egypt,EG,EGY,"Al Gharbīyah","Al Gharbiyah",EG-GH,governorate,,2105.9,,,2,Africa/Cairo,FALSE,1818520399
"‘Izbat Aḩmad al Badrī","`Izbat Ahmad al Badri","‘Iz. Aḥmad al-Badrī",31.0494,31.5509,Egypt,EG,EGY,"Ad Daqahlīyah","Ad Daqahliyah",EG-DK,governorate,,1994.2,,,3,Africa/Cairo,FALSE,1818986871
"Al ‘Umrānīyah","Al `Umraniyah",,31.3929,31.1469,Egypt,EG,EGY,"Kafr ash Shaykh","Kafr ash Shaykh",EG-KFS,governorate,,522.8,,,3,Africa/Cairo,FALSE,1818778403
"‘Izbat as Sīs","`Izbat as Sis",,30.7332,31.6822,Egypt,EG,EGY,"Ash Sharqīyah","Ash Sharqiyah",EG-SHR,governorate,,2159.4,,,2,Africa/Cairo,FALSE,1818165562
"Qaryat al Barakah","Qaryat al Barakah",,25.9767,32.3103,Egypt,EG,EGY,"Al Wādī al Jadīd","Al Wadi al Jadid",EG-WAD,governorate,,402.2,,,3,Africa/Cairo,FALSE,1818001389
"‘Izbat Ţalḩat Burdayn","`Izbat Talhat Burdayn","Ţaḩlat Burdayn|Ṭaḥlet Burdein",30.5195,31.5048,Egypt,EG,EGY,"Ash Sharqīyah","Ash Sharqiyah",EG-SHR,governorate,,2658.0,,,2,Africa/Cairo,FALSE,1818862523
"‘Ezbet Anṭônyûs","`Ezbet Antonyus",,29.1667,31.1167,Egypt,EG,EGY,"Al Fayyūm","Al Fayyum",EG-FYM,governorate,,1797.9,,,3,Africa/Cairo,FALSE,1818677716
"‘Izbat al Ma‘āshāt","`Izbat al Ma`ashat",,30.3092,31.0006,Egypt,EG,EGY,"Al Minūfīyah","Al Minufiyah",EG-MNF,governorate,,2748.7,,,2,Africa/Cairo,FALSE,1818000264
"Manshīyat al ‘Attāl","Manshiyat al `Attal","Minshiyyat al-‘Attāl",31.1770,30.4938,Egypt,EG,EGY,"Al Buḩayrah","Al Buhayrah",EG-BH,governorate,,1784.9,,,3,Africa/Cairo,FALSE,1818226533
"‘Izbat Muḩammad Imbābī","`Izbat Muhammad Imbabi","‘Izbat Muḥammad Imbābī",30.5315,30.9376,Egypt,EG,EGY,"Al Minūfīyah","Al Minufiyah",EG-MNF,governorate,,2338.1,,,2,Africa/Cairo,FALSE,1818000837
"‘Izbat ‘Abd as Salām al Jayyār","`Izbat `Abd as Salam al Jayyar","‘Izbat ‘Abd as Salām al Jabbār",30.7602,30.6722,Egypt,EG,EGY,"Al Buḩayrah","Al Buhayrah",EG-BH,governorate,,1621.0,,,3,Africa/Cairo,FALSE,1818189063
"Munsha’at al ‘Abbāsah","Munsha'at al `Abbasah",,30.5318,31.7077,Egypt,EG,EGY,"Ash Sharqīyah","Ash Sharqiyah",EG-SHR,governorate,,1706.9,,,3,Africa/Cairo,FALSE,1818188988
"‘Izbat al Mallāḩah","`Izbat al Mallahah","‘Izbat al-Mallāḥah",30.9630,32.1771,Egypt,EG,EGY,"Al Ismā‘īlīyah","Al Isma'iliyah",EG-IS,governorate,,566.6,,,3,Africa/Cairo,FALSE,1818086971
"Al Hābīlah","Al Habilah","Abū Nuşayr|Al Hābīlah Abū Nuşayr",31.1166,30.5754,Egypt,EG,EGY,"Al Buḩayrah","Al Buhayrah",EG-BH,governorate,,1435.6,,,3,Africa/Cairo,FALSE,1818156588
Nawá,Nawa,Nawāy|Nawai|Nawā,27.7984,30.7746,Egypt,EG,EGY,"Al Minyā","Al Minya",EG-MN,governorate,,2540.6,,,2,Africa/Cairo,FALSE,1818310111
"Kafr Awlād ‘Aţīyah","Kafr Awlad `Atiyah","Kafr Aulâd ‘Aṭîya",30.6336,31.5497,Egypt,EG,EGY,"Ash Sharqīyah","Ash Sharqiyah",EG-SHR,governorate,,2658.0,,,2,Africa/Cairo,FALSE,1818153653
"‘Ezbet Muḥammad Khulus","`Ezbet Muhammad Khulus",,29.5333,30.9833,Egypt,EG,EGY,"Al Fayyūm","Al Fayyum",EG-FYM,governorate,,1428.9,,,3,Africa/Cairo,FALSE,1818212437
"‘Ezbet el-Nâqûri","`Ezbet el-Naquri",,30.8667,30.6500,Egypt,EG,EGY,"Al Buḩayrah","Al Buhayrah",EG-BH,governorate,,1641.7,,,3,Africa/Cairo,FALSE,1818436641
"As Sabkhāyah","As Sabkhayah","El-Sabkhāya|El Sabakhaya|Es Sabakhāya",24.4167,32.9000,Egypt,EG,EGY,Aswān,Aswan,EG-ASN,governorate,,218.9,,,3,Africa/Cairo,FALSE,1818518568
"Sūq at Talāt","Suq at Talat","At Talāt Market|Sûq el-Tatât",31.5700,31.0536,Egypt,EG,EGY,"Kafr ash Shaykh","Kafr ash Shaykh",EG-KFS,governorate,,993.9,,,3,Africa/Cairo,FALSE,1818197366
"Al Ka‘ābī al Jadīdah","Al Ka`abi al Jadidah","El-Ka‘âbi el-Gedîda",29.3661,30.8682,Egypt,EG,EGY,"Al Fayyūm","Al Fayyum",EG-FYM,governorate,,2613.0,,,2,Africa/Cairo,FALSE,1818185605
"‘Izbat al Mujāhidīn al ‘Arab","`Izbat al Mujahidin al `Arab",,30.5049,31.8530,Egypt,EG,EGY,"Ash Sharqīyah","Ash Sharqiyah",EG-SHR,governorate,,250.5,,,3,Africa/Cairo,FALSE,1818616941
"‘Izbat Ismā‘īl Muḩammad","`Izbat Isma`il Muhammad","‘Izbat Ismā‘īl Muḥammad",30.2965,30.9530,Egypt,EG,EGY,"Al Minūfīyah","Al Minufiyah",EG-MNF,governorate,,2748.7,,,2,Africa/Cairo,FALSE,1818000260
"Al Fawāqisah","Al Fawaqisah","El-Fawâqsa|Al Fawāqsah",30.6427,31.6137,Egypt,EG,EGY,"Ash Sharqīyah","Ash Sharqiyah",EG-SHR,governorate,,2098.0,,,2,Africa/Cairo,FALSE,1818110692
"‘Izbat Abū Hilāl","`Izbat Abu Hilal",,31.3287,31.4306,Egypt,EG,EGY,"Ad Daqahlīyah","Ad Daqahliyah",EG-DK,governorate,,804.6,,,3,Africa/Cairo,FALSE,1818206657
"‘Izbat al Baţţ","`Izbat al Batt","‘Izbat al-Baṭṭ",31.2272,30.9449,Egypt,EG,EGY,"Kafr ash Shaykh","Kafr ash Shaykh",EG-KFS,governorate,,654.0,,,3,Africa/Cairo,FALSE,1818556147
"‘Izbat ‘Abduh Bāshā","`Izbat `Abduh Basha","‘Izbat ‘Abdū Bāshā|‘Ezbet ‘Abdu Pasha",31.0818,30.1559,Egypt,EG,EGY,"Al Buḩayrah","Al Buhayrah",EG-BH,governorate,,1289.1,,,3,Africa/Cairo,FALSE,1818729251
"‘Izbat Abū Ḩazīn","`Izbat Abu Hazin",,30.4827,31.6446,Egypt,EG,EGY,"Ash Sharqīyah","Ash Sharqiyah",EG-SHR,governorate,,1706.9,,,3,Africa/Cairo,FALSE,1818479579
Qarqīrah,Qarqirah,Qarqîra,30.8482,31.3731,Egypt,EG,EGY,"Ad Daqahlīyah","Ad Daqahliyah",EG-DK,governorate,,1893.6,,,3,Africa/Cairo,FALSE,1818415264
"‘Izbat Muḩammad Ḩassūnah","`Izbat Muhammad Hassunah","‘Iz. Muḥ. Ḥassūnah",31.1939,31.6686,Egypt,EG,EGY,"Ad Daqahlīyah","Ad Daqahliyah",EG-DK,governorate,,1587.3,,,3,Africa/Cairo,FALSE,1818609681
"Minshāt ‘Āmir","Minshat `Amir",,30.5211,30.7908,Egypt,EG,EGY,"Al Buḩayrah","Al Buhayrah",EG-BH,governorate,,269.7,,,3,Africa/Cairo,FALSE,1818135674
"Ḩijāzah Baḩrī","Hijazah Bahri","Hijāzah Baharī",25.8953,32.8412,Egypt,EG,EGY,Qinā,Qina,EG-KN,governorate,,238.1,,,3,Africa/Cairo,FALSE,1818001399
"Kafr Sa‘d","Kafr Sa`d",,30.8576,31.5870,Egypt,EG,EGY,"Ad Daqahlīyah","Ad Daqahliyah",EG-DK,governorate,,1893.6,,,3,Africa/Cairo,FALSE,1818489128
Ghamrīn,Ghamrin,,30.4995,30.9181,Egypt,EG,EGY,"Al Minūfīyah","Al Minufiyah",EG-MNF,governorate,,2338.1,,,2,Africa/Cairo,FALSE,1818668425
"Kawm Būhā Baḩrī","Kawm Buha Bahri","Kôm Buha Bahari|Kawm Būhā Baḥarī",27.5120,30.8193,Egypt,EG,EGY,Asyūţ,Asyut,EG-AST,governorate,,2783.8,,,2,Africa/Cairo,FALSE,1818930055
"Naj‘ al Maḩaţţah","Naj` al Mahattah","Nag‘ el-Shallâl|Nag‘ el Maḥaṭṭa",24.0667,32.8833,Egypt,EG,EGY,Aswān,Aswan,EG-ASN,governorate,,911.6,,,3,Africa/Cairo,FALSE,1818907427
"Al Malaqah Raqm Wāḩid","Al Malaqah Raqm Wahid","Al Malaqah Raqm 1|Al-Malaqah Number One",31.3151,30.4921,Egypt,EG,EGY,"Al Buḩayrah","Al Buhayrah",EG-BH,governorate,,1406.6,,,3,Africa/Cairo,FALSE,1818419085
"‘Izbat Wulsun","`Izbat Wulsun","‘Izbat Wilsun",31.2895,31.6305,Egypt,EG,EGY,Dumyāţ,Dumyat,EG-DT,governorate,,1474.6,,,3,Africa/Cairo,FALSE,1818733370
"‘Izbat Mu‘ţī Ghīḑān","`Izbat Mu`ti Ghidan","‘Iz. Mu‘ṭi Ghīḍān",29.3947,30.7339,Egypt,EG,EGY,"Al Fayyūm","Al Fayyum",EG-FYM,governorate,,2611.1,,,2,Africa/Cairo,FALSE,1818000538
"‘Izbat ‘Ayn aţ Ţawīl","`Izbat `Ayn at Tawil","‘Ezbet ‘Aîn el-Tawil",25.3882,30.6138,Egypt,EG,EGY,"Al Wādī al Jadīd","Al Wadi al Jadid",EG-WAD,governorate,,85.5,,,4,Africa/Cairo,FALSE,1818927287
"‘Izbat Dabanūn","`Izbat Dabanun",,30.8677,30.5111,Egypt,EG,EGY,"Al Buḩayrah","Al Buhayrah",EG-BH,governorate,,747.4,,,3,Africa/Cairo,FALSE,1818001002
"‘Izbat Fāţimah","`Izbat Fatimah","‘Izbat Fāṭimah|‘Ezbet Fâṭma Ilyas",31.0122,30.4213,Egypt,EG,EGY,"Al Buḩayrah","Al Buhayrah",EG-BH,governorate,,1541.8,,,3,Africa/Cairo,FALSE,1818168080
"‘Izbat Farhād","`Izbat Farhad",,31.2273,30.0549,Egypt,EG,EGY,"Al Iskandarīyah","Al Iskandariyah",EG-ALX,governorate,,18658.2,,,2,Africa/Cairo,FALSE,1818408228
"Abū Ḩurayz","Abu Hurayz","Abu Ḥireiz|Abū Ḩarīz|Abū Ḩirayz",30.8796,31.6875,Egypt,EG,EGY,"Ash Sharqīyah","Ash Sharqiyah",EG-SHR,governorate,,1462.2,,,3,Africa/Cairo,FALSE,1818765354
"Nazlat ad Dawāmi‘","Nazlat ad Dawami`","Nazlet el-Dawâmi‘",26.9000,31.3167,Egypt,EG,EGY,Asyūţ,Asyut,EG-AST,governorate,,3027.8,,,2,Africa/Cairo,FALSE,1818241355
"‘Izbat Milaykah","`Izbat Milaykah",,31.0213,30.3722,Egypt,EG,EGY,"Al Buḩayrah","Al Buhayrah",EG-BH,governorate,,1541.8,,,3,Africa/Cairo,FALSE,1818713358
"Kawm Battīn","Kawm Battin",,30.3165,31.1369,Egypt,EG,EGY,"Al Qalyūbīyah","Al Qalyubiyah",EG-KB,governorate,,2787.7,,,2,Africa/Cairo,FALSE,1818258983
"Bār al Ḩamām","Bar al Hamam","Bâr el-Ḥamâm",30.9707,30.8098,Egypt,EG,EGY,"Al Gharbīyah","Al Gharbiyah",EG-GH,governorate,,1850.1,,,3,Africa/Cairo,FALSE,1818745822
"‘Izbat Zurayq","`Izbat Zurayq",,30.9204,31.8901,Egypt,EG,EGY,"Ash Sharqīyah","Ash Sharqiyah",EG-SHR,governorate,,566.6,,,3,Africa/Cairo,FALSE,1818001331
"Naj‘ Kawm Majānīn","Naj` Kawm Majanin","Naj‘ Kawm - Majānīn",26.1348,32.0622,Egypt,EG,EGY,Qinā,Qina,EG-KN,governorate,,1736.6,,,3,Africa/Cairo,FALSE,1818636278
"‘Izbat ad Daghāymah","`Izbat ad Daghaymah",,31.0579,31.7749,Egypt,EG,EGY,"Ash Sharqīyah","Ash Sharqiyah",EG-SHR,governorate,,810.9,,,3,Africa/Cairo,FALSE,1818449586
"‘Izbat Aḩmad al Ḩaḑarī","`Izbat Ahmad al Hadari","‘Izbat Aḥmad al-Ḥaḍarī",30.3275,31.0130,Egypt,EG,EGY,"Al Minūfīyah","Al Minufiyah",EG-MNF,governorate,,2748.7,,,2,Africa/Cairo,FALSE,1818000499
"Dayr Barāwah","Dayr Barawah","Deir Barawa",29.0193,30.9094,Egypt,EG,EGY,"Banī Suwayf","Bani Suwayf",EG-BNS,governorate,,1850.2,,,3,Africa/Cairo,FALSE,1818133334
"‘Ezbet el-Qadîma","`Ezbet el-Qadima",,31.1667,30.9833,Egypt,EG,EGY,"Kafr ash Shaykh","Kafr ash Shaykh",EG-KFS,governorate,,1144.2,,,3,Africa/Cairo,FALSE,1818488226
"‘Izbat as Sawwāḩ","`Izbat as Sawwah",,30.8127,31.5509,Egypt,EG,EGY,"Ad Daqahlīyah","Ad Daqahliyah",EG-DK,governorate,,2121.0,,,2,Africa/Cairo,FALSE,1818787301
"‘Izbat as Sawwāḩ","`Izbat as Sawwah",,31.2904,31.4105,Egypt,EG,EGY,"Ad Daqahlīyah","Ad Daqahliyah",EG-DK,governorate,,804.6,,,3,Africa/Cairo,TRUE,1818284385
"Al Ḩarādnah","Al Haradnah","El Ḥarâdna|Al Ḩarādinah|Al-Ḥarādnah",26.7169,31.6560,Egypt,EG,EGY,"Al Baḩr al Aḩmar","Al Bahr al Ahmar",EG-BA,governorate,,71.6,,,4,Africa/Cairo,FALSE,1818145891
"‘Izbat al Ḩājr al Jadīdah","`Izbat al Hajr al Jadidah","‘Izbat al Ḥājir al-Jadīdah",30.2727,30.9184,Egypt,EG,EGY,"Al Jīzah","Al Jizah",EG-GZ,governorate,,3135.0,,,2,Africa/Cairo,FALSE,1818000220
"‘Izbat Abū Zahrān","`Izbat Abu Zahran",,30.6094,31.6919,Egypt,EG,EGY,"Ash Sharqīyah","Ash Sharqiyah",EG-SHR,governorate,,1706.9,,,3,Africa/Cairo,FALSE,1818559258
"Minshāt al Ḩājj","Minshat al Hajj","Minshât el Hâgg",29.0521,30.9069,Egypt,EG,EGY,"Banī Suwayf","Bani Suwayf",EG-BNS,governorate,,1850.2,,,3,Africa/Cairo,FALSE,1818010130
"‘Izbat al Bank","`Izbat al Bank",,31.2347,30.6444,Egypt,EG,EGY,"Kafr ash Shaykh","Kafr ash Shaykh",EG-KFS,governorate,,1607.2,,,3,Africa/Cairo,FALSE,1818530723
"‘Izbat al Bank","`Izbat al Bank",,31.2713,30.8034,Egypt,EG,EGY,"Kafr ash Shaykh","Kafr ash Shaykh",EG-KFS,governorate,,873.1,,,3,Africa/Cairo,TRUE,1818301870
"‘Izbat Dikīris","`Izbat Dikiris",,30.6072,30.8671,Egypt,EG,EGY,"Al Minūfīyah","Al Minufiyah",EG-MNF,governorate,,2111.4,,,2,Africa/Cairo,FALSE,1818000764
"Zāwiyat Sulţān Bāshā","Zawiyat Sultan Basha","Nazlet Sulṭân Pasha|Zāwiyat Sulţān Bashā|Nazlat Sulţān Bāshā|Zāwyat Sulṭān Bashā",28.0550,30.8245,Egypt,EG,EGY,"Al Minyā","Al Minya",EG-MN,governorate,,1945.9,,,3,Africa/Cairo,FALSE,1818702547
Ihwah,Ihwah,Ihwa,29.0442,31.0037,Egypt,EG,EGY,"Banī Suwayf","Bani Suwayf",EG-BNS,governorate,,2254.5,,,2,Africa/Cairo,FALSE,1818962041
"‘Izbat al Khalāyifah","`Izbat al Khalayifah","Al Khalā’ifah|El-Khalâyfa|‘Izbat al-Khalāyfah",31.1622,31.9829,Egypt,EG,EGY,"Ad Daqahlīyah","Ad Daqahliyah",EG-DK,governorate,,2104.3,,,2,Africa/Cairo,FALSE,1818500827
"‘Izbat Khalīfah Yūnis","`Izbat Khalifah Yunis",,29.4098,30.9844,Egypt,EG,EGY,"Al Fayyūm","Al Fayyum",EG-FYM,governorate,,1428.9,,,3,Africa/Cairo,FALSE,1818446368
Bişrah,Bisrah,Bisra|Biṣrah,27.1720,31.2589,Egypt,EG,EGY,Asyūţ,Asyut,EG-AST,governorate,,4075.2,,,2,Africa/Cairo,FALSE,1818415807
"‘Izbat ash Shaykh Razīq","`Izbat ash Shaykh Raziq",,30.7778,31.7644,Egypt,EG,EGY,"Ash Sharqīyah","Ash Sharqiyah",EG-SHR,governorate,,2159.4,,,2,Africa/Cairo,FALSE,1818001142
"‘Izbat Aḩmad Ḩusayn","`Izbat Ahmad Husayn",,30.5807,31.5731,Egypt,EG,EGY,"Ash Sharqīyah","Ash Sharqiyah",EG-SHR,governorate,,2658.0,,,2,Africa/Cairo,FALSE,1818490417
"‘Izbat Aḩmad Ḩusayn","`Izbat Ahmad Husayn",,30.9023,31.7554,Egypt,EG,EGY,"Ash Sharqīyah","Ash Sharqiyah",EG-SHR,governorate,,736.5,,,3,Africa/Cairo,TRUE,1818001284
"Mīt Ḑāfir","Mit Dafir","Mīt Ḍāfir|Mît Ḍâfir",31.0825,31.5457,Egypt,EG,EGY,"Ad Daqahlīyah","Ad Daqahliyah",EG-DK,governorate,,1617.5,,,3,Africa/Cairo,FALSE,1818179012
"‘Izbat Awlād Nāşir","`Izbat Awlad Nasir","‘Izbat Awlād Nāṣir",31.1813,31.9821,Egypt,EG,EGY,"Ad Daqahlīyah","Ad Daqahliyah",EG-DK,governorate,,4263.8,,,2,Africa/Cairo,FALSE,1818104687
"Aswân Reservoir Colony","Aswan Reservoir Colony",,24.0167,32.8667,Egypt,EG,EGY,Aswān,Aswan,EG-ASN,governorate,,911.6,,,3,Africa/Cairo,FALSE,1818543046
"‘Izbat al Faransāwī","`Izbat al Faransawi","‘Ezbet el-Faransâwi",31.1732,30.1613,Egypt,EG,EGY,"Al Buḩayrah","Al Buhayrah",EG-BH,governorate,,1289.1,,,3,Africa/Cairo,FALSE,1818662360
"Nag‘ Ghîdân","Nag` Ghidan",,28.2333,30.6167,Egypt,EG,EGY,"Al Minyā","Al Minya",EG-MN,governorate,,1662.0,,,3,Africa/Cairo,FALSE,1818886944
"‘Izbat adh Dhi’ābah","`Izbat adh Dhi'abah","Nazlet el Diyâba",27.9333,30.8667,Egypt,EG,EGY,"Al Minyā","Al Minya",EG-MN,governorate,,1850.3,,,3,Africa/Cairo,FALSE,1818003611
"‘Izbat al Malākah","`Izbat al Malakah",,30.4994,31.5930,Egypt,EG,EGY,"Ash Sharqīyah","Ash Sharqiyah",EG-SHR,governorate,,2277.4,,,2,Africa/Cairo,FALSE,1818103261
"Nag’ el-Halfâya","Nag' el-Halfaya",,28.1667,30.6333,Egypt,EG,EGY,"Al Minyā","Al Minya",EG-MN,governorate,,1949.3,,,3,Africa/Cairo,FALSE,1818761630
Difrīyah,Difriyah,Difrîya,31.0667,31.9333,Egypt,EG,EGY,"Ash Sharqīyah","Ash Sharqiyah",EG-SHR,governorate,,566.6,,,3,Africa/Cairo,FALSE,1818833010
"‘Izbat Umm Zāmil","`Izbat Umm Zamil",,30.7970,31.7311,Egypt,EG,EGY,"Ash Sharqīyah","Ash Sharqiyah",EG-SHR,governorate,,2159.4,,,2,Africa/Cairo,FALSE,1818887060
"‘Izbat Aḩmad Ghazāl","`Izbat Ahmad Ghazal","‘Izbat Ahmad Ghazāl",30.9789,30.5766,Egypt,EG,EGY,"Al Buḩayrah","Al Buhayrah",EG-BH,governorate,,1573.4,,,3,Africa/Cairo,FALSE,1818585236
"Ash Shaykhah Marzūqah","Ash Shaykhah Marzuqah",,31.0297,29.6792,Egypt,EG,EGY,"Al Iskandarīyah","Al Iskandariyah",EG-ALX,governorate,,406.2,,,3,Africa/Cairo,FALSE,1818001599
"‘Izbat al ‘Uqr","`Izbat al `Uqr",,28.7984,30.9211,Egypt,EG,EGY,"Banī Suwayf","Bani Suwayf",EG-BNS,governorate,,545.5,,,3,Africa/Cairo,FALSE,1818001438
"Kafr Shammākh","Kafr Shammakh",,30.7950,30.7935,Egypt,EG,EGY,"Al Gharbīyah","Al Gharbiyah",EG-GH,governorate,,2447.9,,,2,Africa/Cairo,FALSE,1818288499
"Kafrat Abū Hibhibah","Kafrat Abu Hibhibah","Kafr Abu Habhab",31.4386,26.8513,Egypt,EG,EGY,Maţrūḩ,Matruh,EG-MT,governorate,,88.7,,,4,Africa/Cairo,FALSE,1818882941
"Kafr Difrīyah","Kafr Difriyah","Kafr Difrîya|Kafr Difriyyah",31.0536,30.9430,Egypt,EG,EGY,"Kafr ash Shaykh","Kafr ash Shaykh",EG-KFS,governorate,,1162.1,,,3,Africa/Cairo,FALSE,1818717042
"Az Zayarah","Az Zayarah",El-Zayara,27.0328,31.2695,Egypt,EG,EGY,Asyūţ,Asyut,EG-AST,governorate,,2659.7,,,2,Africa/Cairo,FALSE,1818875053
Buwayţ,Buwayt,Buwit|Buwīţ|Buwīṭ,27.0379,31.3940,Egypt,EG,EGY,Asyūţ,Asyut,EG-AST,governorate,,3911.9,,,2,Africa/Cairo,FALSE,1818096612
"‘Izbat ‘Abd al Jalīl","`Izbat `Abd al Jalil","‘Izbat ‘Abd al-Jalīl",31.0666,30.5113,Egypt,EG,EGY,"Al Buḩayrah","Al Buhayrah",EG-BH,governorate,,1541.8,,,3,Africa/Cairo,FALSE,1818416789
"‘Izbat Murād Makram","`Izbat Murad Makram",,31.0356,30.5213,Egypt,EG,EGY,"Al Buḩayrah","Al Buhayrah",EG-BH,governorate,,1541.8,,,3,Africa/Cairo,FALSE,1818000491
"‘Izbat Abū ‘Īsá","`Izbat Abu `Isa",,31.3263,30.6652,Egypt,EG,EGY,"Kafr ash Shaykh","Kafr ash Shaykh",EG-KFS,governorate,,873.1,,,3,Africa/Cairo,FALSE,1818456777
"Qaryah Raqm Khamsah","Qaryah Raqm Khamsah","Qaryah Number Five",31.2710,30.2245,Egypt,EG,EGY,"Al Buḩayrah","Al Buhayrah",EG-BH,governorate,,1308.8,,,3,Africa/Cairo,FALSE,1818871733
"‘Izbat ‘Abd al Karīm al Qiblīyah","`Izbat `Abd al Karim al Qibliyah",,31.2592,31.1189,Egypt,EG,EGY,"Kafr ash Shaykh","Kafr ash Shaykh",EG-KFS,governorate,,522.8,,,3,Africa/Cairo,FALSE,1818956349
"‘Izbat Badr Mar‘ī","`Izbat Badr Mar`i",,30.8963,30.6315,Egypt,EG,EGY,"Al Buḩayrah","Al Buhayrah",EG-BH,governorate,,1641.7,,,3,Africa/Cairo,FALSE,1818000978
"Minshāt ‘Abd an Nabī","Minshat `Abd an Nabi","Minshât ‘Abd el-Nabi",30.9000,31.2833,Egypt,EG,EGY,"Ad Daqahlīyah","Ad Daqahliyah",EG-DK,governorate,,2114.4,,,2,Africa/Cairo,FALSE,1818804114
Ḩafş,Hafs,,30.9951,30.3383,Egypt,EG,EGY,"Al Buḩayrah","Al Buhayrah",EG-BH,governorate,,1541.8,,,3,Africa/Cairo,FALSE,1818959692
"Naj‘ Siţayḩ","Naj` Sitayh","Nag‘ Siṭeiḥ|Naj‘ Siṭayḥ",25.4679,32.4919,Egypt,EG,EGY,Qinā,Qina,EG-KN,governorate,,1257.9,,,3,Africa/Cairo,FALSE,1818461300
"Az̧ Z̧āfir","Az Zafir",Aẓ-Ẓāfir,30.9078,29.8926,Egypt,EG,EGY,"Al Buḩayrah","Al Buhayrah",EG-BH,governorate,,320.8,,,3,Africa/Cairo,FALSE,1818073259
"‘Izbat Abū Fāţimah","`Izbat Abu Fatimah",,31.0264,30.6680,Egypt,EG,EGY,"Al Buḩayrah","Al Buhayrah",EG-BH,governorate,,1584.1,,,3,Africa/Cairo,FALSE,1818948584
"‘Izbat Muḩammad Ibrāhīm Maţrūd","`Izbat Muhammad Ibrahim Matrud",,30.5943,32.1490,Egypt,EG,EGY,"Al Ismā‘īlīyah","Al Isma'iliyah",EG-IS,governorate,,287.0,,,3,Africa/Cairo,FALSE,1818000651
"Al Kawm aţ Ţawīl","Al Kawm at Tawil","El Kōm et Tawīl|El-Kôm el-Ṭawîl|Al-Kawm aṭ-Ṭawīl",31.1999,31.0888,Egypt,EG,EGY,"Kafr ash Shaykh","Kafr ash Shaykh",EG-KFS,governorate,,821.9,,,3,Africa/Cairo,FALSE,1818173412
"Qaryat al Amal","Qaryat al Amal",,31.0532,29.9425,Egypt,EG,EGY,"Al Buḩayrah","Al Buhayrah",EG-BH,governorate,,1288.8,,,3,Africa/Cairo,FALSE,1818463460
"‘Izbat as Sa‘ādinah","`Izbat as Sa`adinah","‘Izbat as Sa‘ādnah",30.1760,31.2395,Egypt,EG,EGY,"Al Qalyūbīyah","Al Qalyubiyah",EG-KB,governorate,,5016.9,,,2,Africa/Cairo,FALSE,1818324468
"Bayt ‘Allām","Bayt `Allam","Beit ‘Allâm",26.2360,31.8651,Egypt,EG,EGY,Sūhāj,Suhaj,EG-SHG,governorate,,50.3,,,4,Africa/Cairo,FALSE,1818417230
"Rizqat ash Shinnāwī al Ḩamīdīyah","Rizqat ash Shinnawi al Hamidiyah","Rizqat ash shinnāwī|Rizqet el-Shinnâwi|Rizqat ash-Shinnāwī al-Ḥamīdiyyah",31.0900,30.8734,Egypt,EG,EGY,"Kafr ash Shaykh","Kafr ash Shaykh",EG-KFS,governorate,,1144.2,,,3,Africa/Cairo,FALSE,1818092021
"Al ‘Aqabah al Kabīrah","Al `Aqabah al Kabirah","El ‘Aqaba el Kebîra",24.2753,32.9044,Egypt,EG,EGY,"Al Baḩr al Aḩmar","Al Bahr al Ahmar",EG-BA,governorate,,43.9,,,4,Africa/Cairo,FALSE,1818959954
"Dimwah as Sibākh","Dimwah as Sibakh","Dimwat as-Sibākh",31.0856,31.5423,Egypt,EG,EGY,"Ad Daqahlīyah","Ad Daqahliyah",EG-DK,governorate,,1617.5,,,3,Africa/Cairo,FALSE,1818096720
"‘Izbat ‘Abd Allāh Bāshā","`Izbat `Abd Allah Basha",,30.8330,30.7290,Egypt,EG,EGY,"Al Buḩayrah","Al Buhayrah",EG-BH,governorate,,1641.7,,,3,Africa/Cairo,FALSE,1818000852
"‘Izbat Ţūsun","`Izbat Tusun",,31.1029,30.2210,Egypt,EG,EGY,"Al Buḩayrah","Al Buhayrah",EG-BH,governorate,,1254.3,,,3,Africa/Cairo,FALSE,1818092625
"Masākin al ‘Āshir min Ramaḑān","Masakin al `Ashir min Ramadan","10th of Ramaḍān Dwellings",26.3464,34.0854,Egypt,EG,EGY,"Al Baḩr al Aḩmar","Al Bahr al Ahmar",EG-BA,governorate,,9.6,,,5,Africa/Cairo,FALSE,1818001403
"‘Izbat al Mirghanī","`Izbat al Mirghani","‘Izbat al Mirghanī",30.4515,31.0280,Egypt,EG,EGY,"Al Minūfīyah","Al Minufiyah",EG-MNF,governorate,,2405.1,,,2,Africa/Cairo,FALSE,1818878122
"‘Izbat al Qinn","`Izbat al Qinn",,31.2890,30.7625,Egypt,EG,EGY,"Kafr ash Shaykh","Kafr ash Shaykh",EG-KFS,governorate,,896.7,,,3,Africa/Cairo,FALSE,1818831928
"Munsha’at al ‘Ammārī","Munsha'at al `Ammari","Minshāt al-‘Ammārī",25.6860,32.6959,Egypt,EG,EGY,"Al Uqşur","Al Uqsur",EG-LX,governorate,,28443.2,,,2,Africa/Cairo,FALSE,1818296767
"‘Izbat Ilyās","`Izbat Ilyas","‘Ezbet Ilyâs",29.4628,30.7285,Egypt,EG,EGY,"Al Fayyūm","Al Fayyum",EG-FYM,governorate,,2587.5,,,2,Africa/Cairo,FALSE,1818180428
"‘Izbat Ḩusayn Wahbī Rāghib","`Izbat Husayn Wahbi Raghib","‘Izbat Husayn Wahbi Raghib|Ezbet Ḥusayn Bey Wahbi Râghib",31.1471,30.6647,Egypt,EG,EGY,"Kafr ash Shaykh","Kafr ash Shaykh",EG-KFS,governorate,,16993.9,,,2,Africa/Cairo,FALSE,1818065207
"Qaryat Sanad Raqm Thalāthah","Qaryat Sanad Raqm Thalathah","Qaryat Sanad No. 3|Qaryat Sanad Number Three",31.0241,29.9255,Egypt,EG,EGY,"Al Buḩayrah","Al Buhayrah",EG-BH,governorate,,320.8,,,3,Africa/Cairo,FALSE,1818000028
Nujūm,Nujum,Nugûm,30.7773,31.5550,Egypt,EG,EGY,"Ash Sharqīyah","Ash Sharqiyah",EG-SHR,governorate,,1683.5,,,3,Africa/Cairo,FALSE,1818780160
"Kafr ‘Askar Şafţ","Kafr `Askar Saft","Kafr ‘Askar Ṣafṭ",30.9470,30.6654,Egypt,EG,EGY,"Al Buḩayrah","Al Buhayrah",EG-BH,governorate,,1641.7,,,3,Africa/Cairo,FALSE,1818167722
"‘Izbat Maḩmūd Sa‘īd","`Izbat Mahmud Sa`id","‘Izbat Maḥmūd Sa‘īd",30.9679,30.7254,Egypt,EG,EGY,"Al Buḩayrah","Al Buhayrah",EG-BH,governorate,,1584.1,,,3,Africa/Cairo,FALSE,1818251617
Sa’ruwah,Sa'ruwah,,31.3554,31.1874,Egypt,EG,EGY,"Kafr ash Shaykh","Kafr ash Shaykh",EG-KFS,governorate,,522.8,,,3,Africa/Cairo,FALSE,1818173435
"Dimrū Salmān","Dimru Salman","Dimru Salmān|Damru Salmân",31.1705,30.6817,Egypt,EG,EGY,"Kafr ash Shaykh","Kafr ash Shaykh",EG-KFS,governorate,,1442.6,,,3,Africa/Cairo,FALSE,1818755151
"‘Izbat Muşţafá Fawdah","`Izbat Mustafa Fawdah","‘Izbat Muşţafá Fūdah|‘Iz. Muṣṭafa’ Fūdah",30.8417,31.4454,Egypt,EG,EGY,"Ad Daqahlīyah","Ad Daqahliyah",EG-DK,governorate,,1893.6,,,3,Africa/Cairo,FALSE,1818165234
"‘Ezbet el-Badârwa","`Ezbet el-Badarwa",,31.3667,31.1833,Egypt,EG,EGY,"Kafr ash Shaykh","Kafr ash Shaykh",EG-KFS,governorate,,522.8,,,3,Africa/Cairo,FALSE,1818768778
"‘Izbat ‘Abd ar Raḩmān Abū ‘Āfiyah","`Izbat `Abd ar Rahman Abu `Afiyah","‘Iz. ‘Abd ar-Raḥman Abū ‘Afyah|‘Izbat ‘Abd ar Raḩman Abū ‘Afyah",30.8096,31.4320,Egypt,EG,EGY,"Ash Sharqīyah","Ash Sharqiyah",EG-SHR,governorate,,1989.3,,,3,Africa/Cairo,FALSE,1818812846
"‘Izbat as Subayḩī","`Izbat as Subayhi","‘Izbat as Sibayḩī",31.4534,30.4039,Egypt,EG,EGY,"Kafr ash Shaykh","Kafr ash Shaykh",EG-KFS,governorate,,1165.6,,,3,Africa/Cairo,FALSE,1818167542
"‘Ezbet Maasûr Ali Sulîman","`Ezbet Maasur Ali Suliman",,29.5000,30.8500,Egypt,EG,EGY,"Al Fayyūm","Al Fayyum",EG-FYM,governorate,,2613.0,,,2,Africa/Cairo,FALSE,1818631400
"Al Akhmīyīn","Al Akhmiyin",El-Akhmîyin,30.1697,31.1704,Egypt,EG,EGY,"Al Qalyūbīyah","Al Qalyubiyah",EG-KB,governorate,,4875.8,,,2,Africa/Cairo,FALSE,1818648847
"Manshīyat Mubārak","Manshiyat Mubarak","Manshiyyat Mubārak",31.1406,30.9247,Egypt,EG,EGY,"Kafr ash Shaykh","Kafr ash Shaykh",EG-KFS,governorate,,7698.3,,,2,Africa/Cairo,FALSE,1818000418
"Kôm Turûga","Kom Turuga","‘Ezbet Kôm Turûga",30.9594,30.1528,Egypt,EG,EGY,"Al Buḩayrah","Al Buhayrah",EG-BH,governorate,,320.8,,,3,Africa/Cairo,FALSE,1818175596
"Al Hajārisah","Al Hajarisah",El-Hagârsa,30.7957,31.5653,Egypt,EG,EGY,"Ash Sharqīyah","Ash Sharqiyah",EG-SHR,governorate,,2126.2,,,2,Africa/Cairo,FALSE,1818644579
"Naj‘ Muḩammad Ḩasanayn Kurayyim","Naj` Muhammad Hasanayn Kurayyim","Nag‘ Muḥammad Hasanein Kuraiyim",27.6000,30.6667,Egypt,EG,EGY,Asyūţ,Asyut,EG-AST,governorate,,1853.2,,,3,Africa/Cairo,FALSE,1818557068
"‘Izbat ‘Abd al Ḩamīd Maḩmūd","`Izbat `Abd al Hamid Mahmud","‘Izbat ‘Abd al Ḥamīd Maḥmūd",30.3158,30.9485,Egypt,EG,EGY,"Al Minūfīyah","Al Minufiyah",EG-MNF,governorate,,2748.7,,,2,Africa/Cairo,FALSE,1818000179
"‘Izbat Mahrān Mu‘āwin","`Izbat Mahran Mu`awin","Ezbet Mahran Mi’awin",30.8839,32.0578,Egypt,EG,EGY,"Ash Sharqīyah","Ash Sharqiyah",EG-SHR,governorate,,566.6,,,3,Africa/Cairo,FALSE,1818345875
"‘Izbat Abū Zayd","`Izbat Abu Zayd",,30.6730,31.7301,Egypt,EG,EGY,"Ash Sharqīyah","Ash Sharqiyah",EG-SHR,governorate,,2159.4,,,2,Africa/Cairo,FALSE,1818548597
"‘Izbat Abū Zayd","`Izbat Abu Zayd",,30.5574,31.6293,Egypt,EG,EGY,"Ash Sharqīyah","Ash Sharqiyah",EG-SHR,governorate,,1706.9,,,3,Africa/Cairo,TRUE,1818176145
"‘Izbat Abū Zayd","`Izbat Abu Zayd",,30.7830,31.5670,Egypt,EG,EGY,"Ash Sharqīyah","Ash Sharqiyah",EG-SHR,governorate,,1532.9,,,3,Africa/Cairo,TRUE,1818253403
"Al Hajārisah","Al Hajarisah","El Hagârsa",26.4667,31.6833,Egypt,EG,EGY,Sūhāj,Suhaj,EG-SHG,governorate,,1868.8,,,3,Africa/Cairo,FALSE,1818789114
"Abu Umuri","Abu Umuri","Qabîlet el-Azayza",25.9833,32.1833,Egypt,EG,EGY,Qinā,Qina,EG-KN,governorate,,1.1,,,5,Africa/Cairo,FALSE,1818219505
"Naj‘ ar Rubay‘āt","Naj` ar Rubay`at","Nag el Rabeiiyat",27.6167,30.6833,Egypt,EG,EGY,Asyūţ,Asyut,EG-AST,governorate,,1825.8,,,3,Africa/Cairo,FALSE,1818323576
"Nazlat ad Damā’irah","Nazlat ad Dama'irah","Nazlet el Damâyir",27.2333,31.1167,Egypt,EG,EGY,Asyūţ,Asyut,EG-AST,governorate,,4032.4,,,2,Africa/Cairo,FALSE,1818760206
"Al Khulayfīyah","Al Khulayfiyah",El-Khuleifîya,31.3702,31.7638,Egypt,EG,EGY,"Ad Daqahlīyah","Ad Daqahliyah",EG-DK,governorate,,2269.9,,,2,Africa/Cairo,FALSE,1818263290
"Banī Quraysh","Bani Quraysh","Beni Qureish",30.5873,31.3670,Egypt,EG,EGY,"Ash Sharqīyah","Ash Sharqiyah",EG-SHR,governorate,,2610.8,,,2,Africa/Cairo,FALSE,1818753371
"‘Izbat Muḩammad Manşūr","`Izbat Muhammad Mansur",,30.6107,31.2103,Egypt,EG,EGY,"Al Minūfīyah","Al Minufiyah",EG-MNF,governorate,,2430.3,,,2,Africa/Cairo,FALSE,1818420042
"‘Izbat Ḩasan ash Shawādifī","`Izbat Hasan ash Shawadifi","‘Izbat Ḥasan ash-Shawādifī",31.1577,30.8119,Egypt,EG,EGY,"Kafr ash Shaykh","Kafr ash Shaykh",EG-KFS,governorate,,1577.2,,,3,Africa/Cairo,FALSE,1818357368
"‘Izbat ‘Alī ‘Abd al ‘Āţī","`Izbat `Ali `Abd al `Ati","‘Izbat ‘Ali ‘Abd al-‘Āṭī",30.9850,30.6713,Egypt,EG,EGY,"Al Buḩayrah","Al Buhayrah",EG-BH,governorate,,1584.1,,,3,Africa/Cairo,FALSE,1818000977
"Al Ja‘‘ār","Al Ja``ar",,30.4786,30.1668,Egypt,EG,EGY,"Al Buḩayrah","Al Buhayrah",EG-BH,governorate,,4093.5,,,2,Africa/Cairo,FALSE,1818202374
"‘Izbat ash Sharqīyah","`Izbat ash Sharqiyah","‘Izbat ash-Sharqiyyah|‘Izbat ash Sharqiyyah",31.0777,31.1006,Egypt,EG,EGY,"Al Gharbīyah","Al Gharbiyah",EG-GH,governorate,,1716.1,,,3,Africa/Cairo,FALSE,1818327471
"Ibrâhîm Ḥakîm","Ibrahim Hakim","Ibn Ḩakīm",31.4142,31.8336,Egypt,EG,EGY,Dumyāţ,Dumyat,EG-DT,governorate,,2175.2,,,2,Africa/Cairo,FALSE,1818961973
"Manshīyat Shalabī","Manshiyat Shalabi",,30.8060,31.6197,Egypt,EG,EGY,"Ash Sharqīyah","Ash Sharqiyah",EG-SHR,governorate,,1532.9,,,3,Africa/Cairo,FALSE,1818009066
"‘Izbat Muḩammad ‘Abd al Wāḩid","`Izbat Muhammad `Abd al Wahid","‘Izbat Muḥammad ‘Abd al-Wāḥid",31.1536,30.9082,Egypt,EG,EGY,"Kafr ash Shaykh","Kafr ash Shaykh",EG-KFS,governorate,,1144.2,,,3,Africa/Cairo,FALSE,1818000414
Qirimlah,Qirimlah,Qirimla,30.4160,31.4435,Egypt,EG,EGY,"Ash Sharqīyah","Ash Sharqiyah",EG-SHR,governorate,,2253.0,,,2,Africa/Cairo,FALSE,1818528644
"Al Jarīdāt","Al Jaridat","El Girîdât",26.8167,31.4333,Egypt,EG,EGY,Sūhāj,Suhaj,EG-SHG,governorate,,2740.5,,,2,Africa/Cairo,FALSE,1818511288
"‘Izbat al Wābūrāt","`Izbat al Waburat","‘Ezbet el-Wâbûrât|Ezbet el-Wāburāt",30.5564,31.9472,Egypt,EG,EGY,"Ash Sharqīyah","Ash Sharqiyah",EG-SHR,governorate,,250.5,,,3,Africa/Cairo,FALSE,1818527752
Salakā,Salaka,Salaka,30.9847,31.3489,Egypt,EG,EGY,"Ad Daqahlīyah","Ad Daqahliyah",EG-DK,governorate,,1994.2,,,3,Africa/Cairo,FALSE,1818070472
"‘Izbat al Madrasah","`Izbat al Madrasah",,30.8144,30.7248,Egypt,EG,EGY,"Al Buḩayrah","Al Buhayrah",EG-BH,governorate,,1631.8,,,3,Africa/Cairo,FALSE,1818000845
"‘Izbat Abū ‘Uthmān","`Izbat Abu `Uthman",,30.4955,31.6342,Egypt,EG,EGY,"Ash Sharqīyah","Ash Sharqiyah",EG-SHR,governorate,,1706.9,,,3,Africa/Cairo,FALSE,1818899922
"‘Izbah Raqm Ithnā ‘Ashar","`Izbah Raqm Ithna `Ashar","‘Izbah Raqm 12",31.4087,31.0758,Egypt,EG,EGY,"Kafr ash Shaykh","Kafr ash Shaykh",EG-KFS,governorate,,522.8,,,3,Africa/Cairo,FALSE,1818703544
"Qaryat Jālyah ath Thāniyah","Qaryat Jalyah ath Thaniyah",,31.3587,31.3349,Egypt,EG,EGY,"Ad Daqahlīyah","Ad Daqahliyah",EG-DK,governorate,,804.6,,,3,Africa/Cairo,FALSE,1818891362
"Nazlat Tādrus","Nazlat Tadrus","Nazlet Tâdrus|Nazlat Fāris",27.8500,30.7167,Egypt,EG,EGY,"Al Minyā","Al Minya",EG-MN,governorate,,2540.6,,,2,Africa/Cairo,FALSE,1818324790
"‘Izbat al Işlāḩ Thānī","`Izbat al Islah Thani","‘Izbat al Iṣlāḥ No. 2",30.9866,31.0436,Egypt,EG,EGY,"Al Gharbīyah","Al Gharbiyah",EG-GH,governorate,,1712.6,,,3,Africa/Cairo,FALSE,1818828761
"Al Ghūrī","Al Ghuri",El-Ghûri,30.6239,31.0495,Egypt,EG,EGY,"Al Minūfīyah","Al Minufiyah",EG-MNF,governorate,,2721.6,,,2,Africa/Cairo,FALSE,1818297792
"‘Izbat Zayyān","`Izbat Zayyan",Zaîyân|Zayyān,31.4030,31.4999,Egypt,EG,EGY,"Ad Daqahlīyah","Ad Daqahliyah",EG-DK,governorate,,804.6,,,3,Africa/Cairo,FALSE,1818479394
"Abū Ţabl","Abu Tabl","Kafr Abu Ṭabl|Abū Tabl",31.0783,30.9482,Egypt,EG,EGY,"Kafr ash Shaykh","Kafr ash Shaykh",EG-KFS,governorate,,1144.2,,,3,Africa/Cairo,FALSE,1818443014
"Ar Rawātib","Ar Rawatib",,26.1560,32.0616,Egypt,EG,EGY,Qinā,Qina,EG-KN,governorate,,1736.6,,,3,Africa/Cairo,FALSE,1818110718
"‘Izbat Muḩammad ‘Umar Murād","`Izbat Muhammad `Umar Murad",,30.3776,31.5083,Egypt,EG,EGY,"Ash Sharqīyah","Ash Sharqiyah",EG-SHR,governorate,,2253.0,,,2,Africa/Cairo,FALSE,1818507325
"Ar Rizqah","Ar Rizqah","Er Rizqa|El Rizqa",26.1187,32.1459,Egypt,EG,EGY,Qinā,Qina,EG-KN,governorate,,1736.6,,,3,Africa/Cairo,FALSE,1818561247
"‘Izbat al Gharīb","`Izbat al Gharib",,29.3503,30.8628,Egypt,EG,EGY,"Al Fayyūm","Al Fayyum",EG-FYM,governorate,,2526.4,,,2,Africa/Cairo,FALSE,1818609112
"‘Izbat al Waqf","`Izbat al Waqf",,30.4892,30.8385,Egypt,EG,EGY,"Al Minūfīyah","Al Minufiyah",EG-MNF,governorate,,2178.8,,,2,Africa/Cairo,FALSE,1818000101
"‘Izbat al Waqf","`Izbat al Waqf",,30.6677,30.8846,Egypt,EG,EGY,"Al Minūfīyah","Al Minufiyah",EG-MNF,governorate,,2057.7,,,2,Africa/Cairo,TRUE,1818000741
"Shifā wa Qurūn","Shifa wa Qurun","Shifa wa Qurûn|Shifa and Qurûn",30.9020,30.8890,Egypt,EG,EGY,"Al Gharbīyah","Al Gharbiyah",EG-GH,governorate,,1850.1,,,3,Africa/Cairo,FALSE,1818058463
"Abū Sinbil","Abu Sinbil",,30.9753,29.8379,Egypt,EG,EGY,"Al Iskandarīyah","Al Iskandariyah",EG-ALX,governorate,,705.3,,,3,Africa/Cairo,FALSE,1818767986
Bindār,Bindar,"Bindâr el Sharqîya|El Bindar",26.3703,31.8461,Egypt,EG,EGY,Sūhāj,Suhaj,EG-SHG,governorate,,2726.7,,,2,Africa/Cairo,FALSE,1818530196
"‘Izbat as Sakan","`Izbat as Sakan","‘Izbat as-Sakan",31.1941,31.2985,Egypt,EG,EGY,"Ad Daqahlīyah","Ad Daqahliyah",EG-DK,governorate,,1522.4,,,3,Africa/Cairo,FALSE,1818822015
"‘Izbat Shawārid","`Izbat Shawarid","Kafr ash Shawārid|Kafr el-Shawârid",30.7864,31.9654,Egypt,EG,EGY,"Ash Sharqīyah","Ash Sharqiyah",EG-SHR,governorate,,566.6,,,3,Africa/Cairo,FALSE,1818979901
"Kafr al Maḩmūdīyah","Kafr al Mahmudiyah","Kafr el-Maḥmûdîya|El-Maḥmûdîya|Al Maḩmūdīyah|Kafr al-Maḥmūdiyyah|Al-Maḥmūdiyyah",30.6678,31.5015,Egypt,EG,EGY,"Ash Sharqīyah","Ash Sharqiyah",EG-SHR,governorate,,2098.0,,,2,Africa/Cairo,FALSE,1818358209
"Az Zurayqī","Az Zurayqi",Az-Zurayqī|El-Zireiqi,30.9347,31.4326,Egypt,EG,EGY,"Ad Daqahlīyah","Ad Daqahliyah",EG-DK,governorate,,1893.6,,,3,Africa/Cairo,FALSE,1818469793
"‘Izbat Abū ‘Uwaynāt","`Izbat Abu `Uwaynat",,30.9745,31.7805,Egypt,EG,EGY,"Ash Sharqīyah","Ash Sharqiyah",EG-SHR,governorate,,736.5,,,3,Africa/Cairo,FALSE,1818001247
"Banī ‘Āmir","Bani `Amir","Beni ‘Âmir",30.5924,31.5651,Egypt,EG,EGY,"Ash Sharqīyah","Ash Sharqiyah",EG-SHR,governorate,,2658.0,,,2,Africa/Cairo,FALSE,1818799124
"Al Maqḑabah","Al Maqdabah","Magdaba|El Magdhaba|El Maqdaba",30.8958,34.0246,Egypt,EG,EGY,"Shamāl Sīnā’","Shamal Sina'",EG-SIN,governorate,,3.6,,,4,Africa/Cairo,FALSE,1818000034
"‘Izbat ‘Awnī","`Izbat `Awni","‘Iz. ‘Awnī",31.0546,31.5961,Egypt,EG,EGY,"Ad Daqahlīyah","Ad Daqahliyah",EG-DK,governorate,,1500.1,,,3,Africa/Cairo,FALSE,1818575294
"Kafr al ‘Awā’inah","Kafr al `Awa'inah","Kafr el-‘Uwaiyna",30.7833,31.9833,Egypt,EG,EGY,"Ash Sharqīyah","Ash Sharqiyah",EG-SHR,governorate,,566.6,,,3,Africa/Cairo,FALSE,1818518473
"Al ‘Ajamīyīn","Al `Ajamiyin","El-‘Agmiyîn|El ‘Agamîyîn|Al-‘Ajamiyyīn",29.3399,30.7205,Egypt,EG,EGY,"Al Fayyūm","Al Fayyum",EG-FYM,governorate,,2587.5,,,2,Africa/Cairo,FALSE,1818008276
"‘Izbat ‘Abū ‘Āmir","`Izbat `Abu `Amir",,30.1045,31.0695,Egypt,EG,EGY,"Al Jīzah","Al Jizah",EG-GZ,governorate,,3062.5,,,2,Africa/Cairo,FALSE,1818308290
"Al Qaşabah ash Sharqīyah","Al Qasabah ash Sharqiyah","El Qaṣaba el Sharqîya|El Qasaba esh Sharqīya",30.7740,29.0440,Egypt,EG,EGY,Maţrūḩ,Matruh,EG-MT,governorate,,191.4,,,4,Africa/Cairo,FALSE,1818415885
"‘Ezbet el-Qâdi Hafs","`Ezbet el-Qadi Hafs",,30.9953,30.3386,Egypt,EG,EGY,"Al Buḩayrah","Al Buhayrah",EG-BH,governorate,,1541.8,,,3,Africa/Cairo,FALSE,1818744184
"‘Izbat Jum‘ah","`Izbat Jum`ah",,30.4196,30.9270,Egypt,EG,EGY,"Al Minūfīyah","Al Minufiyah",EG-MNF,governorate,,2338.1,,,2,Africa/Cairo,FALSE,1818000224
"Qaryat al ‘Āmilīn","Qaryat al `Amilin",,30.8298,29.9266,Egypt,EG,EGY,"Al Buḩayrah","Al Buhayrah",EG-BH,governorate,,320.8,,,3,Africa/Cairo,FALSE,1818151713
Nāţūrah,Naturah,Nâṭûra,30.8035,31.6388,Egypt,EG,EGY,"Ash Sharqīyah","Ash Sharqiyah",EG-SHR,governorate,,1532.9,,,3,Africa/Cairo,FALSE,1818893573
"Al Manşūrah","Al Mansurah","El Manṣûra",29.2272,31.0161,Egypt,EG,EGY,"Al Fayyūm","Al Fayyum",EG-FYM,governorate,,1797.9,,,3,Africa/Cairo,FALSE,1818713652
"‘Ezbet Luṭaîyif","`Ezbet Lutaiyif",,30.8347,30.4364,Egypt,EG,EGY,"Al Buḩayrah","Al Buhayrah",EG-BH,governorate,,747.4,,,3,Africa/Cairo,FALSE,1818165240
Dimrū,Dimru,"‘Ezbet Damru",31.3415,30.8034,Egypt,EG,EGY,"Kafr ash Shaykh","Kafr ash Shaykh",EG-KFS,governorate,,873.1,,,3,Africa/Cairo,FALSE,1818752160
"‘Izbat Farḩān ‘Īd","`Izbat Farhan `Id","‘Ezbet Farḥân ‘Eîd",30.2167,32.4333,Egypt,EG,EGY,"As Suways","As Suways",EG-SUZ,governorate,,91.8,,,4,Africa/Cairo,FALSE,1818829804
"Qaryah Raqam at Tāsi‘at ‘Ashar","Qaryah Raqam at Tasi`at `Ashar","Qaryah Number Nineteen",30.7901,29.6483,Egypt,EG,EGY,Maţrūḩ,Matruh,EG-MT,governorate,,166.4,,,4,Africa/Cairo,FALSE,1818001574
"Al Ḩafā’ir","Al Hafa'ir","El-Hafâyir|El Ḥafair",29.7611,32.4108,Egypt,EG,EGY,"As Suways","As Suways",EG-SUZ,governorate,,5.1,,,5,Africa/Cairo,FALSE,1818472905
Diyasţ,Diyast,Diyasṭ|Diasṭ|Diyast,31.1503,31.4353,Egypt,EG,EGY,"Ad Daqahlīyah","Ad Daqahliyah",EG-DK,governorate,,2696.9,,,2,Africa/Cairo,FALSE,1818952133
Bashālūsh,Bashalush,,30.7167,31.3000,Egypt,EG,EGY,"Ad Daqahlīyah","Ad Daqahliyah",EG-DK,governorate,,2815.4,,,2,Africa/Cairo,FALSE,1818322591
"Naj‘ as Sanā’isah","Naj` as Sana'isah","Nag‘ el Sanâysa|El Sanâbsa",26.0833,32.4167,Egypt,EG,EGY,Qinā,Qina,EG-KN,governorate,,1500.9,,,3,Africa/Cairo,FALSE,1818016626
"As Salmīyah al Ḩā’iţ","As Salmiyah al Ha'it","El Salamîya el Ḥâ’iṭ|El Salamiya|As Salamīyah al Ḩā’iţ|Es Salamīya el Hāit|As-Salmiyyah al-Ḥā’iṭ",26.0696,32.2686,Egypt,EG,EGY,Qinā,Qina,EG-KN,governorate,,2104.8,,,2,Africa/Cairo,FALSE,1818725674
"Jazīrat al Muntaşir","Jazirat al Muntasir","Geziret el Muntasir|Jazīrat al-Muntaṣir",26.5456,31.8055,Egypt,EG,EGY,Sūhāj,Suhaj,EG-SHG,governorate,,3303.8,,,2,Africa/Cairo,FALSE,1818558081
"Al Jazīrah ash Sharqīyah","Al Jazirah ash Sharqiyah","El Mudil|Jazīrah ash Sharqīyah|Ash-Sharqiyyah Island",28.8781,30.9339,Egypt,EG,EGY,"Banī Suwayf","Bani Suwayf",EG-BNS,governorate,,2451.0,,,2,Africa/Cairo,FALSE,1818254397
"‘Izbat ‘Abd al Qādir","`Izbat `Abd al Qadir","‘Izbat ‘Abd al-Qādir",31.0249,31.1361,Egypt,EG,EGY,"Al Gharbīyah","Al Gharbiyah",EG-GH,governorate,,1716.1,,,3,Africa/Cairo,FALSE,1818013064
Ishlīmah,Ishlimah,Ishlîma,30.8743,30.7499,Egypt,EG,EGY,"Al Buḩayrah","Al Buhayrah",EG-BH,governorate,,1641.7,,,3,Africa/Cairo,FALSE,1818174814
"Nazlat as Sūq","Nazlat as Suq","Nazlet el Sûq",26.8333,31.3500,Egypt,EG,EGY,Sūhāj,Suhaj,EG-SHG,governorate,,955.6,,,3,Africa/Cairo,FALSE,1818427128
"‘Izbat Abū ‘Awf","`Izbat Abu `Awf",,30.9342,30.2350,Egypt,EG,EGY,"Al Buḩayrah","Al Buhayrah",EG-BH,governorate,,762.6,,,3,Africa/Cairo,FALSE,1818529814
"Kafr al Manshīyah","Kafr al Manshiyah","Kafr el-Manshîya",30.7833,31.9667,Egypt,EG,EGY,"Ash Sharqīyah","Ash Sharqiyah",EG-SHR,governorate,,566.6,,,3,Africa/Cairo,FALSE,1818736940
"Naj‘ Muḩarraqah Gharb","Naj` Muharraqah Gharb","Nag‘ el Miḥarraqa|Nag‘ Miḥarraqa Gharb|Maharraka",23.0500,32.6833,Egypt,EG,EGY,Aswān,Aswan,EG-ASN,governorate,,0.0,,,4,Africa/Cairo,FALSE,1818670795
"‘Izbat Ḩamad","`Izbat Hamad","‘Izbat Ḥamad",30.9433,31.1624,Egypt,EG,EGY,"Al Gharbīyah","Al Gharbiyah",EG-GH,governorate,,12271.3,,,2,Africa/Cairo,FALSE,1818723307
"Şafţ al Laban","Saft al Laban","Saft el Laban|Ṣafṭ al-Laban",28.1852,30.7292,Egypt,EG,EGY,"Al Minyā","Al Minya",EG-MN,governorate,,1949.3,,,3,Africa/Cairo,FALSE,1818171177
"Kafr al Wazīr","Kafr al Wazir","Kafr el-Wazîr",30.6792,31.3325,Egypt,EG,EGY,"Ad Daqahlīyah","Ad Daqahliyah",EG-DK,governorate,,2815.4,,,2,Africa/Cairo,FALSE,1818472898
"Qanāţir Zarqūn","Qanatir Zarqun","Qanāṭir Zarqūn",31.1176,30.4826,Egypt,EG,EGY,"Al Buḩayrah","Al Buhayrah",EG-BH,governorate,,1541.8,,,3,Africa/Cairo,FALSE,1818098200
"‘Izbat al Musayrī","`Izbat al Musayri","‘Izbat al Misayrī",31.3440,31.6092,Egypt,EG,EGY,Dumyāţ,Dumyat,EG-DT,governorate,,1474.6,,,3,Africa/Cairo,FALSE,1818277217
"Sumusţā as Sulţānī","Sumusta as Sultani","Sumusṭa el Sulṭâni",28.9167,30.8500,Egypt,EG,EGY,"Banī Suwayf","Bani Suwayf",EG-BNS,governorate,,2044.1,,,2,Africa/Cairo,FALSE,1818475367
"Naj‘ al Qarwad","Naj` al Qarwad","Nag el Qarwad",24.1500,32.8833,Egypt,EG,EGY,Aswān,Aswan,EG-ASN,governorate,,43.9,,,4,Africa/Cairo,FALSE,1818941465
"Naj‘ as Sabīl","Naj` as Sabil","Naj‘ as-Sabil",26.0435,32.7528,Egypt,EG,EGY,Qinā,Qina,EG-KN,governorate,,1650.7,,,3,Africa/Cairo,FALSE,1818353912
"Quwaysinā al Maḩaţţah","Quwaysina al Mahattah",,30.5469,31.1344,Egypt,EG,EGY,"Al Qalyūbīyah","Al Qalyubiyah",EG-KB,governorate,,2430.3,,,2,Africa/Cairo,FALSE,1818946288
"Jummayzat Banī ‘Amrū","Jummayzat Bani `Amru","Gimmerizet Beni ‘Amr|Gimmeizet Beni ‘Amr|Jummayzat Banī ‘Amr",30.8009,31.5379,Egypt,EG,EGY,"Ad Daqahlīyah","Ad Daqahliyah",EG-DK,governorate,,2126.2,,,2,Africa/Cairo,FALSE,1818902584
"‘Izbat ath Thamānīn","`Izbat ath Thamanin",,30.5008,31.5515,Egypt,EG,EGY,"Ash Sharqīyah","Ash Sharqiyah",EG-SHR,governorate,,2658.0,,,2,Africa/Cairo,FALSE,1818166472
"‘Izbat ath Thamānīn","`Izbat ath Thamanin",,30.4992,31.7363,Egypt,EG,EGY,"Ash Sharqīyah","Ash Sharqiyah",EG-SHR,governorate,,1706.9,,,3,Africa/Cairo,TRUE,1818562855
"Sakan al Ḩājj Sa‘d","Sakan al Hajj Sa`d","Sakan al-Hājj Sa‘d",31.0557,32.0985,Egypt,EG,EGY,"Ash Sharqīyah","Ash Sharqiyah",EG-SHR,governorate,,566.6,,,3,Africa/Cairo,FALSE,1818001038
"Nazlat ash Shaykh Jum‘ah","Nazlat ash Shaykh Jum`ah","Nazlet el Sheikh Gumâ",26.8000,31.3833,Egypt,EG,EGY,Sūhāj,Suhaj,EG-SHG,governorate,,2317.3,,,2,Africa/Cairo,FALSE,1818444075
"Kafr al Baghdādī","Kafr al Baghdadi",,30.7568,31.6433,Egypt,EG,EGY,"Ash Sharqīyah","Ash Sharqiyah",EG-SHR,governorate,,1671.1,,,3,Africa/Cairo,FALSE,1818706069
"‘Izbat Malţīlī ‘Uthmān","`Izbat Maltili `Uthman",,30.6841,31.5531,Egypt,EG,EGY,"Ash Sharqīyah","Ash Sharqiyah",EG-SHR,governorate,,2135.2,,,2,Africa/Cairo,FALSE,1818408986
"‘Izbat Mulaykah","`Izbat Mulaykah",,30.8808,31.5872,Egypt,EG,EGY,"Ad Daqahlīyah","Ad Daqahliyah",EG-DK,governorate,,1893.6,,,3,Africa/Cairo,FALSE,1818903689
"‘Izbat ‘Ānis","`Izbat `Anis",,29.2045,30.7196,Egypt,EG,EGY,"Al Fayyūm","Al Fayyum",EG-FYM,governorate,,1508.2,,,3,Africa/Cairo,FALSE,1818267302
"Al Qaryah al Markazīyah","Al Qaryah al Markaziyah","Al-Qaryah al-Markaziyyah",30.8164,29.9882,Egypt,EG,EGY,"Al Buḩayrah","Al Buhayrah",EG-BH,governorate,,320.8,,,3,Africa/Cairo,FALSE,1818001554
"Kafr Ḩamām","Kafr Hamam","Kafr Ḥamâm|Kafr Ḥamām",30.6852,30.9994,Egypt,EG,EGY,"Al Minūfīyah","Al Minufiyah",EG-MNF,governorate,,2048.1,,,2,Africa/Cairo,FALSE,1818569715
"Dawwār ash Shuraysāt","Dawwar ash Shuraysat","Dauwār esh Shterasāt|Dauwâr el Shireisât",31.6019,26.0271,Egypt,EG,EGY,Maţrūḩ,Matruh,EG-MT,governorate,,18.2,,,4,Africa/Cairo,FALSE,1818741495
"‘Izbat ‘Uthmān ‘Abbās","`Izbat `Uthman `Abbas",,29.3792,30.9882,Egypt,EG,EGY,"Al Fayyūm","Al Fayyum",EG-FYM,governorate,,1420.5,,,3,Africa/Cairo,FALSE,1818721352
"‘Izbat al Yamāmah","`Izbat al Yamamah",,28.2237,30.6585,Egypt,EG,EGY,"Al Minyā","Al Minya",EG-MN,governorate,,1662.0,,,3,Africa/Cairo,FALSE,1818409983
"Aş Şabḩah","As Sabhah","Aş Şubḩah|El Ṣabḥa|Aṣ-Ṣabḥah",27.4738,30.7628,Egypt,EG,EGY,Asyūţ,Asyut,EG-AST,governorate,,2601.3,,,2,Africa/Cairo,FALSE,1818734529
"Naj‘ Abū Hayb","Naj` Abu Hayb",,30.9647,30.2322,Egypt,EG,EGY,"Al Buḩayrah","Al Buhayrah",EG-BH,governorate,,604.6,,,3,Africa/Cairo,FALSE,1818770389
"‘Ezbet Aḥmad Bey Mâzin","`Ezbet Ahmad Bey Mazin",,30.8167,31.9167,Egypt,EG,EGY,"Ash Sharqīyah","Ash Sharqiyah",EG-SHR,governorate,,566.6,,,3,Africa/Cairo,FALSE,1818680615
"Al Kushḩ","Al Kushh","El Kushh|Al-Kushḥ",26.2339,32.0847,Egypt,EG,EGY,Sūhāj,Suhaj,EG-SHG,governorate,,2220.1,,,2,Africa/Cairo,FALSE,1818293404
"Al Misāwīyah","Al Misawiyah","El Misâwîya",25.2507,32.5733,Egypt,EG,EGY,Qinā,Qina,EG-KN,governorate,,1257.9,,,3,Africa/Cairo,FALSE,1818282463
"‘Izbat ‘Ābdīn","`Izbat `Abdin",,31.2934,31.6050,Egypt,EG,EGY,"Ad Daqahlīyah","Ad Daqahliyah",EG-DK,governorate,,1642.3,,,3,Africa/Cairo,FALSE,1818444146
"Aş Şufayḩah","As Sufayhah",El-Shiffeiha|Aṣ-Ṣifayḥah,26.7920,31.4064,Egypt,EG,EGY,Sūhāj,Suhaj,EG-SHG,governorate,,2317.3,,,2,Africa/Cairo,FALSE,1818164810
"Qaryah Raqam Saba‘ah wa ‘Ashrūn","Qaryah Raqam Saba`ah wa `Ashrun","Qaryah Number Twenty Seven",30.7603,29.5055,Egypt,EG,EGY,Maţrūḩ,Matruh,EG-MT,governorate,,162.7,,,4,Africa/Cairo,FALSE,1818001582
"Ash Sharqī Samhūd","Ash Sharqi Samhud",,26.1832,32.1058,Egypt,EG,EGY,Qinā,Qina,EG-KN,governorate,,1736.6,,,3,Africa/Cairo,FALSE,1818748023
"Nazlat al Fulaywah","Nazlat al Fulaywah",,26.9833,31.4500,Egypt,EG,EGY,Asyūţ,Asyut,EG-AST,governorate,,6.4,,,5,Africa/Cairo,FALSE,1818216288
"Naj‘ ‘Abd al Qāwī Şāliḩ","Naj` `Abd al Qawi Salih",,28.2860,30.6179,Egypt,EG,EGY,"Al Minyā","Al Minya",EG-MN,governorate,,1662.0,,,3,Africa/Cairo,FALSE,1818001420
"Naj‘ Shaybah","Naj` Shaybah","Shaybah|El Nag‘ el Gharbi|Sheiba|Naj‘ Shībah al Gharbī|Naj‘ Shaybah al Gharbī",27.8285,30.8531,Egypt,EG,EGY,"Al Minyā","Al Minya",EG-MN,governorate,,2399.2,,,2,Africa/Cairo,FALSE,1818698311
"‘Izbat Muḩammad Anūm","`Izbat Muhammad Anum","‘Izbat Muḥammad Anūm",30.2986,31.2433,Egypt,EG,EGY,"Al Qalyūbīyah","Al Qalyubiyah",EG-KB,governorate,,2787.7,,,2,Africa/Cairo,FALSE,1818153000
"‘Izbat Ḩamad Ibrāhīm","`Izbat Hamad Ibrahim",,31.3132,31.1592,Egypt,EG,EGY,"Kafr ash Shaykh","Kafr ash Shaykh",EG-KFS,governorate,,522.8,,,3,Africa/Cairo,FALSE,1818771321
"Al Kafr al Qiblī","Al Kafr al Qibli","El-Kafr el-Qibli",29.8667,31.2500,Egypt,EG,EGY,"Al Jīzah","Al Jizah",EG-GZ,governorate,,5206.8,,,2,Africa/Cairo,FALSE,1818535341
"‘Izbat Sambu Maqām","`Izbat Sambu Maqam","‘Izbat Sambū Maqām",30.7499,31.3051,Egypt,EG,EGY,"Ad Daqahlīyah","Ad Daqahliyah",EG-DK,governorate,,2815.4,,,2,Africa/Cairo,FALSE,1818418991
"‘Izbat Abū Dirāz","`Izbat Abu Diraz","‘Ezbet Abu Dirâz|‘Izbat Abū Durāz",31.2253,30.6227,Egypt,EG,EGY,"Kafr ash Shaykh","Kafr ash Shaykh",EG-KFS,governorate,,1808.2,,,3,Africa/Cairo,FALSE,1818726427
"‘Izbat al Ḩajar","`Izbat al Hajar",,31.2254,30.4781,Egypt,EG,EGY,"Al Buḩayrah","Al Buhayrah",EG-BH,governorate,,1784.9,,,3,Africa/Cairo,FALSE,1818820482
Damāţ,Damat,Damâṭ,30.9444,30.9599,Egypt,EG,EGY,"Al Gharbīyah","Al Gharbiyah",EG-GH,governorate,,1488.4,,,3,Africa/Cairo,FALSE,1818515388
"‘Izbat al Janāyin","`Izbat al Janayin","‘Izbat al-Janāyīn",31.2236,32.3014,Egypt,EG,EGY,"Būr Sa‘īd","Bur Sa'id",EG-PTS,governorate,,2128.2,,,2,Africa/Cairo,FALSE,1818207938
"Shinbārat aţ Ţaffāfāt","Shinbarat at Taffafat","Shinbārat aţ Ţanānāt|Shimbâret el-Ṭanânât",30.5253,31.6567,Egypt,EG,EGY,"Ash Sharqīyah","Ash Sharqiyah",EG-SHR,governorate,,1706.9,,,3,Africa/Cairo,FALSE,1818798090
"‘Izbat al Wizz","`Izbat al Wizz","‘Ezbet el-Wizz",31.2888,30.8003,Egypt,EG,EGY,"Kafr ash Shaykh","Kafr ash Shaykh",EG-KFS,governorate,,873.1,,,3,Africa/Cairo,FALSE,1818414560
Şannīm,Sannim,,27.9500,30.7167,Egypt,EG,EGY,"Al Minyā","Al Minya",EG-MN,governorate,,2232.5,,,2,Africa/Cairo,FALSE,1818261003
"‘Izbat Minashshī al Gharbīyah","`Izbat Minashshi al Gharbiyah","‘Izbat Minashshī al-Gharbiyyah",31.2274,31.0384,Egypt,EG,EGY,"Kafr ash Shaykh","Kafr ash Shaykh",EG-KFS,governorate,,783.9,,,3,Africa/Cairo,FALSE,1818363663
"Ma‘şarat ‘Arafah","Ma`sarat `Arafah","Ma‘saret ‘Arafa",29.2623,30.8037,Egypt,EG,EGY,"Al Fayyūm","Al Fayyum",EG-FYM,governorate,,1508.2,,,3,Africa/Cairo,FALSE,1818583607
"‘Izbat al Badrāwī","`Izbat al Badrawi","‘Izbat al-Badrāwī",31.2155,31.4532,Egypt,EG,EGY,"Ad Daqahlīyah","Ad Daqahliyah",EG-DK,governorate,,804.6,,,3,Africa/Cairo,FALSE,1818918021
"‘Izbat Aḩmad Rāḑī","`Izbat Ahmad Radi","‘Izbat Aḥmad Rāḍī",30.8272,30.7426,Egypt,EG,EGY,"Al Buḩayrah","Al Buhayrah",EG-BH,governorate,,1641.7,,,3,Africa/Cairo,FALSE,1818000850
"‘Izbat Muḩammad ‘Abd al Wahhāb","`Izbat Muhammad `Abd al Wahhab",,31.2638,31.3249,Egypt,EG,EGY,"Ad Daqahlīyah","Ad Daqahliyah",EG-DK,governorate,,804.6,,,3,Africa/Cairo,FALSE,1818596890
"‘Izbat al Ḩaşīn","`Izbat al Hasin",,30.6093,31.2109,Egypt,EG,EGY,"Al Minūfīyah","Al Minufiyah",EG-MNF,governorate,,2430.3,,,2,Africa/Cairo,FALSE,1818734461
"‘Izbat al Jirabī","`Izbat al Jirabi",,31.4792,31.8222,Egypt,EG,EGY,Dumyāţ,Dumyat,EG-DT,governorate,,2175.2,,,2,Africa/Cairo,FALSE,1818136995
"Ţūkh al Aqlām","Tukh al Aqlam","Ṭûkh el-Aqlâm|Ṭūkh al-Aqlām",30.8707,31.4340,Egypt,EG,EGY,"Ad Daqahlīyah","Ad Daqahliyah",EG-DK,governorate,,1893.6,,,3,Africa/Cairo,FALSE,1818117742
"‘Izbat al ‘Ashīrī","`Izbat al `Ashiri",,29.2366,30.6490,Egypt,EG,EGY,"Al Fayyūm","Al Fayyum",EG-FYM,governorate,,333.9,,,3,Africa/Cairo,FALSE,1818902221
Duwaynah,Duwaynah,Diweina|Diwaynah,27.0600,31.2669,Egypt,EG,EGY,Asyūţ,Asyut,EG-AST,governorate,,2659.7,,,2,Africa/Cairo,FALSE,1818726058
"Kafr Ibrāsh","Kafr Ibrash","Kafr Ibrâsh",30.3935,31.3705,Egypt,EG,EGY,"Ash Sharqīyah","Ash Sharqiyah",EG-SHR,governorate,,2888.6,,,2,Africa/Cairo,FALSE,1818421447
"‘Izbat al Ḩurrīyah","`Izbat al Hurriyah",,30.4816,31.6948,Egypt,EG,EGY,"Ash Sharqīyah","Ash Sharqiyah",EG-SHR,governorate,,1706.9,,,3,Africa/Cairo,FALSE,1818317105
"Al Balākūs","Al Balakus",El-Balâkûs,30.7521,30.7117,Egypt,EG,EGY,"Al Buḩayrah","Al Buhayrah",EG-BH,governorate,,1621.0,,,3,Africa/Cairo,FALSE,1818556065
Qurqāriş,Qurqaris,Qirgâris|Qirqāriş|Qirqāriṣ,27.1362,31.2701,Egypt,EG,EGY,Asyūţ,Asyut,EG-AST,governorate,,2634.4,,,2,Africa/Cairo,FALSE,1818557905
"‘Izbat at Tira‘","`Izbat at Tira`",,30.8610,30.6289,Egypt,EG,EGY,"Al Buḩayrah","Al Buhayrah",EG-BH,governorate,,1641.7,,,3,Africa/Cairo,FALSE,1818250804
"‘Izbat ‘Īsawī Khiḑr","`Izbat `Isawi Khidr","‘Izbat ‘Isawī Khiḍr",30.9179,31.1259,Egypt,EG,EGY,"Al Gharbīyah","Al Gharbiyah",EG-GH,governorate,,1716.1,,,3,Africa/Cairo,FALSE,1818205101
"Al Murābi‘īn","Al Murabi`in","El Morabein|Murabi‘în|El Murâbi‘în|Al-Murābi‘īn|Al-Murabī‘n",31.1540,31.0005,Egypt,EG,EGY,"Kafr ash Shaykh","Kafr ash Shaykh",EG-KFS,governorate,,1144.2,,,3,Africa/Cairo,FALSE,1818117005
"‘Izbat Sa‘dūn","`Izbat Sa`dun",,30.6421,31.4570,Egypt,EG,EGY,"Ash Sharqīyah","Ash Sharqiyah",EG-SHR,governorate,,2962.2,,,2,Africa/Cairo,FALSE,1818025644
"Bardūnat al Ashrāf","Bardunat al Ashraf","Birdhawnat al Ashrāf|Bardûnet el Ashrâf|Bardunat al-Ashrāf",28.5298,30.7265,Egypt,EG,EGY,"Al Minyā","Al Minya",EG-MN,governorate,,2191.9,,,2,Africa/Cairo,FALSE,1818523185
"Kafr Sanţīs","Kafr Santis","Kafr Sunţays|Kafr Sunṭeis|Kafr Sanṭīs",30.9852,30.4663,Egypt,EG,EGY,"Al Buḩayrah","Al Buhayrah",EG-BH,governorate,,1541.8,,,3,Africa/Cairo,FALSE,1818712062
"Kafr Abū Jalāl","Kafr Abu Jalal","Kafr Abu Galâl",30.7003,31.5333,Egypt,EG,EGY,"Ash Sharqīyah","Ash Sharqiyah",EG-SHR,governorate,,2176.7,,,2,Africa/Cairo,FALSE,1818900692
"Ash Shurafā","Ash Shurafa",El-Shurafa,29.7289,31.3019,Egypt,EG,EGY,"Al Jīzah","Al Jizah",EG-GZ,governorate,,2513.1,,,2,Africa/Cairo,FALSE,1818095427
Tirsā,Tirsa,,29.4217,30.8232,Egypt,EG,EGY,"Al Fayyūm","Al Fayyum",EG-FYM,governorate,,2613.0,,,2,Africa/Cairo,FALSE,1818105433
"‘Izbat ad Dirbalah","`Izbat ad Dirbalah",,31.2505,29.9871,Egypt,EG,EGY,"Al Iskandarīyah","Al Iskandariyah",EG-ALX,governorate,,18658.2,,,2,Africa/Cairo,FALSE,1818510972
Bānūb,Banub,Bânûb,31.0600,31.2418,Egypt,EG,EGY,"Ad Daqahlīyah","Ad Daqahliyah",EG-DK,governorate,,1730.9,,,3,Africa/Cairo,FALSE,1818212822
"‘Izbat al Qal‘ah","`Izbat al Qal`ah","Al Qal‘ah",31.2188,29.9889,Egypt,EG,EGY,"Al Iskandarīyah","Al Iskandariyah",EG-ALX,governorate,,36013.3,,,2,Africa/Cairo,FALSE,1818287202
"Nazlat al ‘Amūdayn","Nazlat al `Amudayn","Nazlet el ‘Amûdein",28.2261,30.6983,Egypt,EG,EGY,"Al Minyā","Al Minya",EG-MN,governorate,,1662.0,,,3,Africa/Cairo,FALSE,1818409738
"Kafr Musā‘id","Kafr Musa`id","Kafr Mosaid|Kafr Mesâ‘id",30.9174,30.6230,Egypt,EG,EGY,"Al Buḩayrah","Al Buhayrah",EG-BH,governorate,,1641.7,,,3,Africa/Cairo,FALSE,1818282244
"Ash Shurafah","Ash Shurafah",Ash-Shurafah,31.2071,31.2148,Egypt,EG,EGY,"Kafr ash Shaykh","Kafr ash Shaykh",EG-KFS,governorate,,813.8,,,3,Africa/Cairo,FALSE,1818451546
"Al Ḩamadīyah","Al Hamadiyah",,29.1431,30.8362,Egypt,EG,EGY,"Al Fayyūm","Al Fayyum",EG-FYM,governorate,,1508.2,,,3,Africa/Cairo,FALSE,1818769937
"‘Izbat ‘Ammār Rāshid","`Izbat `Ammar Rashid",,31.1056,30.3626,Egypt,EG,EGY,"Al Buḩayrah","Al Buhayrah",EG-BH,governorate,,1022.7,,,3,Africa/Cairo,FALSE,1818670502
"‘Izbat Muşţafá ash Shūrbajī","`Izbat Mustafa ash Shurbaji",,30.7463,30.7279,Egypt,EG,EGY,"Al Buḩayrah","Al Buhayrah",EG-BH,governorate,,1621.0,,,3,Africa/Cairo,FALSE,1818670116
"‘Izbat Zamzam aş Şaghīrah","`Izbat Zamzam as Saghirah",,31.0474,30.6587,Egypt,EG,EGY,"Al Buḩayrah","Al Buhayrah",EG-BH,governorate,,1584.1,,,3,Africa/Cairo,FALSE,1818892879
"Dawwār Abū Maḩrūs","Dawwar Abu Mahrus","Dauwâr Abu Mihrâs|Dauwâr",30.9667,29.5500,Egypt,EG,EGY,Maţrūḩ,Matruh,EG-MT,governorate,,214.3,,,3,Africa/Cairo,FALSE,1818370491
"‘Izbat ‘Asharah","`Izbat `Asharah","‘Izbat Ten",31.1048,31.9367,Egypt,EG,EGY,"Ad Daqahlīyah","Ad Daqahliyah",EG-DK,governorate,,1465.3,,,3,Africa/Cairo,FALSE,1818000378
"‘Izbat ‘Aţīyah","`Izbat `Atiyah",,29.1736,30.7201,Egypt,EG,EGY,"Al Fayyūm","Al Fayyum",EG-FYM,governorate,,1508.2,,,3,Africa/Cairo,FALSE,1818511861
"‘Izbat Limbū Thalāthah","`Izbat Limbu Thalathah","‘Iz. Limbū 3|‘Izbat Limbū 3",31.0507,31.7488,Egypt,EG,EGY,"Ad Daqahlīyah","Ad Daqahliyah",EG-DK,governorate,,1321.4,,,3,Africa/Cairo,FALSE,1818758685
"‘Izbat ar Rawḑah","`Izbat ar Rawdah","Niẕâret el-Rôḍa|Niz̧ārat ar Rawḑah",31.1385,30.5754,Egypt,EG,EGY,"Al Buḩayrah","Al Buhayrah",EG-BH,governorate,,1784.9,,,3,Africa/Cairo,FALSE,1818462617
Abjūl,Abjul,Abgûl,30.6700,31.0889,Egypt,EG,EGY,"Al Gharbīyah","Al Gharbiyah",EG-GH,governorate,,2359.6,,,2,Africa/Cairo,FALSE,1818247862
"‘Izbat ‘Alī Riḑā","`Izbat `Ali Rida",,30.8653,31.5487,Egypt,EG,EGY,"Ad Daqahlīyah","Ad Daqahliyah",EG-DK,governorate,,1893.6,,,3,Africa/Cairo,FALSE,1818259222
"Abū aş Şīr","Abu as Sir","Abu el-Ṣîr",30.9178,31.5369,Egypt,EG,EGY,"Ad Daqahlīyah","Ad Daqahliyah",EG-DK,governorate,,1506.3,,,3,Africa/Cairo,FALSE,1818645250
"‘Izbat Salīm","`Izbat Salim","‘Izbat Silīm",31.0869,30.4515,Egypt,EG,EGY,"Al Buḩayrah","Al Buhayrah",EG-BH,governorate,,1541.8,,,3,Africa/Cairo,FALSE,1818550420
"‘Izbat Sālim","`Izbat Salim",,31.0243,30.3441,Egypt,EG,EGY,"Al Buḩayrah","Al Buhayrah",EG-BH,governorate,,1030.1,,,3,Africa/Cairo,TRUE,1818271514
"‘Izbat Sālim","`Izbat Salim",,30.7515,30.5680,Egypt,EG,EGY,"Al Buḩayrah","Al Buhayrah",EG-BH,governorate,,747.4,,,3,Africa/Cairo,TRUE,1818096123
"‘Izbat al Hatāymah","`Izbat al Hataymah","‘Ezbet el-Hatâyma",30.5807,32.1681,Egypt,EG,EGY,"Al Ismā‘īlīyah","Al Isma'iliyah",EG-IS,governorate,,390.6,,,3,Africa/Cairo,FALSE,1818459148
"‘Izbat Ḩasan Madkūr","`Izbat Hasan Madkur","‘Iz. Ḥasan Madkūr",31.2140,31.5103,Egypt,EG,EGY,"Ad Daqahlīyah","Ad Daqahliyah",EG-DK,governorate,,1670.5,,,3,Africa/Cairo,FALSE,1818711191
"‘Izbat Muḩammad Ibrāhīm","`Izbat Muhammad Ibrahim","‘Iz. Muḥ. Ibrāhīm",30.8097,31.4088,Egypt,EG,EGY,"Ad Daqahlīyah","Ad Daqahliyah",EG-DK,governorate,,1895.3,,,3,Africa/Cairo,FALSE,1818270591
"Munsha’at Şafwat","Munsha'at Safwat","Minshāt Şafwat|Minshāt Ṣafwat",30.7330,31.4309,Egypt,EG,EGY,"Ash Sharqīyah","Ash Sharqiyah",EG-SHR,governorate,,2126.2,,,2,Africa/Cairo,FALSE,1818170521
"Al ‘Awāsijah","Al `Awasijah","El-‘Awâsga|Al ‘Awāsijah",30.6200,31.5925,Egypt,EG,EGY,"Ash Sharqīyah","Ash Sharqiyah",EG-SHR,governorate,,2098.0,,,2,Africa/Cairo,FALSE,1818160893
"Kafr Riḑwān","Kafr Ridwan","Kafr Raḍwân",30.5213,31.2316,Egypt,EG,EGY,"Al Qalyūbīyah","Al Qalyubiyah",EG-KB,governorate,,3156.3,,,2,Africa/Cairo,FALSE,1818041921
"‘Izbat aş Şafrāwīyah","`Izbat as Safrawiyah","‘Izbat aş Şafrāwiyāh|‘Izbat aṣ-Ṣafrāwiyyah",29.3718,30.6363,Egypt,EG,EGY,"Al Fayyūm","Al Fayyum",EG-FYM,governorate,,2573.8,,,2,Africa/Cairo,FALSE,1818746189
"Al Barābirah","Al Barabirah","Al Barābrah",30.6783,31.5461,Egypt,EG,EGY,"Ash Sharqīyah","Ash Sharqiyah",EG-SHR,governorate,,2098.0,,,2,Africa/Cairo,FALSE,1818797007
Mushtuhur,Mushtuhur,Moshtohor|Mushtohor|Mushtahir,30.3520,31.2272,Egypt,EG,EGY,"Al Qalyūbīyah","Al Qalyubiyah",EG-KB,governorate,,2787.7,,,2,Africa/Cairo,FALSE,1818922018
"Munsha’at al Bakkārī","Munsha'at al Bakkari","Minshât el-Bakkâri|Minshāt al Bakkārī",30.0190,31.1398,Egypt,EG,EGY,"Al Jīzah","Al Jizah",EG-GZ,governorate,,15655.6,,,2,Africa/Cairo,FALSE,1818782198
Bāsūs,Basus,,30.1344,31.2152,Egypt,EG,EGY,"Al Qalyūbīyah","Al Qalyubiyah",EG-KB,governorate,,4875.8,,,2,Africa/Cairo,FALSE,1818300903
"Naj‘ Mu’min","Naj` Mu'min","Nag‘ Mu’mi Zeid",27.6667,30.7667,Egypt,EG,EGY,"Al Minyā","Al Minya",EG-MN,governorate,,2540.6,,,2,Africa/Cairo,FALSE,1818755951
"As Sa‘īdīyah al Baḩrīyah","As Sa`idiyah al Bahriyah",,31.3924,31.6639,Egypt,EG,EGY,Dumyāţ,Dumyat,EG-DT,governorate,,1457.1,,,3,Africa/Cairo,FALSE,1818147227
"Shawqī al Qiblīyah","Shawqi al Qibliyah","Shawqī al-Qibliyyah",31.3106,30.7400,Egypt,EG,EGY,"Kafr ash Shaykh","Kafr ash Shaykh",EG-KFS,governorate,,873.1,,,3,Africa/Cairo,FALSE,1818216310
"‘Izbat al Jamāliţah","`Izbat al Jamalitah","‘Izbat al Jamālṭah",31.0677,32.1713,Egypt,EG,EGY,"Ash Sharqīyah","Ash Sharqiyah",EG-SHR,governorate,,446.9,,,3,Africa/Cairo,FALSE,1818001035
Tamāmah,Tamamah,Tamâma,31.1449,30.2270,Egypt,EG,EGY,"Al Buḩayrah","Al Buhayrah",EG-BH,governorate,,1289.1,,,3,Africa/Cairo,FALSE,1818581124
"Bahbīt al Ḩijārah","Bahbit al Hijarah","Bahbît el-Ḥigâra|Bahbīt al-Ḥijārah",31.0301,31.2860,Egypt,EG,EGY,"Al Gharbīyah","Al Gharbiyah",EG-GH,governorate,,2467.4,,,2,Africa/Cairo,FALSE,1818740768
"Aţ Ţarḩah","At Tarhah",El-Ṭarḥa,31.3463,31.7380,Egypt,EG,EGY,Dumyāţ,Dumyat,EG-DT,governorate,,2347.1,,,2,Africa/Cairo,FALSE,1818780146
"‘Izbat ash Shaykh","`Izbat ash Shaykh",,30.3730,30.8436,Egypt,EG,EGY,"Al Minūfīyah","Al Minufiyah",EG-MNF,governorate,,308.7,,,3,Africa/Cairo,FALSE,1818000237
"Al Kīlānīyah","Al Kilaniyah","Kafr el-Kîlânîya|Al-Kīlāniyyah",30.7068,31.7856,Egypt,EG,EGY,"Ash Sharqīyah","Ash Sharqiyah",EG-SHR,governorate,,1577.4,,,3,Africa/Cairo,FALSE,1818318041
"‘Izbat al Fakhfākh","`Izbat al Fakhfakh","‘Ezbet Muḥammad Muḥammad el- Fakhfâkh",30.9273,31.9487,Egypt,EG,EGY,"Ash Sharqīyah","Ash Sharqiyah",EG-SHR,governorate,,566.6,,,3,Africa/Cairo,FALSE,1818573704
"Kafr ash Shaykh Khalīfah","Kafr ash Shaykh Khalifah","Kafr el-Sheikh Khalîfa|Kafr Ash-Shaykh Khalīfah",30.5083,31.4294,Egypt,EG,EGY,"Ash Sharqīyah","Ash Sharqiyah",EG-SHR,governorate,,2610.8,,,2,Africa/Cairo,FALSE,1818776023
"Kafr al Ḩurayshī","Kafr al Hurayshi","Kafr el Ḥureishi|Nazlet el Ḥuseishi",29.3349,30.7778,Egypt,EG,EGY,"Al Fayyūm","Al Fayyum",EG-FYM,governorate,,1412.9,,,3,Africa/Cairo,FALSE,1818129517
"‘Ezbet Furqân","`Ezbet Furqan",,29.4096,30.9737,Egypt,EG,EGY,"Al Fayyūm","Al Fayyum",EG-FYM,governorate,,1428.9,,,3,Africa/Cairo,FALSE,1818737055
"Nazlat as Sīsī","Nazlat as Sisi","Nazlet el-Sîsi",29.9833,31.1500,Egypt,EG,EGY,"Al Jīzah","Al Jizah",EG-GZ,governorate,,23940.5,,,2,Africa/Cairo,FALSE,1818106988
Qūş,Qus,"Kousa|Apollonopolis Parva|Apollinopolis Parva|QŪṢ",25.9154,32.7629,Egypt,EG,EGY,Qinā,Qina,EG-KN,governorate,,2124.5,,,2,Africa/Cairo,FALSE,1818560380
"‘Izbat Aḩmad Dhū al Fiqār","`Izbat Ahmad Dhu al Fiqar","‘Izbat Aḩmad Dhū al Faqār|‘Izbat Aḩmad Dhū al Faqqār|‘Izbat Aḥmad Dhū al-Faqqar",29.2788,30.6062,Egypt,EG,EGY,"Al Fayyūm","Al Fayyum",EG-FYM,governorate,,1407.5,,,3,Africa/Cairo,FALSE,1818581446
"Munsha’at Bakhātī","Munsha'at Bakhati","Minshāt Bakhātī",30.5734,30.9572,Egypt,EG,EGY,"Al Minūfīyah","Al Minufiyah",EG-MNF,governorate,,2821.8,,,2,Africa/Cairo,FALSE,1818736250
Isfaḩt,Isfaht,"Kôm Isfaht|Kawm Isfaḩt|Isfaht",26.9378,31.3267,Egypt,EG,EGY,Asyūţ,Asyut,EG-AST,governorate,,2559.2,,,2,Africa/Cairo,FALSE,1818965345
"‘Awāmir al ‘Asīrāt","`Awamir al `Asirat","‘Awâmir el ‘Asîrât",26.4153,31.8005,Egypt,EG,EGY,Sūhāj,Suhaj,EG-SHG,governorate,,3126.0,,,2,Africa/Cairo,FALSE,1818372955
Baydif,Baydif,Beidif|Baidif,29.6500,31.2333,Egypt,EG,EGY,"Al Jīzah","Al Jizah",EG-GZ,governorate,,3529.3,,,2,Africa/Cairo,FALSE,1818410192
"Kudwat as Sabīl","Kudwat as Sabil","‘Izbat Kudwat as Sabīl|‘Ezbet Kidwet el-Sibîl",31.0590,30.2025,Egypt,EG,EGY,"Al Buḩayrah","Al Buhayrah",EG-BH,governorate,,1022.7,,,3,Africa/Cairo,FALSE,1818580201
"Ash Shawāwlah","Ash Shawawlah",,26.4112,31.7362,Egypt,EG,EGY,Sūhāj,Suhaj,EG-SHG,governorate,,3303.8,,,2,Africa/Cairo,FALSE,1818727770
"Al Mawāţīn","Al Mawatin","El Mawâtîn|Al-Mawāṭīn",26.8662,31.3995,Egypt,EG,EGY,Sūhāj,Suhaj,EG-SHG,governorate,,2863.8,,,2,Africa/Cairo,FALSE,1818224331
"Naj‘ ‘Arab al ‘Abābidah","Naj` `Arab al `Ababidah","Naj‘ ‘Arab al-‘abābdah",25.6787,32.5364,Egypt,EG,EGY,Qinā,Qina,EG-KN,governorate,,1142.6,,,3,Africa/Cairo,FALSE,1818001360
"Naj‘ Jād al Karīm","Naj` Jad al Karim",,26.2627,32.0147,Egypt,EG,EGY,Sūhāj,Suhaj,EG-SHG,governorate,,2220.1,,,2,Africa/Cairo,FALSE,1818999898
"Naj‘ Jād al Karīm","Naj` Jad al Karim",,26.0083,32.0222,Egypt,EG,EGY,Sūhāj,Suhaj,EG-SHG,governorate,,0.0,,,5,Africa/Cairo,TRUE,1818423526
"Nazlat at Tall","Nazlat at Tall","Nazlet el Tall",27.1833,31.2333,Egypt,EG,EGY,Asyūţ,Asyut,EG-AST,governorate,,4075.2,,,2,Africa/Cairo,FALSE,1818373231
"Kawm Shaykh al ‘Arab","Kawm Shaykh al `Arab",,31.2879,31.2129,Egypt,EG,EGY,"Kafr ash Shaykh","Kafr ash Shaykh",EG-KFS,governorate,,813.8,,,3,Africa/Cairo,FALSE,1818297987
"‘Izbat al Bura‘ī","`Izbat al Bura`i","‘Izbat al-Bura‘ī",30.8685,31.3373,Egypt,EG,EGY,"Ad Daqahlīyah","Ad Daqahliyah",EG-DK,governorate,,2114.4,,,2,Africa/Cairo,FALSE,1818202813
"‘Izbat ‘Umm ‘Īsá","`Izbat `Umm `Isa",,30.6463,31.5649,Egypt,EG,EGY,"Ash Sharqīyah","Ash Sharqiyah",EG-SHR,governorate,,2099.7,,,2,Africa/Cairo,FALSE,1818042664
"Manāshī al Khaţīb","Manashi al Khatib","Manâshi el Khaṭîb|Manāshī al-Khaṭīb",29.3013,30.7298,Egypt,EG,EGY,"Al Fayyūm","Al Fayyum",EG-FYM,governorate,,1461.1,,,3,Africa/Cairo,FALSE,1818367096
"‘Izbat al Jannah","`Izbat al Jannah","‘Ezbet el-Ganna",30.9833,30.1833,Egypt,EG,EGY,"Al Buḩayrah","Al Buhayrah",EG-BH,governorate,,320.8,,,3,Africa/Cairo,FALSE,1818469545
"‘Izbat Makhālī","`Izbat Makhali",,31.3058,30.9166,Egypt,EG,EGY,"Kafr ash Shaykh","Kafr ash Shaykh",EG-KFS,governorate,,654.0,,,3,Africa/Cairo,FALSE,1818415030
Abţūjah,Abtujah,Abṭûga|Abṭujah,28.5342,30.7507,Egypt,EG,EGY,"Al Minyā","Al Minya",EG-MN,governorate,,2191.9,,,2,Africa/Cairo,FALSE,1818549269
Baţā,Bata,Baṭā,30.4615,31.1692,Egypt,EG,EGY,"Al Qalyūbīyah","Al Qalyubiyah",EG-KB,governorate,,2997.3,,,2,Africa/Cairo,FALSE,1818451989
"‘Izbat Aḩmad Dāwūd","`Izbat Ahmad Dawud","‘Izbat Aḥmad Dāwūd",31.2470,31.3694,Egypt,EG,EGY,"Ad Daqahlīyah","Ad Daqahliyah",EG-DK,governorate,,804.6,,,3,Africa/Cairo,FALSE,1818258446
"‘Izbat Abū Duwayyis","`Izbat Abu Duwayyis",,30.6715,31.7254,Egypt,EG,EGY,"Ash Sharqīyah","Ash Sharqiyah",EG-SHR,governorate,,2159.4,,,2,Africa/Cairo,FALSE,1818187743
"Al Jazīrah al Gharbīyah","Al Jazirah al Gharbiyah","El Gezîra el Gharbîya",29.0500,31.0833,Egypt,EG,EGY,"Banī Suwayf","Bani Suwayf",EG-BNS,governorate,,12210.1,,,2,Africa/Cairo,FALSE,1818385836
"‘Izbat Sa‘d Abū Diyāb","`Izbat Sa`d Abu Diyab",,29.2880,30.8965,Egypt,EG,EGY,"Al Fayyūm","Al Fayyum",EG-FYM,governorate,,1412.9,,,3,Africa/Cairo,FALSE,1818329846
Junayfah,Junayfah,Jinayfah,30.2043,32.4297,Egypt,EG,EGY,"As Suways","As Suways",EG-SUZ,governorate,,91.8,,,4,Africa/Cairo,FALSE,1818874872
"‘Izbat Abū Shallūbah","`Izbat Abu Shallubah","‘Iz. Abū Shallūbah",30.8191,31.4154,Egypt,EG,EGY,"Ad Daqahlīyah","Ad Daqahliyah",EG-DK,governorate,,1893.6,,,3,Africa/Cairo,FALSE,1818988623
"Kafr al ‘Abbāsah","Kafr al `Abbasah",,30.6228,31.7340,Egypt,EG,EGY,"Ash Sharqīyah","Ash Sharqiyah",EG-SHR,governorate,,3897.1,,,2,Africa/Cairo,FALSE,1818596430
"Ţahmā wa Minshāt ‘Abd as Sayyid","Tahma wa Minshat `Abd as Sayyid","Ṭahma and Minshât ‘Abd el Saiyid|Tahma",29.6297,31.2345,Egypt,EG,EGY,"Al Jīzah","Al Jizah",EG-GZ,governorate,,3529.3,,,2,Africa/Cairo,FALSE,1818745331
"Kafr as Saqqā","Kafr as Saqqa","Kafr as Saqqā’|Kafr el-Saqqa",30.8273,30.6251,Egypt,EG,EGY,"Al Buḩayrah","Al Buhayrah",EG-BH,governorate,,1641.1,,,3,Africa/Cairo,FALSE,1818255768
"‘Izbat ‘Abd al Jawwād","`Izbat `Abd al Jawwad",,31.1434,30.6996,Egypt,EG,EGY,"Kafr ash Shaykh","Kafr ash Shaykh",EG-KFS,governorate,,1442.6,,,3,Africa/Cairo,FALSE,1818133177
Ikwah,Ikwah,Ikaw|Ikwa,30.6931,31.4649,Egypt,EG,EGY,"Ash Sharqīyah","Ash Sharqiyah",EG-SHR,governorate,,2126.2,,,2,Africa/Cairo,FALSE,1818876949
"‘Izbat al ‘Ammār","`Izbat al `Ammar",,31.3485,30.8442,Egypt,EG,EGY,"Kafr ash Shaykh","Kafr ash Shaykh",EG-KFS,governorate,,654.0,,,3,Africa/Cairo,FALSE,1818640228
"Minyat ‘Aţīyah","Minyat `Atiyah","Minyet ‘Aṭîya|Minyat ‘Aṭṭiyyaḥ|Minyat ‘Aṭiyyah",30.9816,30.5070,Egypt,EG,EGY,"Al Buḩayrah","Al Buhayrah",EG-BH,governorate,,1541.8,,,3,Africa/Cairo,FALSE,1818588154
"‘Izbat Murquş Sa‘īd Yūsuf","`Izbat Murqus Sa`id Yusuf","‘Izbat Murquṣ Sa‘īd Yūsif",31.0103,30.7882,Egypt,EG,EGY,"Al Gharbīyah","Al Gharbiyah",EG-GH,governorate,,1850.1,,,3,Africa/Cairo,FALSE,1818688423
"Al Ḩāfir","Al Hafir","El Hâfir",29.2167,31.1500,Egypt,EG,EGY,"Al Fayyūm","Al Fayyum",EG-FYM,governorate,,1797.9,,,3,Africa/Cairo,FALSE,1818691292
"As Sa‘īdīyah","As Sa`idiyah","El Sa‘îdîya",29.4452,30.7962,Egypt,EG,EGY,"Al Fayyūm","Al Fayyum",EG-FYM,governorate,,2613.0,,,2,Africa/Cairo,FALSE,1818789674
"Al Ḩamīdīyah","Al Hamidiyah",El-Hamîdîya,30.4767,31.3626,Egypt,EG,EGY,"Ash Sharqīyah","Ash Sharqiyah",EG-SHR,governorate,,2610.8,,,2,Africa/Cairo,FALSE,1818405838
"‘Izbat Hilāl Sayyid Aḩmad and Shurakāh","`Izbat Hilal Sayyid Ahmad and Shurakah","‘Izbat Hilāl Sayyid Aḩmad wa Shurakāh|‘Izbat Hilāl Sayyid Aḥmad and Shurakāh",31.2109,30.9731,Egypt,EG,EGY,"Kafr ash Shaykh","Kafr ash Shaykh",EG-KFS,governorate,,664.0,,,3,Africa/Cairo,FALSE,1818000433
"Shīţ al Hawá","Shit al Hawa","Shîṭ el-Hawa",30.8735,31.6854,Egypt,EG,EGY,"Ash Sharqīyah","Ash Sharqiyah",EG-SHR,governorate,,1532.9,,,3,Africa/Cairo,FALSE,1818530051
"Kafr ash Shimākh","Kafr ash Shimakh","Kafr ash Shammākh|Minshāt Ghālī Manşūr|Kafr el-Shammâkh",30.6762,31.4915,Egypt,EG,EGY,"Ash Sharqīyah","Ash Sharqiyah",EG-SHR,governorate,,2658.0,,,2,Africa/Cairo,FALSE,1818246867
"‘Izbat ad Duktūr ‘Abd Allāh","`Izbat ad Duktur `Abd Allah",,31.2067,30.3821,Egypt,EG,EGY,"Al Buḩayrah","Al Buhayrah",EG-BH,governorate,,1022.7,,,3,Africa/Cairo,FALSE,1818242406
"Minshât Muḥammad ‘Alî","Minshat Muhammad `Ali",,29.1500,30.6167,Egypt,EG,EGY,"Al Fayyūm","Al Fayyum",EG-FYM,governorate,,1508.2,,,3,Africa/Cairo,FALSE,1818060079
"An Nakhārīn","An Nakharin","El Nakhârîn",29.2500,31.0500,Egypt,EG,EGY,"Al Fayyūm","Al Fayyum",EG-FYM,governorate,,2464.7,,,2,Africa/Cairo,FALSE,1818551465
"‘Izbat Ḩusayn Ḩusnī","`Izbat Husayn Husni","‘Ezbet Ḥasan Ḥosni",28.3700,30.6272,Egypt,EG,EGY,"Al Minyā","Al Minya",EG-MN,governorate,,1662.0,,,3,Africa/Cairo,FALSE,1818023248
"‘Izbat Māḑī","`Izbat Madi",,30.7616,31.8059,Egypt,EG,EGY,"Ash Sharqīyah","Ash Sharqiyah",EG-SHR,governorate,,1577.4,,,3,Africa/Cairo,FALSE,1818001160
"Abū Rawwāsh","Abu Rawwash","Abu Roash|‘Ezbet Abu Roash|Abu Ruwāsh|Abu Rauwâsh|‘Ezbet Abu Rauwâsh",30.0319,31.0750,Egypt,EG,EGY,"Al Jīzah","Al Jizah",EG-GZ,governorate,,4600.5,,,2,Africa/Cairo,FALSE,1818195614
"Nazlat al Mamālīk","Nazlat al Mamalik","‘Ezbet el-Mamâlîk",29.1319,30.9278,Egypt,EG,EGY,"Al Fayyūm","Al Fayyum",EG-FYM,governorate,,1850.2,,,3,Africa/Cairo,FALSE,1818377877
