city,city_ascii,city_alt,lat,lng,country,iso2,iso3,admin_name,admin_name_ascii,admin_code,admin_type,capital,density,population,population_proper,ranking,timezone,same_name,id
Malabo,Malabo,"Malaba|Port Clarence|Ciudad de Malabo|Santa Isabel|Rev Malebo",3.7456,8.7744,"Equatorial Guinea",GQ,GNQ,"Bioko Norte","Bioko Norte",GQ-BN,province,primary,561.1,297000,297000,1,Africa/Malabo,FALSE,1226861333
Bata,Bata,Kokapipa,1.8650,9.7700,"Equatorial Guinea",GQ,GNQ,Litoral,Litoral,GQ-LI,province,admin,100.3,250770,250770,2,Africa/Malabo,FALSE,1226528087
"Sevilla de Niefang","Sevilla de Niefang",Niefang,1.8500,10.2500,"Equatorial Guinea",GQ,GNQ,"Centro Sur","Centro Sur",GQ-CS,province,,17.4,41084,41084,3,Africa/Malabo,FALSE,1226184611
Ebebiyín,Ebebiyin,Ebibeying|Ebibeyin,2.1500,11.3167,"Equatorial Guinea",GQ,GNQ,Kié-Ntem,Kie-Ntem,GQ-KN,province,admin,32.0,36565,36565,2,Africa/Malabo,FALSE,1226449195
"Santiago de Baney","Santiago de Baney",Baney|Laka-Baney|Bany,3.7000,8.9167,"Equatorial Guinea",GQ,GNQ,"Bioko Norte","Bioko Norte",GQ-BN,province,,561.1,29366,29366,3,Africa/Malabo,FALSE,1226687832
Añisoc,Anisoc,Añisok,1.8500,10.7667,"Equatorial Guinea",GQ,GNQ,Wele-Nzas,Wele-Nzas,GQ-WN,province,,34.4,16626,16626,3,Africa/Malabo,FALSE,1226309663
Bengonbeyene,Bengonbeyene,Mongomeyen|Mangomayen,1.6931,11.0342,"Equatorial Guinea",GQ,GNQ,Wele-Nzas,Wele-Nzas,GQ-WN,province,,34.4,15644,15644,3,Africa/Malabo,FALSE,1226996248
Mbini,Mbini,"San Benito|Benito|Río Benito",1.5833,9.6167,"Equatorial Guinea",GQ,GNQ,Litoral,Litoral,GQ-LI,province,,54.9,14034,14034,3,Africa/Malabo,FALSE,1226662822
Aconibe,Aconibe,Akonebe,1.3000,10.9333,"Equatorial Guinea",GQ,GNQ,Wele-Nzas,Wele-Nzas,GQ-WN,province,,34.4,13382,13382,3,Africa/Malabo,FALSE,1226173790
Rebola,Rebola,,3.7192,8.8531,"Equatorial Guinea",GQ,GNQ,"Bioko Norte","Bioko Norte",GQ-BN,province,,561.1,10000,10000,3,Africa/Malabo,FALSE,1226355446
Luba,Luba,"San Carlos|Ciudad de Luba",3.4500,8.5500,"Equatorial Guinea",GQ,GNQ,"Bioko Sur","Bioko Sur",GQ-BS,province,admin,26.8,7739,7739,2,Africa/Malabo,FALSE,1226278217
Abaamang,Abaamang,,1.6667,10.6333,"Equatorial Guinea",GQ,GNQ,Wele-Nzas,Wele-Nzas,GQ-WN,province,,34.4,7729,7729,4,Africa/Malabo,FALSE,1226353778
Mongomo,Mongomo,"Margomo|Mongomo de Guadalupe",1.6287,11.3168,"Equatorial Guinea",GQ,GNQ,Wele-Nzas,Wele-Nzas,GQ-WN,province,admin,34.4,7251,7251,2,Africa/Malabo,FALSE,1226565454
Mikomeseng,Mikomeseng,Mekomeseng|Mikomesen|Micomeseng|Mikamesen,2.1333,10.6167,"Equatorial Guinea",GQ,GNQ,Kié-Ntem,Kie-Ntem,GQ-KN,province,,54.6,5813,5813,3,Africa/Malabo,FALSE,1226529757
Palé,Pale,"San Antonio|Annobón|Ambo|San Antonio de Palé",-1.4069,5.6322,"Equatorial Guinea",GQ,GNQ,Annobón,Annobon,GQ-AN,province,admin,174.9,5008,5008,2,Africa/Malabo,FALSE,1226970205
Nsok,Nsok,Nsorc|N’Zork|Nsork|Ensorc|Nsoc,1.1333,11.2667,"Equatorial Guinea",GQ,GNQ,Wele-Nzas,Wele-Nzas,GQ-WN,province,,34.4,4620,4620,4,Africa/Malabo,FALSE,1226462540
Cogo,Cogo,"Koga|Puerto Iradier|Kogo",1.0833,9.7000,"Equatorial Guinea",GQ,GNQ,Litoral,Litoral,GQ-LI,province,,54.9,4607,4607,3,Africa/Malabo,FALSE,1226629092
Ayene,Ayene,Ajene,1.9089,10.6353,"Equatorial Guinea",GQ,GNQ,Wele-Nzas,Wele-Nzas,GQ-WN,province,,34.4,3482,3482,3,Africa/Malabo,FALSE,1226021938
Nkimi,Nkimi,,1.9333,10.3500,"Equatorial Guinea",GQ,GNQ,"Centro Sur","Centro Sur",GQ-CS,province,,17.4,3313,3313,3,Africa/Malabo,FALSE,1226695809
Evinayong,Evinayong,Ebineyon|Ebinayong|Ebinoyon|Ebinayon,1.4500,10.5667,"Equatorial Guinea",GQ,GNQ,"Centro Sur","Centro Sur",GQ-CS,province,admin,17.4,3170,3170,2,Africa/Malabo,FALSE,1226336138
Machinda,Machinda,,1.8833,9.9667,"Equatorial Guinea",GQ,GNQ,Litoral,Litoral,GQ-LI,province,,54.9,2897,2897,3,Africa/Malabo,FALSE,1226159225
Acurenam,Acurenam,Acurnam|Akurnam|Acurenan|Akurenan|Akourenam|Akurenam|Akournam,1.0350,10.6733,"Equatorial Guinea",GQ,GNQ,"Centro Sur","Centro Sur",GQ-CS,province,,17.4,2714,2714,3,Africa/Malabo,FALSE,1226088945
Acurenam,Acurenam,Akurenan,1.4662,10.5142,"Equatorial Guinea",GQ,GNQ,"Centro Sur","Centro Sur",GQ-CS,province,,17.4,2714,2714,4,Africa/Malabo,TRUE,1226228501
Bicurga,Bicurga,Bikurga,1.5833,10.4667,"Equatorial Guinea",GQ,GNQ,"Centro Sur","Centro Sur",GQ-CS,province,,17.4,2318,2318,3,Africa/Malabo,FALSE,1226826489
Nsang,Nsang,Ensang,2.0333,10.9333,"Equatorial Guinea",GQ,GNQ,Kié-Ntem,Kie-Ntem,GQ-KN,province,,54.6,2122,2122,3,Africa/Malabo,FALSE,1226857245
Djibloho,Djibloho,"Ciudad de la Paz",1.5889,10.8225,"Equatorial Guinea",GQ,GNQ,Djibloho,Djibloho,GQ-DJ,,admin,24.5,2000,2000,2,Africa/Malabo,FALSE,1226998379
Ncue,Ncue,"San Francisco Javier|Nkue Misión",2.0167,10.4667,"Equatorial Guinea",GQ,GNQ,Kié-Ntem,Kie-Ntem,GQ-KN,province,,54.6,1683,1683,3,Africa/Malabo,FALSE,1226889374
Bitica,Bitica,Bitika,1.4167,9.6167,"Equatorial Guinea",GQ,GNQ,Litoral,Litoral,GQ-LI,province,,54.9,1464,1464,3,Africa/Malabo,FALSE,1226990303
"Río Campo","Rio Campo",,2.3333,9.8167,"Equatorial Guinea",GQ,GNQ,Litoral,Litoral,GQ-LI,province,,20.0,1105,1105,4,Africa/Malabo,FALSE,1226844695
"Ciudad de Riaba","Ciudad de Riaba","Riaba|Concepción|La Conception|La Concepción",3.3833,8.7667,"Equatorial Guinea",GQ,GNQ,"Bioko Sur","Bioko Sur",GQ-BS,province,,26.8,1071,1071,3,Africa/Malabo,FALSE,1226464019
Calatrava,Calatrava,,1.1164,9.4186,"Equatorial Guinea",GQ,GNQ,Litoral,Litoral,GQ-LI,province,,54.9,628,628,4,Africa/Malabo,FALSE,1226322426
Bicum,Bicum,Bikom,1.9104,9.8463,"Equatorial Guinea",GQ,GNQ,Litoral,Litoral,GQ-LI,province,,54.9,,,4,Africa/Malabo,FALSE,1226856180
Mangumala,Mangumala,,1.6455,9.7929,"Equatorial Guinea",GQ,GNQ,Litoral,Litoral,GQ-LI,province,,54.9,,,4,Africa/Malabo,FALSE,1226332902
Mbeme,Mbeme,,2.0694,10.4636,"Equatorial Guinea",GQ,GNQ,Kié-Ntem,Kie-Ntem,GQ-KN,province,,54.6,,,4,Africa/Malabo,FALSE,1226392559
Micueme,Micueme,Akostom-Mikueme,1.8482,10.7094,"Equatorial Guinea",GQ,GNQ,Wele-Nzas,Wele-Nzas,GQ-WN,province,,34.4,,,4,Africa/Malabo,FALSE,1226795295
Nco,Nco,Nkol,1.2299,9.8217,"Equatorial Guinea",GQ,GNQ,Litoral,Litoral,GQ-LI,province,,54.9,,,4,Africa/Malabo,FALSE,1226914345
Nco,Nco,,1.5315,9.8920,"Equatorial Guinea",GQ,GNQ,Litoral,Litoral,GQ-LI,province,,54.9,,,4,Africa/Malabo,TRUE,1226229655
Nco,Nco,Nko,2.0956,9.8027,"Equatorial Guinea",GQ,GNQ,Litoral,Litoral,GQ-LI,province,,54.9,,,4,Africa/Malabo,TRUE,1226605845
Nco,Nco,Nko,2.1398,10.1809,"Equatorial Guinea",GQ,GNQ,Litoral,Litoral,GQ-LI,province,,54.9,,,4,Africa/Malabo,TRUE,1226515704
Bicugo,Bicugo,Bikugo,1.8548,10.8287,"Equatorial Guinea",GQ,GNQ,Wele-Nzas,Wele-Nzas,GQ-WN,province,,34.4,,,4,Africa/Malabo,FALSE,1226204580
Manga,Manga,,1.7404,10.8755,"Equatorial Guinea",GQ,GNQ,Wele-Nzas,Wele-Nzas,GQ-WN,province,,34.4,,,4,Africa/Malabo,FALSE,1226515984
Manseng,Manseng,,1.4859,10.2228,"Equatorial Guinea",GQ,GNQ,"Centro Sur","Centro Sur",GQ-CS,province,,17.4,,,4,Africa/Malabo,FALSE,1226550157
Ncumikie,Ncumikie,Nkumekie,1.7742,10.4651,"Equatorial Guinea",GQ,GNQ,"Centro Sur","Centro Sur",GQ-CS,province,,17.4,,,4,Africa/Malabo,FALSE,1226462077
Olumeten,Olumeten,Olumeteng,1.5779,11.2206,"Equatorial Guinea",GQ,GNQ,Wele-Nzas,Wele-Nzas,GQ-WN,province,,34.4,,,4,Africa/Malabo,FALSE,1226575290
Yiba,Yiba,,1.8862,9.8043,"Equatorial Guinea",GQ,GNQ,Litoral,Litoral,GQ-LI,province,,54.9,,,4,Africa/Malabo,FALSE,1226643954
Utambe,Utambe,,1.2649,9.3984,"Equatorial Guinea",GQ,GNQ,Litoral,Litoral,GQ-LI,province,,54.9,,,4,Africa/Malabo,FALSE,1226069378
Song,Song,,1.9527,10.5760,"Equatorial Guinea",GQ,GNQ,Kié-Ntem,Kie-Ntem,GQ-KN,province,,35.7,,,4,Africa/Malabo,FALSE,1226593345
Belombo,Belombo,,1.6500,9.6167,"Equatorial Guinea",GQ,GNQ,Litoral,Litoral,GQ-LI,province,,54.9,,,4,Africa/Malabo,FALSE,1226529986
Sanayong,Sanayong,,1.5097,11.2295,"Equatorial Guinea",GQ,GNQ,Wele-Nzas,Wele-Nzas,GQ-WN,province,,34.4,,,4,Africa/Malabo,FALSE,1226253319
Mangui,Mangui,,1.8818,11.0465,"Equatorial Guinea",GQ,GNQ,Kié-Ntem,Kie-Ntem,GQ-KN,province,,54.6,,,4,Africa/Malabo,FALSE,1226500192
Enigaco,Enigaco,Eningako,2.1628,11.0964,"Equatorial Guinea",GQ,GNQ,Kié-Ntem,Kie-Ntem,GQ-KN,province,,54.6,,,4,Africa/Malabo,FALSE,1226499488
Upé,Upe,,0.8966,9.3058,"Equatorial Guinea",GQ,GNQ,Litoral,Litoral,GQ-LI,province,,54.9,,,4,Africa/Malabo,FALSE,1226322481
Bibain,Bibain,Bibeiñ,1.8635,10.5937,"Equatorial Guinea",GQ,GNQ,Wele-Nzas,Wele-Nzas,GQ-WN,province,,34.4,,,4,Africa/Malabo,FALSE,1226841211
Ononebere,Ononebere,,1.7926,11.2467,"Equatorial Guinea",GQ,GNQ,Kié-Ntem,Kie-Ntem,GQ-KN,province,,54.6,,,4,Africa/Malabo,FALSE,1226950041
Eteng,Eteng,,1.2031,10.5410,"Equatorial Guinea",GQ,GNQ,"Centro Sur","Centro Sur",GQ-CS,province,,17.4,,,4,Africa/Malabo,FALSE,1226617549
Ntom,Ntom,Ntoma,1.7743,10.1809,"Equatorial Guinea",GQ,GNQ,"Centro Sur","Centro Sur",GQ-CS,province,,17.4,,,4,Africa/Malabo,FALSE,1226672832
Melan,Melan,,1.3760,10.6564,"Equatorial Guinea",GQ,GNQ,"Centro Sur","Centro Sur",GQ-CS,province,,17.4,,,4,Africa/Malabo,FALSE,1226612639
Mibamenga,Mibamenga,Mibaminga,1.7225,10.0883,"Equatorial Guinea",GQ,GNQ,"Centro Sur","Centro Sur",GQ-CS,province,,17.4,,,4,Africa/Malabo,FALSE,1226918033
Mibamenga,Mibamenga,,1.8016,10.2226,"Equatorial Guinea",GQ,GNQ,"Centro Sur","Centro Sur",GQ-CS,province,,17.4,,,4,Africa/Malabo,TRUE,1226662300
Bilen,Bilen,,1.4890,9.6219,"Equatorial Guinea",GQ,GNQ,Litoral,Litoral,GQ-LI,province,,54.9,,,4,Africa/Malabo,FALSE,1226800601
Nameñu,Namenu,,1.8311,10.7404,"Equatorial Guinea",GQ,GNQ,Wele-Nzas,Wele-Nzas,GQ-WN,province,,34.4,,,4,Africa/Malabo,FALSE,1226177981
Meguombo,Meguombo,Miguombo,1.1039,9.4066,"Equatorial Guinea",GQ,GNQ,Litoral,Litoral,GQ-LI,province,,54.9,,,4,Africa/Malabo,FALSE,1226845295
Asuiabe,Asuiabe,,1.2244,9.8241,"Equatorial Guinea",GQ,GNQ,Litoral,Litoral,GQ-LI,province,,54.9,,,4,Africa/Malabo,FALSE,1226306367
Asuiabe,Asuiabe,,1.1088,10.2192,"Equatorial Guinea",GQ,GNQ,Litoral,Litoral,GQ-LI,province,,54.9,,,4,Africa/Malabo,TRUE,1226313699
Asuiabe,Asuiabe,,1.2032,9.6271,"Equatorial Guinea",GQ,GNQ,Litoral,Litoral,GQ-LI,province,,54.9,,,4,Africa/Malabo,TRUE,1226816203
Culañanda,Culananda,,0.9305,9.3098,"Equatorial Guinea",GQ,GNQ,Litoral,Litoral,GQ-LI,province,,54.9,,,4,Africa/Malabo,FALSE,1226027651
Niemitang,Niemitang,Niamitang,2.1620,10.9814,"Equatorial Guinea",GQ,GNQ,Kié-Ntem,Kie-Ntem,GQ-KN,province,,54.6,,,4,Africa/Malabo,FALSE,1226299785
Asesoc,Asesoc,Ase’sok,1.9450,9.9636,"Equatorial Guinea",GQ,GNQ,Litoral,Litoral,GQ-LI,province,,54.9,,,4,Africa/Malabo,FALSE,1226675239
Abenelang,Abenelang,,1.7929,9.7770,"Equatorial Guinea",GQ,GNQ,Litoral,Litoral,GQ-LI,province,,54.9,,,4,Africa/Malabo,FALSE,1226793164
Abenelang,Abenelang,,0.9717,9.9829,"Equatorial Guinea",GQ,GNQ,Litoral,Litoral,GQ-LI,province,,54.9,,,4,Africa/Malabo,TRUE,1226607733
Nsoengono,Nsoengono,,1.4483,11.0731,"Equatorial Guinea",GQ,GNQ,Wele-Nzas,Wele-Nzas,GQ-WN,province,,34.4,,,4,Africa/Malabo,FALSE,1226994753
Nsoengono,Nsoengono,,1.5781,11.0306,"Equatorial Guinea",GQ,GNQ,Wele-Nzas,Wele-Nzas,GQ-WN,province,,34.4,,,4,Africa/Malabo,TRUE,1226853552
Alon,Alon,,2.0704,11.3104,"Equatorial Guinea",GQ,GNQ,Kié-Ntem,Kie-Ntem,GQ-KN,province,,54.6,,,4,Africa/Malabo,FALSE,1226744619
Alon,Alon,,2.1200,10.5408,"Equatorial Guinea",GQ,GNQ,Kié-Ntem,Kie-Ntem,GQ-KN,province,,54.6,,,4,Africa/Malabo,TRUE,1226783237
Ncomayop,Ncomayop,Nkomayo,1.0753,10.7678,"Equatorial Guinea",GQ,GNQ,"Centro Sur","Centro Sur",GQ-CS,province,,17.4,,,4,Africa/Malabo,FALSE,1226012576
Musola,Musola,Musela,3.4362,8.6191,"Equatorial Guinea",GQ,GNQ,"Bioko Sur","Bioko Sur",GQ-BS,province,,26.8,,,4,Africa/Malabo,FALSE,1226340439
Dumanduin,Dumanduin,Dumanduy,2.0219,11.2619,"Equatorial Guinea",GQ,GNQ,Kié-Ntem,Kie-Ntem,GQ-KN,province,,54.6,,,4,Africa/Malabo,FALSE,1226611585
Dumanduin,Dumanduin,,2.0833,11.0500,"Equatorial Guinea",GQ,GNQ,Kié-Ntem,Kie-Ntem,GQ-KN,province,,54.6,,,4,Africa/Malabo,TRUE,1226738125
Cupapa,Cupapa,Kupapa,3.6626,8.9178,"Equatorial Guinea",GQ,GNQ,"Bioko Norte","Bioko Norte",GQ-BN,province,,561.1,,,3,Africa/Malabo,FALSE,1226728366
Mejocoloque,Mejocoloque,Mejokoloko,1.2601,9.3979,"Equatorial Guinea",GQ,GNQ,Litoral,Litoral,GQ-LI,province,,54.9,,,4,Africa/Malabo,FALSE,1226687315
Matuiñ,Matuin,Metui,1.6793,11.1192,"Equatorial Guinea",GQ,GNQ,Wele-Nzas,Wele-Nzas,GQ-WN,province,,34.4,,,4,Africa/Malabo,FALSE,1226514095
Fua,Fua,,1.8582,10.0395,"Equatorial Guinea",GQ,GNQ,Litoral,Litoral,GQ-LI,province,,54.9,,,4,Africa/Malabo,FALSE,1226207101
Biameno,Biameno,Bia,0.9302,9.3093,"Equatorial Guinea",GQ,GNQ,Litoral,Litoral,GQ-LI,province,,54.9,,,4,Africa/Malabo,FALSE,1226757622
Yoni,Yoni,,1.4178,9.4779,"Equatorial Guinea",GQ,GNQ,Litoral,Litoral,GQ-LI,province,,54.9,,,4,Africa/Malabo,FALSE,1226516857
Ncolete,Ncolete,Nkoete|Ncoaeté,1.6731,10.9979,"Equatorial Guinea",GQ,GNQ,Wele-Nzas,Wele-Nzas,GQ-WN,province,,34.4,,,4,Africa/Malabo,FALSE,1226743089
Nemalen,Nemalen,,1.5440,9.5885,"Equatorial Guinea",GQ,GNQ,Litoral,Litoral,GQ-LI,province,,54.9,,,4,Africa/Malabo,FALSE,1226496468
Balombe,Balombe,,3.4333,8.5333,"Equatorial Guinea",GQ,GNQ,"Bioko Sur","Bioko Sur",GQ-BS,province,,26.8,,,4,Africa/Malabo,FALSE,1226382057
Iguene,Iguene,,1.3735,9.4696,"Equatorial Guinea",GQ,GNQ,Litoral,Litoral,GQ-LI,province,,54.9,,,4,Africa/Malabo,FALSE,1226942941
Ncocntono,Ncocntono,Nko’antona,1.8483,10.1400,"Equatorial Guinea",GQ,GNQ,"Centro Sur","Centro Sur",GQ-CS,province,,17.4,,,4,Africa/Malabo,FALSE,1226924092
Ngüelensoc,Nguelensoc,Nguolensok-Wolosog,1.2587,9.4586,"Equatorial Guinea",GQ,GNQ,Litoral,Litoral,GQ-LI,province,,54.9,,,4,Africa/Malabo,FALSE,1226300763
Ngüelensoc,Nguelensoc,,1.5044,9.8166,"Equatorial Guinea",GQ,GNQ,Litoral,Litoral,GQ-LI,province,,54.9,,,4,Africa/Malabo,TRUE,1226695434
Ngüelensoc,Nguelensoc,,1.0769,9.5845,"Equatorial Guinea",GQ,GNQ,Litoral,Litoral,GQ-LI,province,,54.9,,,4,Africa/Malabo,TRUE,1226032390
Foo,Foo,,1.2635,10.9262,"Equatorial Guinea",GQ,GNQ,Wele-Nzas,Wele-Nzas,GQ-WN,province,,34.4,,,4,Africa/Malabo,FALSE,1226483634
Acom,Acom,Akom,2.1487,10.7702,"Equatorial Guinea",GQ,GNQ,Kié-Ntem,Kie-Ntem,GQ-KN,province,,54.6,,,4,Africa/Malabo,FALSE,1226751506
Acom,Acom,,2.0485,10.8481,"Equatorial Guinea",GQ,GNQ,Kié-Ntem,Kie-Ntem,GQ-KN,province,,54.6,,,4,Africa/Malabo,TRUE,1226166479
Dyaambem,Dyaambem,,1.3739,10.5006,"Equatorial Guinea",GQ,GNQ,"Centro Sur","Centro Sur",GQ-CS,province,,17.4,,,4,Africa/Malabo,FALSE,1226141735
Besongo,Besongo,,1.8841,10.4088,"Equatorial Guinea",GQ,GNQ,"Centro Sur","Centro Sur",GQ-CS,province,,17.4,,,4,Africa/Malabo,FALSE,1226788065
Ebebiyín,Ebebiyin,,1.0842,10.6203,"Equatorial Guinea",GQ,GNQ,"Centro Sur","Centro Sur",GQ-CS,province,,17.4,,,4,Africa/Malabo,FALSE,1226984727
Ebebiyín,Ebebiyin,,1.4995,10.6929,"Equatorial Guinea",GQ,GNQ,"Centro Sur","Centro Sur",GQ-CS,province,,17.4,,,4,Africa/Malabo,TRUE,1226392397
Banapa,Banapa,,1.0861,9.7040,"Equatorial Guinea",GQ,GNQ,Litoral,Litoral,GQ-LI,province,,54.9,,,4,Africa/Malabo,FALSE,1226053587
Nkecnsoc,Nkecnsoc,,1.5495,11.3094,"Equatorial Guinea",GQ,GNQ,Wele-Nzas,Wele-Nzas,GQ-WN,province,,34.4,,,4,Africa/Malabo,FALSE,1226926843
Ecuamayene,Ecuamayene,Ekua’mayene|Acumayene,1.3653,11.2493,"Equatorial Guinea",GQ,GNQ,Wele-Nzas,Wele-Nzas,GQ-WN,province,,34.4,,,4,Africa/Malabo,FALSE,1226482751
Ulando,Ulando,,0.9861,9.5035,"Equatorial Guinea",GQ,GNQ,Litoral,Litoral,GQ-LI,province,,54.9,,,4,Africa/Malabo,FALSE,1226919030
Ulando,Ulando,,1.5637,9.5932,"Equatorial Guinea",GQ,GNQ,Litoral,Litoral,GQ-LI,province,,54.9,,,4,Africa/Malabo,TRUE,1226156705
Alongntang,Alongntang,Alogontang,1.1098,9.7438,"Equatorial Guinea",GQ,GNQ,Litoral,Litoral,GQ-LI,province,,54.9,,,4,Africa/Malabo,FALSE,1226265738
Edolo,Edolo,Idolo,1.2005,9.9109,"Equatorial Guinea",GQ,GNQ,Litoral,Litoral,GQ-LI,province,,54.9,,,4,Africa/Malabo,FALSE,1226632782
Mindyimitom,Mindyimitom,Michimiton,2.1132,11.0254,"Equatorial Guinea",GQ,GNQ,Kié-Ntem,Kie-Ntem,GQ-KN,province,,54.6,,,4,Africa/Malabo,FALSE,1226346673
Fenayop,Fenayop,,1.0373,10.7920,"Equatorial Guinea",GQ,GNQ,"Centro Sur","Centro Sur",GQ-CS,province,,17.4,,,4,Africa/Malabo,FALSE,1226959367
Ncama,Ncama,Nkam|Nkon,1.9168,10.9362,"Equatorial Guinea",GQ,GNQ,Wele-Nzas,Wele-Nzas,GQ-WN,province,,34.4,,,4,Africa/Malabo,FALSE,1226300649
Ayeenin,Ayeenin,,1.8995,9.9019,"Equatorial Guinea",GQ,GNQ,Litoral,Litoral,GQ-LI,province,,54.9,,,4,Africa/Malabo,FALSE,1226475379
Dum,Dum,,2.0118,10.9214,"Equatorial Guinea",GQ,GNQ,Kié-Ntem,Kie-Ntem,GQ-KN,province,,54.6,,,4,Africa/Malabo,FALSE,1226698992
Asoc,Asoc,,1.8607,10.1621,"Equatorial Guinea",GQ,GNQ,"Centro Sur","Centro Sur",GQ-CS,province,,17.4,,,4,Africa/Malabo,FALSE,1226563213
Asoc,Asoc,Asok,1.4340,10.6016,"Equatorial Guinea",GQ,GNQ,"Centro Sur","Centro Sur",GQ-CS,province,,17.4,,,4,Africa/Malabo,TRUE,1226120192
Asoc,Asoc,,1.5720,10.3766,"Equatorial Guinea",GQ,GNQ,"Centro Sur","Centro Sur",GQ-CS,province,,17.4,,,4,Africa/Malabo,TRUE,1226056673
Nsogobuot,Nsogobuot,Nsogobor,1.7647,10.1030,"Equatorial Guinea",GQ,GNQ,"Centro Sur","Centro Sur",GQ-CS,province,,17.4,,,4,Africa/Malabo,FALSE,1226398252
Ebacoc,Ebacoc,,1.6272,9.7060,"Equatorial Guinea",GQ,GNQ,Litoral,Litoral,GQ-LI,province,,54.9,,,4,Africa/Malabo,FALSE,1226488116
Misegue,Misegue,,1.1656,10.0760,"Equatorial Guinea",GQ,GNQ,Litoral,Litoral,GQ-LI,province,,54.9,,,4,Africa/Malabo,FALSE,1226009771
Mondoo,Mondoo,,1.9084,10.6562,"Equatorial Guinea",GQ,GNQ,Wele-Nzas,Wele-Nzas,GQ-WN,province,,34.4,,,4,Africa/Malabo,FALSE,1226028097
Nco,Nco,Nko,1.6917,10.5944,"Equatorial Guinea",GQ,GNQ,Wele-Nzas,Wele-Nzas,GQ-WN,province,,34.4,,,4,Africa/Malabo,FALSE,1226168241
Nco,Nco,,1.8278,10.7256,"Equatorial Guinea",GQ,GNQ,Wele-Nzas,Wele-Nzas,GQ-WN,province,,34.4,,,4,Africa/Malabo,TRUE,1226824674
Alen,Alen,,1.9646,11.3207,"Equatorial Guinea",GQ,GNQ,Kié-Ntem,Kie-Ntem,GQ-KN,province,,54.6,,,4,Africa/Malabo,FALSE,1226882124
Alen,Alen,,2.0858,11.0000,"Equatorial Guinea",GQ,GNQ,Kié-Ntem,Kie-Ntem,GQ-KN,province,,54.6,,,4,Africa/Malabo,TRUE,1226996580
Alen,Alen,,1.9534,11.1465,"Equatorial Guinea",GQ,GNQ,Kié-Ntem,Kie-Ntem,GQ-KN,province,,54.6,,,4,Africa/Malabo,TRUE,1226006470
Alen,Alen,Alem,1.8561,11.3661,"Equatorial Guinea",GQ,GNQ,Kié-Ntem,Kie-Ntem,GQ-KN,province,,32.0,,,4,Africa/Malabo,TRUE,1226113714
Miguala,Miguala,,1.0960,9.7195,"Equatorial Guinea",GQ,GNQ,Litoral,Litoral,GQ-LI,province,,54.9,,,4,Africa/Malabo,FALSE,1226078011
Ayaelón,Ayaelon,,1.8016,9.8514,"Equatorial Guinea",GQ,GNQ,Litoral,Litoral,GQ-LI,province,,54.9,,,4,Africa/Malabo,FALSE,1226482948
Bedubu,Bedubu,Beduba|Bebudu,0.9180,9.3050,"Equatorial Guinea",GQ,GNQ,Litoral,Litoral,GQ-LI,province,,54.9,,,4,Africa/Malabo,FALSE,1226375093
Bisabat,Bisabat,,2.0877,10.7856,"Equatorial Guinea",GQ,GNQ,Kié-Ntem,Kie-Ntem,GQ-KN,province,,54.6,,,4,Africa/Malabo,FALSE,1226440711
Afaanam,Afaanam,Afa’annam,1.1836,10.5795,"Equatorial Guinea",GQ,GNQ,"Centro Sur","Centro Sur",GQ-CS,province,,17.4,,,4,Africa/Malabo,FALSE,1226138784
Eboto,Eboto,Iboto,1.2061,9.3773,"Equatorial Guinea",GQ,GNQ,Litoral,Litoral,GQ-LI,province,,54.9,,,4,Africa/Malabo,FALSE,1226051263
Dibolo,Dibolo,,1.6238,11.3259,"Equatorial Guinea",GQ,GNQ,Wele-Nzas,Wele-Nzas,GQ-WN,province,,34.4,,,4,Africa/Malabo,FALSE,1226149333
Ebang,Ebang,,1.5667,11.1500,"Equatorial Guinea",GQ,GNQ,Wele-Nzas,Wele-Nzas,GQ-WN,province,,34.4,,,4,Africa/Malabo,FALSE,1226394862
Nguele,Nguele,,1.9149,10.8303,"Equatorial Guinea",GQ,GNQ,Wele-Nzas,Wele-Nzas,GQ-WN,province,,34.4,,,4,Africa/Malabo,FALSE,1226955902
Jaaye,Jaaye,Janye,1.6333,9.6167,"Equatorial Guinea",GQ,GNQ,Litoral,Litoral,GQ-LI,province,,54.9,,,4,Africa/Malabo,FALSE,1226142606
Ecuc,Ecuc,Ekuk,2.0334,10.9466,"Equatorial Guinea",GQ,GNQ,Kié-Ntem,Kie-Ntem,GQ-KN,province,,54.6,,,4,Africa/Malabo,FALSE,1226441435
Ikunde,Ikunde,,1.8500,9.7500,"Equatorial Guinea",GQ,GNQ,Litoral,Litoral,GQ-LI,province,,54.9,,,4,Africa/Malabo,FALSE,1226262005
Nboman,Nboman,,1.4680,11.0999,"Equatorial Guinea",GQ,GNQ,Wele-Nzas,Wele-Nzas,GQ-WN,province,,34.4,,,4,Africa/Malabo,FALSE,1226987396
Ngong,Ngong,,1.0918,11.2129,"Equatorial Guinea",GQ,GNQ,Wele-Nzas,Wele-Nzas,GQ-WN,province,,34.4,,,4,Africa/Malabo,FALSE,1226381478
Ngong,Ngong,,1.6716,11.2230,"Equatorial Guinea",GQ,GNQ,Wele-Nzas,Wele-Nzas,GQ-WN,province,,34.4,,,4,Africa/Malabo,TRUE,1226689416
Nguinasom,Nguinasom,,1.2395,9.3916,"Equatorial Guinea",GQ,GNQ,Litoral,Litoral,GQ-LI,province,,54.9,,,4,Africa/Malabo,FALSE,1226885211
Oveng,Oveng,,1.0984,11.2524,"Equatorial Guinea",GQ,GNQ,Wele-Nzas,Wele-Nzas,GQ-WN,province,,34.4,,,4,Africa/Malabo,FALSE,1226068518
Oveng,Oveng,,1.5510,11.1902,"Equatorial Guinea",GQ,GNQ,Wele-Nzas,Wele-Nzas,GQ-WN,province,,34.4,,,4,Africa/Malabo,TRUE,1226472643
Oveng,Oveng,,1.8450,10.7204,"Equatorial Guinea",GQ,GNQ,Wele-Nzas,Wele-Nzas,GQ-WN,province,,34.4,,,4,Africa/Malabo,TRUE,1226373794
Oveng,Oveng,,1.7913,10.6545,"Equatorial Guinea",GQ,GNQ,Wele-Nzas,Wele-Nzas,GQ-WN,province,,34.4,,,4,Africa/Malabo,TRUE,1226504259
Oveng,Oveng,,1.7959,10.8764,"Equatorial Guinea",GQ,GNQ,Wele-Nzas,Wele-Nzas,GQ-WN,province,,34.4,,,4,Africa/Malabo,TRUE,1226653228
Oveng,Oveng,,1.9159,10.8745,"Equatorial Guinea",GQ,GNQ,Wele-Nzas,Wele-Nzas,GQ-WN,province,,34.4,,,4,Africa/Malabo,TRUE,1226070228
Minsenminsoc,Minsenminsoc,Misemisok,1.1598,10.0695,"Equatorial Guinea",GQ,GNQ,Litoral,Litoral,GQ-LI,province,,54.9,,,4,Africa/Malabo,FALSE,1226843017
Mayeme,Mayeme,,1.4936,9.6637,"Equatorial Guinea",GQ,GNQ,Litoral,Litoral,GQ-LI,province,,54.9,,,4,Africa/Malabo,FALSE,1226666288
Mandame,Mandame,,1.8927,10.5986,"Equatorial Guinea",GQ,GNQ,Wele-Nzas,Wele-Nzas,GQ-WN,province,,34.4,,,4,Africa/Malabo,FALSE,1226910796
Macon,Macon,,1.7086,9.7775,"Equatorial Guinea",GQ,GNQ,Litoral,Litoral,GQ-LI,province,,54.9,,,4,Africa/Malabo,FALSE,1226311955
Eves,Eves,,1.2143,9.9624,"Equatorial Guinea",GQ,GNQ,Litoral,Litoral,GQ-LI,province,,54.9,,,4,Africa/Malabo,FALSE,1226913068
Ncumesong,Ncumesong,Ncumensong|Nkumesong,1.5933,10.3386,"Equatorial Guinea",GQ,GNQ,"Centro Sur","Centro Sur",GQ-CS,province,,17.4,,,4,Africa/Malabo,FALSE,1226834835
Charman,Charman,Nchaman,2.0922,10.6949,"Equatorial Guinea",GQ,GNQ,Kié-Ntem,Kie-Ntem,GQ-KN,province,,54.6,,,4,Africa/Malabo,FALSE,1226481427
Nganayong,Nganayong,,1.5158,11.2056,"Equatorial Guinea",GQ,GNQ,Wele-Nzas,Wele-Nzas,GQ-WN,province,,34.4,,,4,Africa/Malabo,FALSE,1226193601
Ngono,Ngono,,1.9156,9.9002,"Equatorial Guinea",GQ,GNQ,Litoral,Litoral,GQ-LI,province,,54.9,,,4,Africa/Malabo,FALSE,1226293555
Eson,Eson,,2.1546,10.8028,"Equatorial Guinea",GQ,GNQ,Kié-Ntem,Kie-Ntem,GQ-KN,province,,54.6,,,4,Africa/Malabo,FALSE,1226048918
Eson,Eson,,1.9557,11.0165,"Equatorial Guinea",GQ,GNQ,Kié-Ntem,Kie-Ntem,GQ-KN,province,,54.6,,,4,Africa/Malabo,TRUE,1226128901
Eson,Eson,,1.9908,11.1933,"Equatorial Guinea",GQ,GNQ,Kié-Ntem,Kie-Ntem,GQ-KN,province,,54.6,,,4,Africa/Malabo,TRUE,1226735328
Eson,Eson,,2.1460,11.3283,"Equatorial Guinea",GQ,GNQ,Kié-Ntem,Kie-Ntem,GQ-KN,province,,54.3,,,4,Africa/Malabo,TRUE,1226974760
Etom,Etom,,1.7587,11.2649,"Equatorial Guinea",GQ,GNQ,Kié-Ntem,Kie-Ntem,GQ-KN,province,,54.6,,,4,Africa/Malabo,FALSE,1226900982
Avam,Avam,,1.3241,11.0161,"Equatorial Guinea",GQ,GNQ,Wele-Nzas,Wele-Nzas,GQ-WN,province,,34.4,,,4,Africa/Malabo,FALSE,1226634060
Niefala,Niefala,Nniefala,0.9688,10.0135,"Equatorial Guinea",GQ,GNQ,"Centro Sur","Centro Sur",GQ-CS,province,,2.5,,,5,Africa/Libreville,FALSE,1226562575
Mico,Mico,Mikoo,1.9099,11.0246,"Equatorial Guinea",GQ,GNQ,Kié-Ntem,Kie-Ntem,GQ-KN,province,,54.6,,,4,Africa/Malabo,FALSE,1226155798
Oveng,Oveng,,2.0296,11.2900,"Equatorial Guinea",GQ,GNQ,Kié-Ntem,Kie-Ntem,GQ-KN,province,,54.6,,,4,Africa/Malabo,FALSE,1226894853
Oveng,Oveng,Ovong,2.0831,10.9992,"Equatorial Guinea",GQ,GNQ,Kié-Ntem,Kie-Ntem,GQ-KN,province,,54.6,,,4,Africa/Malabo,TRUE,1226713577
Oveng,Oveng,,2.1463,10.4354,"Equatorial Guinea",GQ,GNQ,Kié-Ntem,Kie-Ntem,GQ-KN,province,,54.6,,,4,Africa/Malabo,TRUE,1226196632
Oveng,Oveng,,2.1590,10.9680,"Equatorial Guinea",GQ,GNQ,Kié-Ntem,Kie-Ntem,GQ-KN,province,,54.6,,,4,Africa/Malabo,TRUE,1226630251
Oveng,Oveng,,2.1544,11.2800,"Equatorial Guinea",GQ,GNQ,Kié-Ntem,Kie-Ntem,GQ-KN,province,,54.6,,,4,Africa/Malabo,TRUE,1226443829
Oveng,Oveng,,1.9638,10.7914,"Equatorial Guinea",GQ,GNQ,Kié-Ntem,Kie-Ntem,GQ-KN,province,,53.4,,,4,Africa/Malabo,TRUE,1226658191
Aconikie,Aconikie,Akonekie,1.5434,11.3088,"Equatorial Guinea",GQ,GNQ,Wele-Nzas,Wele-Nzas,GQ-WN,province,,34.4,,,4,Africa/Malabo,FALSE,1226940331
Ncombia,Ncombia,,2.0619,9.9661,"Equatorial Guinea",GQ,GNQ,Litoral,Litoral,GQ-LI,province,,54.9,,,4,Africa/Malabo,FALSE,1226643048
Eson,Eson,,1.4897,11.0812,"Equatorial Guinea",GQ,GNQ,Wele-Nzas,Wele-Nzas,GQ-WN,province,,34.4,,,4,Africa/Malabo,FALSE,1226456477
Eñormebei,Enormebei,Enormebel,1.8067,10.7007,"Equatorial Guinea",GQ,GNQ,Wele-Nzas,Wele-Nzas,GQ-WN,province,,34.4,,,4,Africa/Malabo,FALSE,1226341469
Noayong,Noayong,Nuoayong|Nnoayong,1.1589,9.8333,"Equatorial Guinea",GQ,GNQ,Litoral,Litoral,GQ-LI,province,,54.9,,,4,Africa/Malabo,FALSE,1226084627
Enoc,Enoc,Enok,2.1411,10.8638,"Equatorial Guinea",GQ,GNQ,Kié-Ntem,Kie-Ntem,GQ-KN,province,,54.6,,,4,Africa/Malabo,FALSE,1226434634
Ecoo,Ecoo,Akoo,2.0833,11.3167,"Equatorial Guinea",GQ,GNQ,Kié-Ntem,Kie-Ntem,GQ-KN,province,,54.6,,,4,Africa/Malabo,FALSE,1226911495
Nguanda,Nguanda,,2.2415,9.8482,"Equatorial Guinea",GQ,GNQ,Litoral,Litoral,GQ-LI,province,,54.9,,,4,Africa/Malabo,FALSE,1226135281
Bisobinbong,Bisobinbong,,1.9764,10.2834,"Equatorial Guinea",GQ,GNQ,"Centro Sur","Centro Sur",GQ-CS,province,,17.4,,,4,Africa/Malabo,FALSE,1226611078
Mfulayong,Mfulayong,Nfulayong,1.9734,10.6039,"Equatorial Guinea",GQ,GNQ,Kié-Ntem,Kie-Ntem,GQ-KN,province,,45.4,,,4,Africa/Malabo,FALSE,1226439307
Bindún,Bindun,Bindung,1.8703,9.8871,"Equatorial Guinea",GQ,GNQ,Litoral,Litoral,GQ-LI,province,,54.9,,,4,Africa/Malabo,FALSE,1226830797
Ayanesala,Ayanesala,Ayenesala,1.1988,9.9388,"Equatorial Guinea",GQ,GNQ,Litoral,Litoral,GQ-LI,province,,54.9,,,4,Africa/Malabo,FALSE,1226223607
Ayanesala,Ayanesala,Ayenesala,1.0955,9.6404,"Equatorial Guinea",GQ,GNQ,Litoral,Litoral,GQ-LI,province,,54.9,,,4,Africa/Malabo,TRUE,1226824123
Abeng-Nam,Abeng-Nam,,1.7519,10.4540,"Equatorial Guinea",GQ,GNQ,"Centro Sur","Centro Sur",GQ-CS,province,,17.4,,,4,Africa/Malabo,FALSE,1226659146
Osuayong,Osuayong,,1.7516,9.7788,"Equatorial Guinea",GQ,GNQ,Litoral,Litoral,GQ-LI,province,,54.9,,,4,Africa/Malabo,FALSE,1226471167
Bantabaré,Bantabare,,3.4560,8.7669,"Equatorial Guinea",GQ,GNQ,"Bioko Sur","Bioko Sur",GQ-BS,province,,26.8,,,4,Africa/Malabo,FALSE,1226824987
Ocola,Ocola,Okola,1.5008,9.7022,"Equatorial Guinea",GQ,GNQ,Litoral,Litoral,GQ-LI,province,,54.9,,,4,Africa/Malabo,FALSE,1226744187
Ocola,Ocola,Okola,1.1413,9.3842,"Equatorial Guinea",GQ,GNQ,Litoral,Litoral,GQ-LI,province,,54.9,,,4,Africa/Malabo,TRUE,1226165591
Ocola,Ocola,Okola|Ndongo,1.0015,9.8932,"Equatorial Guinea",GQ,GNQ,Litoral,Litoral,GQ-LI,province,,54.9,,,4,Africa/Malabo,TRUE,1226463907
Ocola,Ocola,,1.6970,9.8779,"Equatorial Guinea",GQ,GNQ,Litoral,Litoral,GQ-LI,province,,54.9,,,4,Africa/Malabo,TRUE,1226067002
Ayaamang,Ayaamang,Ayakmang,2.0833,10.4384,"Equatorial Guinea",GQ,GNQ,Kié-Ntem,Kie-Ntem,GQ-KN,province,,54.6,,,4,Africa/Malabo,FALSE,1226168940
Echaesia,Echaesia,,1.2903,10.4233,"Equatorial Guinea",GQ,GNQ,"Centro Sur","Centro Sur",GQ-CS,province,,17.4,,,4,Africa/Malabo,FALSE,1226363047
Enusoc,Enusoc,,1.5270,9.8911,"Equatorial Guinea",GQ,GNQ,Litoral,Litoral,GQ-LI,province,,54.9,,,4,Africa/Malabo,FALSE,1226231068
Mbedumo,Mbedumo,Mbedumu,2.0666,11.1088,"Equatorial Guinea",GQ,GNQ,Kié-Ntem,Kie-Ntem,GQ-KN,province,,54.6,,,4,Africa/Malabo,FALSE,1226913963
Masoc,Masoc,Masok,1.8254,10.4699,"Equatorial Guinea",GQ,GNQ,"Centro Sur","Centro Sur",GQ-CS,province,,17.4,,,4,Africa/Malabo,FALSE,1226335448
Masoc,Masoc,Masok,1.7047,10.5023,"Equatorial Guinea",GQ,GNQ,"Centro Sur","Centro Sur",GQ-CS,province,,17.4,,,4,Africa/Malabo,TRUE,1226600905
Masoc,Masoc,,1.6122,10.4712,"Equatorial Guinea",GQ,GNQ,"Centro Sur","Centro Sur",GQ-CS,province,,17.4,,,4,Africa/Malabo,TRUE,1226537252
Dogo,Dogo,Ndogo,1.8588,9.8578,"Equatorial Guinea",GQ,GNQ,Litoral,Litoral,GQ-LI,province,,54.9,,,4,Africa/Malabo,FALSE,1226198943
Macom,Macom,,1.8560,11.0033,"Equatorial Guinea",GQ,GNQ,Kié-Ntem,Kie-Ntem,GQ-KN,province,,54.6,,,4,Africa/Malabo,FALSE,1226569306
Mbe,Mbe,,1.3308,10.4056,"Equatorial Guinea",GQ,GNQ,"Centro Sur","Centro Sur",GQ-CS,province,,17.4,,,4,Africa/Malabo,FALSE,1226978689
Mbe,Mbe,,1.4610,10.5253,"Equatorial Guinea",GQ,GNQ,"Centro Sur","Centro Sur",GQ-CS,province,,17.4,,,4,Africa/Malabo,TRUE,1226488260
Mbe,Mbe,Mba,1.8064,10.4232,"Equatorial Guinea",GQ,GNQ,"Centro Sur","Centro Sur",GQ-CS,province,,17.4,,,4,Africa/Malabo,TRUE,1226503499
Yama,Yama,Llama,1.1225,10.5861,"Equatorial Guinea",GQ,GNQ,"Centro Sur","Centro Sur",GQ-CS,province,,17.4,,,4,Africa/Malabo,FALSE,1226019932
Corro,Corro,Koro,1.8428,10.4433,"Equatorial Guinea",GQ,GNQ,"Centro Sur","Centro Sur",GQ-CS,province,,17.4,,,4,Africa/Malabo,FALSE,1226547391
Misáa,Misaa,Mesaa,2.1574,11.2589,"Equatorial Guinea",GQ,GNQ,Kié-Ntem,Kie-Ntem,GQ-KN,province,,54.6,,,4,Africa/Malabo,FALSE,1226662530
Bindoc,Bindoc,Bindok,1.7565,10.8309,"Equatorial Guinea",GQ,GNQ,Wele-Nzas,Wele-Nzas,GQ-WN,province,,34.4,,,4,Africa/Malabo,FALSE,1226924880
Mitemele,Mitemele,Mitemelete,1.3372,10.5867,"Equatorial Guinea",GQ,GNQ,"Centro Sur","Centro Sur",GQ-CS,province,,17.4,,,4,Africa/Malabo,FALSE,1226144442
Bisóbinam,Bisobinam,,1.5181,11.2997,"Equatorial Guinea",GQ,GNQ,Wele-Nzas,Wele-Nzas,GQ-WN,province,,34.4,,,4,Africa/Malabo,FALSE,1226427549
Bisóbinam,Bisobinam,Bisominam,1.4837,11.2706,"Equatorial Guinea",GQ,GNQ,Wele-Nzas,Wele-Nzas,GQ-WN,province,,34.4,,,4,Africa/Malabo,TRUE,1226275997
Bisóbinam,Bisobinam,,1.3413,11.1158,"Equatorial Guinea",GQ,GNQ,Wele-Nzas,Wele-Nzas,GQ-WN,province,,34.4,,,4,Africa/Malabo,TRUE,1226071235
Bisóbinam,Bisobinam,,1.5395,11.1974,"Equatorial Guinea",GQ,GNQ,Wele-Nzas,Wele-Nzas,GQ-WN,province,,34.4,,,4,Africa/Malabo,TRUE,1226159223
Bisóbinam,Bisobinam,,1.3196,11.0724,"Equatorial Guinea",GQ,GNQ,Wele-Nzas,Wele-Nzas,GQ-WN,province,,34.4,,,4,Africa/Malabo,TRUE,1226409588
Bisobinam,Bisobinam,,1.7982,10.7721,"Equatorial Guinea",GQ,GNQ,Wele-Nzas,Wele-Nzas,GQ-WN,province,,34.4,,,4,Africa/Malabo,TRUE,1226278846
Bisobinam,Bisobinam,,1.8988,10.6774,"Equatorial Guinea",GQ,GNQ,Wele-Nzas,Wele-Nzas,GQ-WN,province,,34.4,,,4,Africa/Malabo,TRUE,1226954487
Bisóbinam,Bisobinam,,1.2134,10.9873,"Equatorial Guinea",GQ,GNQ,Wele-Nzas,Wele-Nzas,GQ-WN,province,,34.4,,,4,Africa/Malabo,TRUE,1226279331
Bibulubam,Bibulubam,,2.0833,10.6966,"Equatorial Guinea",GQ,GNQ,Kié-Ntem,Kie-Ntem,GQ-KN,province,,54.6,,,4,Africa/Malabo,FALSE,1226491262
Sandon,Sandon,,2.0398,10.9263,"Equatorial Guinea",GQ,GNQ,Kié-Ntem,Kie-Ntem,GQ-KN,province,,54.6,,,4,Africa/Malabo,FALSE,1226187589
Rilaja,Rilaja,,3.4381,8.6299,"Equatorial Guinea",GQ,GNQ,"Bioko Sur","Bioko Sur",GQ-BS,province,,26.8,,,4,Africa/Malabo,FALSE,1226584179
Mbun,Mbun,Mbum,1.9903,11.2450,"Equatorial Guinea",GQ,GNQ,Kié-Ntem,Kie-Ntem,GQ-KN,province,,54.6,,,4,Africa/Malabo,FALSE,1226782858
Minbamengui,Minbamengui,Mimbamengui,2.1065,10.5328,"Equatorial Guinea",GQ,GNQ,Kié-Ntem,Kie-Ntem,GQ-KN,province,,54.6,,,4,Africa/Malabo,FALSE,1226681324
Mbaseng,Mbaseng,Asung|Asoung|Asang,2.0667,11.2167,"Equatorial Guinea",GQ,GNQ,Kié-Ntem,Kie-Ntem,GQ-KN,province,,54.6,,,4,Africa/Malabo,FALSE,1226645076
Mebomán,Meboman,,1.7348,9.9013,"Equatorial Guinea",GQ,GNQ,Litoral,Litoral,GQ-LI,province,,54.9,,,4,Africa/Malabo,FALSE,1226980008
Etembue,Etembue,,1.2788,9.4218,"Equatorial Guinea",GQ,GNQ,Litoral,Litoral,GQ-LI,province,,54.9,,,4,Africa/Malabo,FALSE,1226071849
Acurnam,Acurnam,,1.0742,10.3435,"Equatorial Guinea",GQ,GNQ,"Centro Sur","Centro Sur",GQ-CS,province,,17.4,,,4,Africa/Malabo,FALSE,1226125627
Bibas,Bibas,,1.3174,10.8941,"Equatorial Guinea",GQ,GNQ,Wele-Nzas,Wele-Nzas,GQ-WN,province,,34.4,,,4,Africa/Malabo,FALSE,1226373625
Afanabang,Afanabang,,2.0227,9.8775,"Equatorial Guinea",GQ,GNQ,Litoral,Litoral,GQ-LI,province,,54.9,,,4,Africa/Malabo,FALSE,1226546989
Nveayong,Nveayong,Nvengayong,1.5758,10.4418,"Equatorial Guinea",GQ,GNQ,"Centro Sur","Centro Sur",GQ-CS,province,,17.4,,,4,Africa/Malabo,FALSE,1226680894
Mvubu,Mvubu,,1.9067,10.3010,"Equatorial Guinea",GQ,GNQ,"Centro Sur","Centro Sur",GQ-CS,province,,17.4,,,4,Africa/Malabo,FALSE,1226291142
Yocuguongbo,Yocuguongbo,,1.2803,9.4154,"Equatorial Guinea",GQ,GNQ,Litoral,Litoral,GQ-LI,province,,54.9,,,4,Africa/Malabo,FALSE,1226976276
Mbam,Mbam,,1.9897,10.4278,"Equatorial Guinea",GQ,GNQ,Kié-Ntem,Kie-Ntem,GQ-KN,province,,54.6,,,4,Africa/Malabo,FALSE,1226101377
Mbam,Mbam,Bame,2.0636,10.4846,"Equatorial Guinea",GQ,GNQ,Kié-Ntem,Kie-Ntem,GQ-KN,province,,54.6,,,4,Africa/Malabo,TRUE,1226574007
Mbam,Mbam,,2.1143,10.5360,"Equatorial Guinea",GQ,GNQ,Kié-Ntem,Kie-Ntem,GQ-KN,province,,54.6,,,4,Africa/Malabo,TRUE,1226875409
Mbam,Mbam,,1.7466,11.3787,"Equatorial Guinea",GQ,GNQ,Kié-Ntem,Kie-Ntem,GQ-KN,province,,17.6,,,4,Africa/Malabo,TRUE,1226321910
Yobo,Yobo,,1.7729,9.8481,"Equatorial Guinea",GQ,GNQ,Litoral,Litoral,GQ-LI,province,,54.9,,,4,Africa/Malabo,FALSE,1226296104
Nyong,Nyong,,1.8165,10.4684,"Equatorial Guinea",GQ,GNQ,"Centro Sur","Centro Sur",GQ-CS,province,,17.4,,,4,Africa/Malabo,FALSE,1226634667
Mbubui,Mbubui,Mbumbui,2.1238,10.4029,"Equatorial Guinea",GQ,GNQ,"Centro Sur","Centro Sur",GQ-CS,province,,48.8,,,4,Africa/Malabo,FALSE,1226841975
Efulan,Efulan,,1.5172,11.2069,"Equatorial Guinea",GQ,GNQ,Wele-Nzas,Wele-Nzas,GQ-WN,province,,34.4,,,4,Africa/Malabo,FALSE,1226398140
Efulan,Efulan,Efulan-Ayene,1.9207,10.6300,"Equatorial Guinea",GQ,GNQ,Wele-Nzas,Wele-Nzas,GQ-WN,province,,34.4,,,4,Africa/Malabo,TRUE,1226997050
Eguong,Eguong,"Eguong Nsang",1.9939,10.9712,"Equatorial Guinea",GQ,GNQ,Kié-Ntem,Kie-Ntem,GQ-KN,province,,54.6,,,4,Africa/Malabo,FALSE,1226507165
Eguong,Eguong,,2.0151,11.1582,"Equatorial Guinea",GQ,GNQ,Kié-Ntem,Kie-Ntem,GQ-KN,province,,54.6,,,4,Africa/Malabo,TRUE,1226897152
"San Joaquín de Ndyiacom","San Joaquin de Ndyiacom",Ndjakom,2.0291,9.9287,"Equatorial Guinea",GQ,GNQ,Litoral,Litoral,GQ-LI,province,,54.9,,,4,Africa/Malabo,FALSE,1226360108
Edum,Edum,,1.0017,10.7830,"Equatorial Guinea",GQ,GNQ,"Centro Sur","Centro Sur",GQ-CS,province,,17.4,,,4,Africa/Libreville,FALSE,1226239895
Edum,Edum,,1.8590,10.1906,"Equatorial Guinea",GQ,GNQ,"Centro Sur","Centro Sur",GQ-CS,province,,17.4,,,4,Africa/Malabo,TRUE,1226651957
Ebang,Ebang,,1.9394,11.2336,"Equatorial Guinea",GQ,GNQ,Kié-Ntem,Kie-Ntem,GQ-KN,province,,54.6,,,4,Africa/Malabo,FALSE,1226072844
Bilen,Bilen,,1.9447,10.3882,"Equatorial Guinea",GQ,GNQ,"Centro Sur","Centro Sur",GQ-CS,province,,17.4,,,4,Africa/Malabo,FALSE,1226170297
Manduma,Manduma,,2.0167,11.1833,"Equatorial Guinea",GQ,GNQ,Kié-Ntem,Kie-Ntem,GQ-KN,province,,54.6,,,4,Africa/Malabo,FALSE,1226299079
Asamboa,Asamboa,,1.0701,9.6009,"Equatorial Guinea",GQ,GNQ,Litoral,Litoral,GQ-LI,province,,54.9,,,4,Africa/Malabo,FALSE,1226729205
Osamvain,Osamvain,,1.3826,11.2416,"Equatorial Guinea",GQ,GNQ,Wele-Nzas,Wele-Nzas,GQ-WN,province,,34.4,,,4,Africa/Malabo,FALSE,1226498087
Avang,Avang,,1.8980,10.3622,"Equatorial Guinea",GQ,GNQ,"Centro Sur","Centro Sur",GQ-CS,province,,17.4,,,4,Africa/Malabo,FALSE,1226140359
Nsangnam,Nsangnam,,1.1072,10.4057,"Equatorial Guinea",GQ,GNQ,"Centro Sur","Centro Sur",GQ-CS,province,,17.4,,,4,Africa/Malabo,FALSE,1226313266
Nsangnam,Nsangnam,,1.5551,10.1381,"Equatorial Guinea",GQ,GNQ,"Centro Sur","Centro Sur",GQ-CS,province,,17.4,,,4,Africa/Malabo,TRUE,1226626132
Nsangnam,Nsangnam,,1.1266,10.5823,"Equatorial Guinea",GQ,GNQ,"Centro Sur","Centro Sur",GQ-CS,province,,17.4,,,4,Africa/Malabo,TRUE,1226110245
Elonesang,Elonesang,,1.7213,10.6794,"Equatorial Guinea",GQ,GNQ,Wele-Nzas,Wele-Nzas,GQ-WN,province,,34.4,,,4,Africa/Malabo,FALSE,1226956475
Bariobé,Bariobe,Bariaobe,3.5825,8.8669,"Equatorial Guinea",GQ,GNQ,"Bioko Norte","Bioko Norte",GQ-BN,province,,561.1,,,3,Africa/Malabo,FALSE,1226104128
Adyap,Adyap,Achap,1.5751,10.4583,"Equatorial Guinea",GQ,GNQ,"Centro Sur","Centro Sur",GQ-CS,province,,17.4,,,4,Africa/Malabo,FALSE,1226687223
Adyap,Adyap,,1.6848,10.3742,"Equatorial Guinea",GQ,GNQ,"Centro Sur","Centro Sur",GQ-CS,province,,17.4,,,4,Africa/Malabo,TRUE,1226647227
Mbamansoc,Mbamansoc,Mbamansok,1.9011,10.6144,"Equatorial Guinea",GQ,GNQ,Wele-Nzas,Wele-Nzas,GQ-WN,province,,34.4,,,4,Africa/Malabo,FALSE,1226465459
Nchegayong,Nchegayong,Ndyanayong,1.5981,11.3046,"Equatorial Guinea",GQ,GNQ,Wele-Nzas,Wele-Nzas,GQ-WN,province,,34.4,,,4,Africa/Malabo,FALSE,1226003909
Oyac,Oyac,,1.8830,10.8294,"Equatorial Guinea",GQ,GNQ,Wele-Nzas,Wele-Nzas,GQ-WN,province,,34.4,,,4,Africa/Malabo,FALSE,1226319189
Lembue,Lembue,Lambué,0.8920,9.3220,"Equatorial Guinea",GQ,GNQ,Litoral,Litoral,GQ-LI,province,,54.9,,,4,Africa/Malabo,FALSE,1226726257
Ndyengom,Ndyengom,Ndegengon,1.3069,10.8052,"Equatorial Guinea",GQ,GNQ,Wele-Nzas,Wele-Nzas,GQ-WN,province,,34.4,,,4,Africa/Malabo,FALSE,1226909278
Nyeche,Nyeche,,1.7858,9.7299,"Equatorial Guinea",GQ,GNQ,Litoral,Litoral,GQ-LI,province,,54.9,,,4,Africa/Malabo,FALSE,1226351580
Abumnsoc,Abumnsoc,Abumensok,1.5913,10.0137,"Equatorial Guinea",GQ,GNQ,"Centro Sur","Centro Sur",GQ-CS,province,,17.4,,,4,Africa/Malabo,FALSE,1226541731
Mayang,Mayang,,1.5762,9.8493,"Equatorial Guinea",GQ,GNQ,Litoral,Litoral,GQ-LI,province,,54.9,,,4,Africa/Malabo,FALSE,1226987745
Mayang,Mayang,,1.4475,9.6409,"Equatorial Guinea",GQ,GNQ,Litoral,Litoral,GQ-LI,province,,54.9,,,4,Africa/Malabo,TRUE,1226184996
Mayang,Mayang,,1.1469,9.9250,"Equatorial Guinea",GQ,GNQ,Litoral,Litoral,GQ-LI,province,,54.9,,,4,Africa/Malabo,TRUE,1226233596
Mayang,Mayang,,1.6890,9.8466,"Equatorial Guinea",GQ,GNQ,Litoral,Litoral,GQ-LI,province,,54.9,,,4,Africa/Malabo,TRUE,1226910068
Achimilang,Achimilang,Achimelang,1.0166,9.9324,"Equatorial Guinea",GQ,GNQ,Litoral,Litoral,GQ-LI,province,,54.9,,,4,Africa/Malabo,FALSE,1226139636
Abomendama,Abomendama,,2.0097,10.7872,"Equatorial Guinea",GQ,GNQ,Kié-Ntem,Kie-Ntem,GQ-KN,province,,54.6,,,4,Africa/Malabo,FALSE,1226714823
Boó,Boo,,0.9699,9.8989,"Equatorial Guinea",GQ,GNQ,Litoral,Litoral,GQ-LI,province,,54.9,,,4,Africa/Malabo,FALSE,1226400645
Bóo,Boo,,1.8180,9.9105,"Equatorial Guinea",GQ,GNQ,Litoral,Litoral,GQ-LI,province,,54.9,,,4,Africa/Malabo,TRUE,1226399251
Madrid,Madrid,,1.0879,9.6934,"Equatorial Guinea",GQ,GNQ,Litoral,Litoral,GQ-LI,province,,54.9,,,4,Africa/Malabo,FALSE,1226896681
Bindola,Bindola,,1.7828,9.9305,"Equatorial Guinea",GQ,GNQ,Litoral,Litoral,GQ-LI,province,,54.9,,,4,Africa/Malabo,FALSE,1226760257
Ngon,Ngon,Ngong,1.9194,11.3296,"Equatorial Guinea",GQ,GNQ,Kié-Ntem,Kie-Ntem,GQ-KN,province,,54.6,,,4,Africa/Malabo,FALSE,1226645106
Mbeenam,Mbeenam,,1.5277,9.9046,"Equatorial Guinea",GQ,GNQ,Litoral,Litoral,GQ-LI,province,,54.9,,,4,Africa/Malabo,FALSE,1226194712
Camferec,Camferec,Kanfere|Kamfere,1.1153,9.4386,"Equatorial Guinea",GQ,GNQ,Litoral,Litoral,GQ-LI,province,,54.9,,,4,Africa/Malabo,FALSE,1226552412
Bigüeme,Bigueme,,1.4539,10.3878,"Equatorial Guinea",GQ,GNQ,"Centro Sur","Centro Sur",GQ-CS,province,,17.4,,,4,Africa/Malabo,FALSE,1226675691
Nonsoc,Nonsoc,,1.3812,10.3242,"Equatorial Guinea",GQ,GNQ,"Centro Sur","Centro Sur",GQ-CS,province,,17.4,,,4,Africa/Malabo,FALSE,1226562865
Nkinfala,Nkinfala,,1.7653,9.7769,"Equatorial Guinea",GQ,GNQ,Litoral,Litoral,GQ-LI,province,,54.9,,,4,Africa/Malabo,FALSE,1226349697
Mfúa,Mfua,Nfua,1.8898,11.3536,"Equatorial Guinea",GQ,GNQ,Kié-Ntem,Kie-Ntem,GQ-KN,province,,32.0,,,4,Africa/Malabo,FALSE,1226725760
Bicoro,Bicoro,,1.7325,9.9675,"Equatorial Guinea",GQ,GNQ,Litoral,Litoral,GQ-LI,province,,54.9,,,4,Africa/Malabo,FALSE,1226525743
Bitom,Bitom,,1.1176,9.9374,"Equatorial Guinea",GQ,GNQ,Litoral,Litoral,GQ-LI,province,,54.9,,,4,Africa/Malabo,FALSE,1226824346
Nguolensoc,Nguolensoc,Ngüelensoc|Ngolensok,1.1591,10.5675,"Equatorial Guinea",GQ,GNQ,"Centro Sur","Centro Sur",GQ-CS,province,,17.4,,,4,Africa/Malabo,FALSE,1226390996
Ondeng,Ondeng,Onteng,1.2646,11.0767,"Equatorial Guinea",GQ,GNQ,Wele-Nzas,Wele-Nzas,GQ-WN,province,,34.4,,,4,Africa/Malabo,FALSE,1226140916
Ondeng,Ondeng,,1.6965,10.8406,"Equatorial Guinea",GQ,GNQ,Wele-Nzas,Wele-Nzas,GQ-WN,province,,34.4,,,4,Africa/Malabo,TRUE,1226181634
Milong,Milong,,1.7239,10.9551,"Equatorial Guinea",GQ,GNQ,Wele-Nzas,Wele-Nzas,GQ-WN,province,,34.4,,,4,Africa/Malabo,FALSE,1226829696
Milong,Milong,Melong,1.7639,10.6106,"Equatorial Guinea",GQ,GNQ,Wele-Nzas,Wele-Nzas,GQ-WN,province,,33.0,,,4,Africa/Malabo,TRUE,1226492390
Alar,Alar,Alat,1.0610,10.0765,"Equatorial Guinea",GQ,GNQ,"Centro Sur","Centro Sur",GQ-CS,province,,17.4,,,4,Africa/Malabo,FALSE,1226162409
Motom,Motom,,1.2659,9.4261,"Equatorial Guinea",GQ,GNQ,Litoral,Litoral,GQ-LI,province,,54.9,,,4,Africa/Malabo,FALSE,1226077917
Angon,Angon,,1.2872,10.8969,"Equatorial Guinea",GQ,GNQ,Wele-Nzas,Wele-Nzas,GQ-WN,province,,34.4,,,4,Africa/Malabo,FALSE,1226415060
Embiert,Embiert,Mbiet,1.8666,10.7523,"Equatorial Guinea",GQ,GNQ,Wele-Nzas,Wele-Nzas,GQ-WN,province,,34.4,,,4,Africa/Malabo,FALSE,1226970529
Acot,Acot,,2.1655,10.3210,"Equatorial Guinea",GQ,GNQ,"Centro Sur","Centro Sur",GQ-CS,province,,17.4,,,4,Africa/Malabo,FALSE,1226527993
Mban,Mban,,1.8828,11.2861,"Equatorial Guinea",GQ,GNQ,Kié-Ntem,Kie-Ntem,GQ-KN,province,,54.6,,,4,Africa/Malabo,FALSE,1226775567
Oguom,Oguom,,1.8010,9.9028,"Equatorial Guinea",GQ,GNQ,Litoral,Litoral,GQ-LI,province,,54.9,,,4,Africa/Malabo,FALSE,1226077251
Ebomncu,Ebomncu,Ebomekur|Ebomekour,1.0265,10.5998,"Equatorial Guinea",GQ,GNQ,"Centro Sur","Centro Sur",GQ-CS,province,,17.4,,,4,Africa/Malabo,FALSE,1226341646
Ebaiñ,Ebain,Ebeiñ,1.7539,11.3202,"Equatorial Guinea",GQ,GNQ,Kié-Ntem,Kie-Ntem,GQ-KN,province,,54.6,,,4,Africa/Malabo,FALSE,1226023789
Mboete,Mboete,,1.1092,9.9687,"Equatorial Guinea",GQ,GNQ,Litoral,Litoral,GQ-LI,province,,54.9,,,4,Africa/Malabo,FALSE,1226278869
Mboete,Mboete,,1.8644,9.9980,"Equatorial Guinea",GQ,GNQ,Litoral,Litoral,GQ-LI,province,,54.9,,,4,Africa/Malabo,TRUE,1226701332
Ayap,Ayap,,1.6832,11.0395,"Equatorial Guinea",GQ,GNQ,Wele-Nzas,Wele-Nzas,GQ-WN,province,,34.4,,,4,Africa/Malabo,FALSE,1226705251
Mbintang,Mbintang,,2.0606,10.2435,"Equatorial Guinea",GQ,GNQ,"Centro Sur","Centro Sur",GQ-CS,province,,17.4,,,4,Africa/Malabo,FALSE,1226028533
Ncum,Ncum,Nkum,1.5774,11.1686,"Equatorial Guinea",GQ,GNQ,Wele-Nzas,Wele-Nzas,GQ-WN,province,,34.4,,,4,Africa/Malabo,FALSE,1226950157
Yanabote,Yanabote,,1.2624,9.3986,"Equatorial Guinea",GQ,GNQ,Litoral,Litoral,GQ-LI,province,,54.9,,,4,Africa/Malabo,FALSE,1226191896
Bileosi,Bileosi,,1.6854,11.2662,"Equatorial Guinea",GQ,GNQ,Wele-Nzas,Wele-Nzas,GQ-WN,province,,34.4,,,4,Africa/Malabo,FALSE,1226043623
Basupú,Basupu,"Fishtown|Bacipú|Basupí Fiston|Basipu",3.7279,8.8102,"Equatorial Guinea",GQ,GNQ,"Bioko Norte","Bioko Norte",GQ-BN,province,,561.1,,,3,Africa/Malabo,FALSE,1226251424
Mboma,Mboma,Mbomo,2.0208,11.3141,"Equatorial Guinea",GQ,GNQ,Kié-Ntem,Kie-Ntem,GQ-KN,province,,54.6,,,4,Africa/Malabo,FALSE,1226926026
Ncoaebeñ,Ncoaeben,,1.7487,9.8930,"Equatorial Guinea",GQ,GNQ,Litoral,Litoral,GQ-LI,province,,54.9,,,4,Africa/Malabo,FALSE,1226334472
Mvomo,Mvomo,,1.8204,11.0303,"Equatorial Guinea",GQ,GNQ,Kié-Ntem,Kie-Ntem,GQ-KN,province,,54.6,,,4,Africa/Malabo,FALSE,1226864319
Aban,Aban,Abam,2.0946,11.3100,"Equatorial Guinea",GQ,GNQ,Kié-Ntem,Kie-Ntem,GQ-KN,province,,54.6,,,4,Africa/Malabo,FALSE,1226293015
Ndele,Ndele,,1.3668,11.2014,"Equatorial Guinea",GQ,GNQ,Wele-Nzas,Wele-Nzas,GQ-WN,province,,34.4,,,4,Africa/Malabo,FALSE,1226778827
Musoc,Musoc,,2.1252,10.6740,"Equatorial Guinea",GQ,GNQ,Kié-Ntem,Kie-Ntem,GQ-KN,province,,54.6,,,4,Africa/Malabo,FALSE,1226983381
Edobngong,Edobngong,,1.7731,10.0426,"Equatorial Guinea",GQ,GNQ,Litoral,Litoral,GQ-LI,province,,54.9,,,4,Africa/Malabo,FALSE,1226379846
"Balachá de Concepción","Balacha de Concepcion",,3.3971,8.7156,"Equatorial Guinea",GQ,GNQ,"Bioko Sur","Bioko Sur",GQ-BS,province,,26.8,,,4,Africa/Malabo,FALSE,1226389350
Ndyong,Ndyong,,1.4907,10.5997,"Equatorial Guinea",GQ,GNQ,"Centro Sur","Centro Sur",GQ-CS,province,,17.4,,,4,Africa/Malabo,FALSE,1226491152
Ndyong,Ndyong,Ndgong,1.6347,10.4121,"Equatorial Guinea",GQ,GNQ,"Centro Sur","Centro Sur",GQ-CS,province,,17.4,,,4,Africa/Malabo,TRUE,1226187562
Nloayong,Nloayong,Nloayon,2.1586,11.3108,"Equatorial Guinea",GQ,GNQ,Kié-Ntem,Kie-Ntem,GQ-KN,province,,54.6,,,4,Africa/Malabo,FALSE,1226527597
Nloayong,Nloayong,,2.1302,10.9261,"Equatorial Guinea",GQ,GNQ,Kié-Ntem,Kie-Ntem,GQ-KN,province,,54.6,,,4,Africa/Malabo,TRUE,1226515698
Nloayong,Nloayong,,2.1536,11.0694,"Equatorial Guinea",GQ,GNQ,Kié-Ntem,Kie-Ntem,GQ-KN,province,,54.6,,,4,Africa/Malabo,TRUE,1226403594
Ayaaman,Ayaaman,,1.9390,10.8250,"Equatorial Guinea",GQ,GNQ,Kié-Ntem,Kie-Ntem,GQ-KN,province,,34.4,,,4,Africa/Malabo,FALSE,1226310192
Aban,Aban,Abam,1.8397,10.8636,"Equatorial Guinea",GQ,GNQ,Wele-Nzas,Wele-Nzas,GQ-WN,province,,34.4,,,4,Africa/Malabo,FALSE,1226483535
Loayop,Loayop,,1.2715,10.7038,"Equatorial Guinea",GQ,GNQ,"Centro Sur","Centro Sur",GQ-CS,province,,17.4,,,4,Africa/Malabo,FALSE,1226949062
Engong,Engong,,1.4073,10.0124,"Equatorial Guinea",GQ,GNQ,Litoral,Litoral,GQ-LI,province,,54.9,,,4,Africa/Malabo,FALSE,1226651027
Engong,Engong,,1.3518,9.6051,"Equatorial Guinea",GQ,GNQ,Litoral,Litoral,GQ-LI,province,,54.9,,,4,Africa/Malabo,TRUE,1226688703
Micomibe,Micomibe,,1.2836,10.8964,"Equatorial Guinea",GQ,GNQ,Wele-Nzas,Wele-Nzas,GQ-WN,province,,34.4,,,4,Africa/Malabo,FALSE,1226813035
Alun,Alun,Alen,1.7426,11.1345,"Equatorial Guinea",GQ,GNQ,Kié-Ntem,Kie-Ntem,GQ-KN,province,,54.6,,,4,Africa/Malabo,FALSE,1226808038
Nyale,Nyale,,1.1994,9.3760,"Equatorial Guinea",GQ,GNQ,Litoral,Litoral,GQ-LI,province,,54.9,,,4,Africa/Malabo,FALSE,1226046540
Bangui,Bangui,,1.2497,9.5555,"Equatorial Guinea",GQ,GNQ,Litoral,Litoral,GQ-LI,province,,54.9,,,4,Africa/Malabo,FALSE,1226189040
Ebasoc,Ebasoc,Ebansok,1.7465,10.1312,"Equatorial Guinea",GQ,GNQ,"Centro Sur","Centro Sur",GQ-CS,province,,17.4,,,4,Africa/Malabo,FALSE,1226704823
Acam,Acam,,1.0249,10.8744,"Equatorial Guinea",GQ,GNQ,"Centro Sur","Centro Sur",GQ-CS,province,,17.4,,,4,Africa/Libreville,FALSE,1226414917
Acam,Acam,Akam,1.7955,10.5988,"Equatorial Guinea",GQ,GNQ,"Centro Sur","Centro Sur",GQ-CS,province,,17.4,,,4,Africa/Malabo,TRUE,1226576610
Acam,Acam,,1.8493,10.4990,"Equatorial Guinea",GQ,GNQ,"Centro Sur","Centro Sur",GQ-CS,province,,17.4,,,4,Africa/Malabo,TRUE,1226405308
Andum,Andum,,1.9207,9.8786,"Equatorial Guinea",GQ,GNQ,Litoral,Litoral,GQ-LI,province,,54.9,,,4,Africa/Malabo,FALSE,1226126087
Combo,Combo,,1.1086,9.4135,"Equatorial Guinea",GQ,GNQ,Litoral,Litoral,GQ-LI,province,,54.9,,,4,Africa/Malabo,FALSE,1226837777
Combo,Combo,Kombo,0.9042,9.3062,"Equatorial Guinea",GQ,GNQ,Litoral,Litoral,GQ-LI,province,,54.9,,,4,Africa/Malabo,TRUE,1226672825
Sangnam,Sangnam,,1.6800,9.8304,"Equatorial Guinea",GQ,GNQ,Litoral,Litoral,GQ-LI,province,,54.9,,,4,Africa/Malabo,FALSE,1226346288
Mabam,Mabam,,1.4980,10.5439,"Equatorial Guinea",GQ,GNQ,"Centro Sur","Centro Sur",GQ-CS,province,,17.4,,,4,Africa/Malabo,FALSE,1226632415
Esperanza,Esperanza,,0.8984,9.3109,"Equatorial Guinea",GQ,GNQ,Litoral,Litoral,GQ-LI,province,,54.9,,,4,Africa/Malabo,FALSE,1226664003
Besú,Besu,,2.1704,9.8012,"Equatorial Guinea",GQ,GNQ,Litoral,Litoral,GQ-LI,province,,54.9,,,4,Africa/Malabo,FALSE,1226763512
Eyanebot,Eyanebot,,1.7805,9.7810,"Equatorial Guinea",GQ,GNQ,Litoral,Litoral,GQ-LI,province,,54.9,,,4,Africa/Malabo,FALSE,1226142519
Mogup,Mogup,Moyup,2.0671,10.4972,"Equatorial Guinea",GQ,GNQ,Kié-Ntem,Kie-Ntem,GQ-KN,province,,54.6,,,4,Africa/Malabo,FALSE,1226057461
Dyeng,Dyeng,,1.0912,10.1125,"Equatorial Guinea",GQ,GNQ,Litoral,Litoral,GQ-LI,province,,54.9,,,4,Africa/Malabo,FALSE,1226099674
Mendemayop,Mendemayop,,1.2731,10.6993,"Equatorial Guinea",GQ,GNQ,"Centro Sur","Centro Sur",GQ-CS,province,,17.4,,,4,Africa/Malabo,FALSE,1226313306
Ncomacac,Ncomacac,,1.9966,10.3180,"Equatorial Guinea",GQ,GNQ,"Centro Sur","Centro Sur",GQ-CS,province,,17.4,,,4,Africa/Malabo,FALSE,1226881718
Eyamoyong,Eyamoyong,Eya’mayong,1.7119,9.8378,"Equatorial Guinea",GQ,GNQ,Litoral,Litoral,GQ-LI,province,,54.9,,,4,Africa/Malabo,FALSE,1226474854
Asogomansueiñ,Asogomansuein,Asokmasuñ,1.6805,11.1837,"Equatorial Guinea",GQ,GNQ,Wele-Nzas,Wele-Nzas,GQ-WN,province,,34.4,,,4,Africa/Malabo,FALSE,1226664772
Mabaiñ,Mabain,,1.9303,11.2679,"Equatorial Guinea",GQ,GNQ,Kié-Ntem,Kie-Ntem,GQ-KN,province,,54.6,,,4,Africa/Malabo,FALSE,1226771111
Bicoeme,Bicoeme,,2.0095,9.8600,"Equatorial Guinea",GQ,GNQ,Litoral,Litoral,GQ-LI,province,,54.9,,,4,Africa/Malabo,FALSE,1226972961
Nsangnam,Nsangnam,,1.2658,9.6007,"Equatorial Guinea",GQ,GNQ,Litoral,Litoral,GQ-LI,province,,54.9,,,4,Africa/Malabo,FALSE,1226494460
Nsangnam,Nsangnam,,1.4732,9.5616,"Equatorial Guinea",GQ,GNQ,Litoral,Litoral,GQ-LI,province,,54.9,,,4,Africa/Malabo,TRUE,1226397523
Nsangnam,Nsangnam,,1.1342,9.9704,"Equatorial Guinea",GQ,GNQ,Litoral,Litoral,GQ-LI,province,,54.9,,,4,Africa/Malabo,TRUE,1226284369
Nsangnam,Nsangnam,,1.4609,9.6375,"Equatorial Guinea",GQ,GNQ,Litoral,Litoral,GQ-LI,province,,54.9,,,4,Africa/Malabo,TRUE,1226413070
Nsangnam,Nsangnam,,1.0639,9.9514,"Equatorial Guinea",GQ,GNQ,Litoral,Litoral,GQ-LI,province,,54.9,,,4,Africa/Malabo,TRUE,1226818862
Ndyumengue,Ndyumengue,,1.1835,10.0957,"Equatorial Guinea",GQ,GNQ,Litoral,Litoral,GQ-LI,province,,54.9,,,4,Africa/Malabo,FALSE,1226484178
Nsangnan,Nsangnan,Nsangnam,1.1722,9.4642,"Equatorial Guinea",GQ,GNQ,Litoral,Litoral,GQ-LI,province,,54.9,,,4,Africa/Malabo,FALSE,1226427198
Mvom,Mvom,Nvom,1.8842,10.2875,"Equatorial Guinea",GQ,GNQ,"Centro Sur","Centro Sur",GQ-CS,province,,17.4,,,4,Africa/Malabo,FALSE,1226341975
Evuenam,Evuenam,Evuennam,1.4674,9.8849,"Equatorial Guinea",GQ,GNQ,Litoral,Litoral,GQ-LI,province,,54.9,,,4,Africa/Malabo,FALSE,1226163956
Malangale,Malangale,,1.5489,9.5854,"Equatorial Guinea",GQ,GNQ,Litoral,Litoral,GQ-LI,province,,54.9,,,4,Africa/Malabo,FALSE,1226586375
Adurelang,Adurelang,Adurelan,1.9681,11.2049,"Equatorial Guinea",GQ,GNQ,Kié-Ntem,Kie-Ntem,GQ-KN,province,,54.6,,,4,Africa/Malabo,FALSE,1226700340
Ecurya,Ecurya,,1.7555,9.7757,"Equatorial Guinea",GQ,GNQ,Litoral,Litoral,GQ-LI,province,,54.9,,,4,Africa/Malabo,FALSE,1226565863
Nsem,Nsem,,1.3055,10.5732,"Equatorial Guinea",GQ,GNQ,"Centro Sur","Centro Sur",GQ-CS,province,,17.4,,,4,Africa/Malabo,FALSE,1226861958
Ncomo,Ncomo,,1.5904,11.1584,"Equatorial Guinea",GQ,GNQ,Wele-Nzas,Wele-Nzas,GQ-WN,province,,34.4,,,4,Africa/Malabo,FALSE,1226462636
Añeng,Aneng,,1.0937,10.3631,"Equatorial Guinea",GQ,GNQ,"Centro Sur","Centro Sur",GQ-CS,province,,17.4,,,4,Africa/Malabo,FALSE,1226938632
Acalayong,Acalayong,Akalayong|Acalayon,1.0833,9.6667,"Equatorial Guinea",GQ,GNQ,Litoral,Litoral,GQ-LI,province,,54.9,,,3,Africa/Malabo,FALSE,1226925365
Acalayong,Acalayong,,1.4523,9.6567,"Equatorial Guinea",GQ,GNQ,Litoral,Litoral,GQ-LI,province,,54.9,,,4,Africa/Malabo,TRUE,1226734091
Oboroncu,Oboroncu,Oboronku,1.9289,11.0896,"Equatorial Guinea",GQ,GNQ,Kié-Ntem,Kie-Ntem,GQ-KN,province,,54.6,,,4,Africa/Malabo,FALSE,1226323529
Mbelobí,Mbelobi,,0.9919,9.5056,"Equatorial Guinea",GQ,GNQ,Litoral,Litoral,GQ-LI,province,,54.9,,,4,Africa/Malabo,FALSE,1226113191
Oveng,Oveng,,1.1500,10.0000,"Equatorial Guinea",GQ,GNQ,Litoral,Litoral,GQ-LI,province,,54.9,,,4,Africa/Malabo,FALSE,1226625210
Oveng,Oveng,,1.8798,9.9417,"Equatorial Guinea",GQ,GNQ,Litoral,Litoral,GQ-LI,province,,54.9,,,4,Africa/Malabo,TRUE,1226391028
Oveng,Oveng,,1.0028,9.9132,"Equatorial Guinea",GQ,GNQ,Litoral,Litoral,GQ-LI,province,,54.9,,,4,Africa/Malabo,TRUE,1226673364
Mbinda,Mbinda,,1.1501,9.5728,"Equatorial Guinea",GQ,GNQ,Litoral,Litoral,GQ-LI,province,,54.9,,,4,Africa/Malabo,FALSE,1226348667
Echam,Echam,,1.2170,9.8487,"Equatorial Guinea",GQ,GNQ,Litoral,Litoral,GQ-LI,province,,54.9,,,4,Africa/Malabo,FALSE,1226363048
Enigayong,Enigayong,,1.7418,9.7744,"Equatorial Guinea",GQ,GNQ,Litoral,Litoral,GQ-LI,province,,54.9,,,4,Africa/Malabo,FALSE,1226039993
Nomenan,Nomenan,Nomenam,1.4528,10.6026,"Equatorial Guinea",GQ,GNQ,"Centro Sur","Centro Sur",GQ-CS,province,,17.4,,,4,Africa/Malabo,FALSE,1226346324
Ebaiñ,Ebain,,1.6447,10.7462,"Equatorial Guinea",GQ,GNQ,Wele-Nzas,Wele-Nzas,GQ-WN,province,,34.4,,,4,Africa/Malabo,FALSE,1226518511
Ebaiñ,Ebain,,1.6974,11.3736,"Equatorial Guinea",GQ,GNQ,Wele-Nzas,Wele-Nzas,GQ-WN,province,,17.6,,,4,Africa/Malabo,TRUE,1226752613
Nlang,Nlang,,1.9127,10.7130,"Equatorial Guinea",GQ,GNQ,Wele-Nzas,Wele-Nzas,GQ-WN,province,,34.4,,,4,Africa/Malabo,FALSE,1226019344
Adyap,Adyap,Achap,1.8504,10.7097,"Equatorial Guinea",GQ,GNQ,Wele-Nzas,Wele-Nzas,GQ-WN,province,,34.4,,,4,Africa/Malabo,FALSE,1226192967
Adyap,Adyap,Adjap,1.5670,11.1821,"Equatorial Guinea",GQ,GNQ,Wele-Nzas,Wele-Nzas,GQ-WN,province,,34.4,,,4,Africa/Malabo,TRUE,1226867030
Adyap,Adyap,Achap,1.8187,10.6189,"Equatorial Guinea",GQ,GNQ,Wele-Nzas,Wele-Nzas,GQ-WN,province,,34.1,,,4,Africa/Malabo,TRUE,1226344070
Ncamanvi,Ncamanvi,Nlamanvi,1.4555,10.2731,"Equatorial Guinea",GQ,GNQ,"Centro Sur","Centro Sur",GQ-CS,province,,17.4,,,4,Africa/Malabo,FALSE,1226707767
Ncoasas,Ncoasas,Nko’asas,2.0709,10.3008,"Equatorial Guinea",GQ,GNQ,"Centro Sur","Centro Sur",GQ-CS,province,,17.4,,,4,Africa/Malabo,FALSE,1226308256
Yaemben,Yaemben,,2.0260,10.4401,"Equatorial Guinea",GQ,GNQ,Kié-Ntem,Kie-Ntem,GQ-KN,province,,34.5,,,4,Africa/Malabo,FALSE,1226757246
Yomosomo,Yomosomo,,2.1450,10.6304,"Equatorial Guinea",GQ,GNQ,Kié-Ntem,Kie-Ntem,GQ-KN,province,,54.6,,,4,Africa/Malabo,FALSE,1226459271
Man,Man,Mang,1.7209,10.8690,"Equatorial Guinea",GQ,GNQ,Wele-Nzas,Wele-Nzas,GQ-WN,province,,34.4,,,4,Africa/Malabo,FALSE,1226421763
Tega,Tega,,1.7860,11.0009,"Equatorial Guinea",GQ,GNQ,Kié-Ntem,Kie-Ntem,GQ-KN,province,,54.6,,,4,Africa/Malabo,FALSE,1226507187
Ncoaebeñ,Ncoaeben,,1.7518,10.1079,"Equatorial Guinea",GQ,GNQ,"Centro Sur","Centro Sur",GQ-CS,province,,17.4,,,4,Africa/Malabo,FALSE,1226417872
Ncoaebeñ,Ncoaeben,,1.9196,10.3230,"Equatorial Guinea",GQ,GNQ,"Centro Sur","Centro Sur",GQ-CS,province,,17.4,,,4,Africa/Malabo,TRUE,1226670786
Oguor,Oguor,Ouor,1.1803,10.4380,"Equatorial Guinea",GQ,GNQ,"Centro Sur","Centro Sur",GQ-CS,province,,17.4,,,4,Africa/Malabo,FALSE,1226165256
Macoga,Macoga,Makoga,1.8064,11.2488,"Equatorial Guinea",GQ,GNQ,Kié-Ntem,Kie-Ntem,GQ-KN,province,,54.6,,,4,Africa/Malabo,FALSE,1226611808
Macoga,Macoga,Makoga,1.9839,11.1672,"Equatorial Guinea",GQ,GNQ,Kié-Ntem,Kie-Ntem,GQ-KN,province,,54.6,,,4,Africa/Malabo,TRUE,1226577916
Mveng,Mveng,Nveng,1.1271,10.3595,"Equatorial Guinea",GQ,GNQ,"Centro Sur","Centro Sur",GQ-CS,province,,17.4,,,4,Africa/Malabo,FALSE,1226726434
Mveng,Mveng,,1.7177,10.1071,"Equatorial Guinea",GQ,GNQ,"Centro Sur","Centro Sur",GQ-CS,province,,17.4,,,4,Africa/Malabo,TRUE,1226445977
Elungu,Elungu,,1.5274,9.5763,"Equatorial Guinea",GQ,GNQ,Litoral,Litoral,GQ-LI,province,,54.9,,,4,Africa/Malabo,FALSE,1226478000
Ayaamvele,Ayaamvele,Aya’amvela,2.0469,10.8474,"Equatorial Guinea",GQ,GNQ,Kié-Ntem,Kie-Ntem,GQ-KN,province,,54.6,,,4,Africa/Malabo,FALSE,1226996260
Amanening,Amanening,,1.3667,10.3028,"Equatorial Guinea",GQ,GNQ,"Centro Sur","Centro Sur",GQ-CS,province,,17.4,,,4,Africa/Malabo,FALSE,1226287153
Evaa,Evaa,,2.0500,11.1167,"Equatorial Guinea",GQ,GNQ,Kié-Ntem,Kie-Ntem,GQ-KN,province,,54.6,,,4,Africa/Malabo,FALSE,1226311603
Elat,Elat,,2.0501,10.4778,"Equatorial Guinea",GQ,GNQ,Kié-Ntem,Kie-Ntem,GQ-KN,province,,54.6,,,4,Africa/Malabo,FALSE,1226513495
Nnoayong,Nnoayong,,1.8734,10.5537,"Equatorial Guinea",GQ,GNQ,"Centro Sur","Centro Sur",GQ-CS,province,,17.4,,,4,Africa/Malabo,FALSE,1226925846
Acom,Acom,,1.6140,10.6425,"Equatorial Guinea",GQ,GNQ,Wele-Nzas,Wele-Nzas,GQ-WN,province,,34.4,,,4,Africa/Malabo,FALSE,1226659740
Acom,Acom,Akom,1.9302,10.7929,"Equatorial Guinea",GQ,GNQ,Wele-Nzas,Wele-Nzas,GQ-WN,province,,34.4,,,4,Africa/Malabo,TRUE,1226931607
Elonguambane,Elonguambane,Anonguanbani|Anonguambane|Elónguambáni|Longambanay|Anonguabani|Longoambani,0.9325,9.3247,"Equatorial Guinea",GQ,GNQ,Litoral,Litoral,GQ-LI,province,,54.9,,,4,Africa/Malabo,FALSE,1226209089
Evansoc,Evansoc,Ebansok,1.9584,10.5329,"Equatorial Guinea",GQ,GNQ,Kié-Ntem,Kie-Ntem,GQ-KN,province,,54.6,,,4,Africa/Malabo,FALSE,1226956437
Meta,Meta,Mata,1.5043,10.7019,"Equatorial Guinea",GQ,GNQ,"Centro Sur","Centro Sur",GQ-CS,province,,17.4,,,4,Africa/Malabo,FALSE,1226667630
"Belebú Balachá","Belebu Balacha",,3.4021,8.5741,"Equatorial Guinea",GQ,GNQ,"Bioko Sur","Bioko Sur",GQ-BS,province,,26.8,,,4,Africa/Malabo,FALSE,1226199733
"Basacato del Este","Basacato del Este","Basakato del Este",3.6196,8.8989,"Equatorial Guinea",GQ,GNQ,"Bioko Norte","Bioko Norte",GQ-BN,province,,561.1,,,3,Africa/Malabo,FALSE,1226228626
Ecang,Ecang,,2.0155,9.8664,"Equatorial Guinea",GQ,GNQ,Litoral,Litoral,GQ-LI,province,,54.9,,,4,Africa/Malabo,FALSE,1226724868
Yengüe,Yengue,,2.2242,9.8874,"Equatorial Guinea",GQ,GNQ,Litoral,Litoral,GQ-LI,province,,48.2,,,4,Africa/Douala,FALSE,1226046473
Tono,Tono,,1.8072,9.9816,"Equatorial Guinea",GQ,GNQ,Litoral,Litoral,GQ-LI,province,,54.9,,,4,Africa/Malabo,FALSE,1226808553
Nsogmitang,Nsogmitang,,1.0230,10.8248,"Equatorial Guinea",GQ,GNQ,"Centro Sur","Centro Sur",GQ-CS,province,,17.4,,,4,Africa/Libreville,FALSE,1226630469
"Barrio Las Palmas","Barrio Las Palmas","Barrio de las Palmas",3.4433,8.5581,"Equatorial Guinea",GQ,GNQ,"Bioko Sur","Bioko Sur",GQ-BS,province,,26.8,,,4,Africa/Malabo,FALSE,1226154778
Malem,Malem,,1.9519,11.2406,"Equatorial Guinea",GQ,GNQ,Kié-Ntem,Kie-Ntem,GQ-KN,province,,54.6,,,4,Africa/Malabo,FALSE,1226627091
"San Carlos","San Carlos",,1.1562,9.4094,"Equatorial Guinea",GQ,GNQ,Litoral,Litoral,GQ-LI,province,,54.9,,,4,Africa/Malabo,FALSE,1226237476
Bigüeme,Bigueme,,2.2039,9.8530,"Equatorial Guinea",GQ,GNQ,Litoral,Litoral,GQ-LI,province,,54.9,,,4,Africa/Malabo,FALSE,1226334538
Mefeng,Mefeng,,2.1149,11.3044,"Equatorial Guinea",GQ,GNQ,Kié-Ntem,Kie-Ntem,GQ-KN,province,,54.6,,,4,Africa/Malabo,FALSE,1226529994
Ecoguong,Ecoguong,,1.6792,10.8445,"Equatorial Guinea",GQ,GNQ,Wele-Nzas,Wele-Nzas,GQ-WN,province,,34.4,,,4,Africa/Malabo,FALSE,1226473847
Ngüelensoc,Nguelensoc,,1.0237,10.0182,"Equatorial Guinea",GQ,GNQ,"Centro Sur","Centro Sur",GQ-CS,province,,17.4,,,4,Africa/Malabo,FALSE,1226888883
Mvang,Mvang,Onvang|Omvang,1.6745,11.3438,"Equatorial Guinea",GQ,GNQ,Wele-Nzas,Wele-Nzas,GQ-WN,province,,17.6,,,4,Africa/Malabo,FALSE,1226583463
Mangone,Mangone,Mangong,1.1419,9.8956,"Equatorial Guinea",GQ,GNQ,Litoral,Litoral,GQ-LI,province,,54.9,,,4,Africa/Malabo,FALSE,1226001438
Campo,Campo,,1.2372,9.8187,"Equatorial Guinea",GQ,GNQ,Litoral,Litoral,GQ-LI,province,,54.9,,,4,Africa/Malabo,FALSE,1226157259
Matondo,Matondo,,1.6868,9.6293,"Equatorial Guinea",GQ,GNQ,Litoral,Litoral,GQ-LI,province,,54.9,,,4,Africa/Malabo,FALSE,1226078660
Ngungum,Ngungum,,1.8953,10.2384,"Equatorial Guinea",GQ,GNQ,"Centro Sur","Centro Sur",GQ-CS,province,,17.4,,,4,Africa/Malabo,FALSE,1226604984
Mboman,Mboman,Mbomang,1.8333,11.3833,"Equatorial Guinea",GQ,GNQ,Kié-Ntem,Kie-Ntem,GQ-KN,province,,21.1,,,4,Africa/Malabo,FALSE,1226409935
Mocoa,Mocoa,,1.8580,9.8428,"Equatorial Guinea",GQ,GNQ,Litoral,Litoral,GQ-LI,province,,54.9,,,4,Africa/Malabo,FALSE,1226407409
Encoembe,Encoembe,,1.6456,11.3323,"Equatorial Guinea",GQ,GNQ,Wele-Nzas,Wele-Nzas,GQ-WN,province,,34.4,,,4,Africa/Malabo,FALSE,1226817377
Bindyengue,Bindyengue,,1.5174,9.5727,"Equatorial Guinea",GQ,GNQ,Litoral,Litoral,GQ-LI,province,,54.9,,,4,Africa/Malabo,FALSE,1226729043
Cang,Cang,Kang,1.2152,9.5153,"Equatorial Guinea",GQ,GNQ,Litoral,Litoral,GQ-LI,province,,54.9,,,4,Africa/Malabo,FALSE,1226939646
Bicui,Bicui,,1.8587,9.8059,"Equatorial Guinea",GQ,GNQ,Litoral,Litoral,GQ-LI,province,,54.9,,,4,Africa/Malabo,FALSE,1226810410
"Baó Pequeño","Bao Pequeno","Bahó Pequeño",3.5241,8.8253,"Equatorial Guinea",GQ,GNQ,"Bioko Sur","Bioko Sur",GQ-BS,province,,26.8,,,4,Africa/Malabo,FALSE,1226369093
Elebelaba,Elebelaba,,1.8942,10.5348,"Equatorial Guinea",GQ,GNQ,Wele-Nzas,Wele-Nzas,GQ-WN,province,,32.1,,,4,Africa/Malabo,FALSE,1226939990
Bemvong,Bemvong,,1.2752,10.4981,"Equatorial Guinea",GQ,GNQ,"Centro Sur","Centro Sur",GQ-CS,province,,17.4,,,4,Africa/Malabo,FALSE,1226744159
Mabo,Mabo,,1.9221,10.7574,"Equatorial Guinea",GQ,GNQ,Wele-Nzas,Wele-Nzas,GQ-WN,province,,34.4,,,4,Africa/Malabo,FALSE,1226588938
Ayene,Ayene,,1.6973,10.3001,"Equatorial Guinea",GQ,GNQ,"Centro Sur","Centro Sur",GQ-CS,province,,17.4,,,4,Africa/Malabo,FALSE,1226809809
Ayene,Ayene,,1.1380,10.5733,"Equatorial Guinea",GQ,GNQ,"Centro Sur","Centro Sur",GQ-CS,province,,17.4,,,4,Africa/Malabo,TRUE,1226518408
Ncomo,Ncomo,Nkomo,2.1205,10.8879,"Equatorial Guinea",GQ,GNQ,Kié-Ntem,Kie-Ntem,GQ-KN,province,,54.6,,,4,Africa/Malabo,FALSE,1226972357
Nsueeman,Nsueeman,,1.8415,9.7772,"Equatorial Guinea",GQ,GNQ,Litoral,Litoral,GQ-LI,province,,54.9,,,4,Africa/Malabo,FALSE,1226972379
Eyom,Eyom,,1.9161,10.9382,"Equatorial Guinea",GQ,GNQ,Wele-Nzas,Wele-Nzas,GQ-WN,province,,34.4,,,4,Africa/Malabo,FALSE,1226787434
Ecoc,Ecoc,Ekok,1.7788,11.2365,"Equatorial Guinea",GQ,GNQ,Kié-Ntem,Kie-Ntem,GQ-KN,province,,54.6,,,4,Africa/Malabo,FALSE,1226286609
Nguiebe,Nguiebe,Nguiep,1.7234,11.1229,"Equatorial Guinea",GQ,GNQ,Wele-Nzas,Wele-Nzas,GQ-WN,province,,34.4,,,4,Africa/Malabo,FALSE,1226110752
Abomdama,Abomdama,Abomedamo,1.9743,10.3517,"Equatorial Guinea",GQ,GNQ,"Centro Sur","Centro Sur",GQ-CS,province,,17.4,,,4,Africa/Malabo,FALSE,1226659192
Okeng,Okeng,,2.1754,11.2089,"Equatorial Guinea",GQ,GNQ,Kié-Ntem,Kie-Ntem,GQ-KN,province,,30.0,,,4,Africa/Malabo,FALSE,1226258713
Etom,Etom,,1.3183,10.8543,"Equatorial Guinea",GQ,GNQ,Wele-Nzas,Wele-Nzas,GQ-WN,province,,34.4,,,4,Africa/Malabo,FALSE,1226114095
Ocong,Ocong,Okong,1.6411,10.9695,"Equatorial Guinea",GQ,GNQ,Wele-Nzas,Wele-Nzas,GQ-WN,province,,34.4,,,4,Africa/Malabo,FALSE,1226378016
Alum,Alum,,1.2222,10.8279,"Equatorial Guinea",GQ,GNQ,"Centro Sur","Centro Sur",GQ-CS,province,,32.1,,,4,Africa/Malabo,FALSE,1226952754
Alum,Alum,,1.6783,10.3729,"Equatorial Guinea",GQ,GNQ,"Centro Sur","Centro Sur",GQ-CS,province,,17.4,,,4,Africa/Malabo,TRUE,1226553218
Alum,Alum,,1.2948,10.1834,"Equatorial Guinea",GQ,GNQ,"Centro Sur","Centro Sur",GQ-CS,province,,17.4,,,4,Africa/Malabo,TRUE,1226551781
Alum,Alum,,1.9658,10.1719,"Equatorial Guinea",GQ,GNQ,"Centro Sur","Centro Sur",GQ-CS,province,,17.4,,,4,Africa/Malabo,TRUE,1226053614
Alum,Alum,,1.4417,10.5984,"Equatorial Guinea",GQ,GNQ,"Centro Sur","Centro Sur",GQ-CS,province,,17.4,,,4,Africa/Malabo,TRUE,1226067099
Ncoenco,Ncoenco,,2.0977,10.5282,"Equatorial Guinea",GQ,GNQ,Kié-Ntem,Kie-Ntem,GQ-KN,province,,54.6,,,4,Africa/Malabo,FALSE,1226378051
Elon,Elon,,1.0000,10.0000,"Equatorial Guinea",GQ,GNQ,Litoral,Litoral,GQ-LI,province,,17.4,,,4,Africa/Malabo,FALSE,1226960882
Mindyimasia,Mindyimasia,,1.3002,10.4591,"Equatorial Guinea",GQ,GNQ,"Centro Sur","Centro Sur",GQ-CS,province,,17.4,,,4,Africa/Malabo,FALSE,1226784771
Eboafan,Eboafan,,1.3663,10.5789,"Equatorial Guinea",GQ,GNQ,"Centro Sur","Centro Sur",GQ-CS,province,,17.4,,,4,Africa/Malabo,FALSE,1226124592
Maule,Maule,,3.4186,8.7198,"Equatorial Guinea",GQ,GNQ,"Bioko Sur","Bioko Sur",GQ-BS,province,,26.8,,,4,Africa/Malabo,FALSE,1226286133
Asoc,Asoc,Asok,1.7568,10.6100,"Equatorial Guinea",GQ,GNQ,Wele-Nzas,Wele-Nzas,GQ-WN,province,,34.4,,,4,Africa/Malabo,FALSE,1226867102
Asoc,Asoc,Esongasi|Esongsi,1.5937,11.2359,"Equatorial Guinea",GQ,GNQ,Wele-Nzas,Wele-Nzas,GQ-WN,province,,34.4,,,4,Africa/Malabo,TRUE,1226037376
Asoc,Asoc,Asok,1.4697,11.3090,"Equatorial Guinea",GQ,GNQ,Wele-Nzas,Wele-Nzas,GQ-WN,province,,34.4,,,4,Africa/Malabo,TRUE,1226498447
Bigumo,Bigumo,,1.3987,11.0271,"Equatorial Guinea",GQ,GNQ,Wele-Nzas,Wele-Nzas,GQ-WN,province,,34.4,,,4,Africa/Malabo,FALSE,1226936594
Alep,Alep,,1.8494,10.0577,"Equatorial Guinea",GQ,GNQ,Litoral,Litoral,GQ-LI,province,,54.9,,,4,Africa/Malabo,FALSE,1226427895
Alep,Alep,,2.1116,9.8587,"Equatorial Guinea",GQ,GNQ,Litoral,Litoral,GQ-LI,province,,54.9,,,4,Africa/Malabo,TRUE,1226957686
Evoaryulu,Evoaryulu,Evoredulu,1.4531,9.9297,"Equatorial Guinea",GQ,GNQ,Litoral,Litoral,GQ-LI,province,,54.9,,,4,Africa/Malabo,FALSE,1226649071
Evoaryulu,Evoaryulu,,1.7272,9.8819,"Equatorial Guinea",GQ,GNQ,Litoral,Litoral,GQ-LI,province,,54.9,,,4,Africa/Malabo,TRUE,1226044862
Mabono,Mabono,,1.4427,10.5981,"Equatorial Guinea",GQ,GNQ,"Centro Sur","Centro Sur",GQ-CS,province,,17.4,,,4,Africa/Malabo,FALSE,1226154758
Boemeriba,Boemeriba,Bohemeriba|Buemeriba,3.4191,8.5816,"Equatorial Guinea",GQ,GNQ,"Bioko Sur","Bioko Sur",GQ-BS,province,,26.8,,,4,Africa/Malabo,FALSE,1226392348
Biok,Biok,,1.9667,11.2333,"Equatorial Guinea",GQ,GNQ,Kié-Ntem,Kie-Ntem,GQ-KN,province,,54.6,,,4,Africa/Malabo,FALSE,1226527159
Ncoesi,Ncoesi,Nko’esi,1.5350,9.6268,"Equatorial Guinea",GQ,GNQ,Litoral,Litoral,GQ-LI,province,,54.9,,,4,Africa/Malabo,FALSE,1226685341
Mavo,Mavo,,1.1323,9.7993,"Equatorial Guinea",GQ,GNQ,Litoral,Litoral,GQ-LI,province,,54.9,,,4,Africa/Malabo,FALSE,1226787217
Mavo,Mavo,,1.2268,9.8438,"Equatorial Guinea",GQ,GNQ,Litoral,Litoral,GQ-LI,province,,54.9,,,4,Africa/Malabo,TRUE,1226275661
Binguengueng,Binguengueng,,1.7952,10.6634,"Equatorial Guinea",GQ,GNQ,Wele-Nzas,Wele-Nzas,GQ-WN,province,,34.4,,,4,Africa/Malabo,FALSE,1226733716
Nguanden,Nguanden,,1.8333,11.1944,"Equatorial Guinea",GQ,GNQ,Kié-Ntem,Kie-Ntem,GQ-KN,province,,54.6,,,4,Africa/Malabo,FALSE,1226971396
Ngonekié,Ngonekie,Ngomekie,1.0054,10.0785,"Equatorial Guinea",GQ,GNQ,"Centro Sur","Centro Sur",GQ-CS,province,,17.4,,,4,Africa/Malabo,FALSE,1226250405
Echam,Echam,,2.1388,10.7496,"Equatorial Guinea",GQ,GNQ,Kié-Ntem,Kie-Ntem,GQ-KN,province,,54.6,,,4,Africa/Malabo,FALSE,1226240285
Mabumuom,Mabumuom,,1.4370,9.9721,"Equatorial Guinea",GQ,GNQ,Litoral,Litoral,GQ-LI,province,,54.9,,,4,Africa/Malabo,FALSE,1226706557
Misere,Misere,,1.3043,10.8042,"Equatorial Guinea",GQ,GNQ,Wele-Nzas,Wele-Nzas,GQ-WN,province,,34.4,,,4,Africa/Malabo,FALSE,1226801632
Acoaesakira,Acoaesakira,Acoesakira|Akosakira,1.1090,11.2575,"Equatorial Guinea",GQ,GNQ,Wele-Nzas,Wele-Nzas,GQ-WN,province,,34.4,,,4,Africa/Malabo,FALSE,1226911709
Afaanam,Afaanam,Afa’annam,1.3277,10.9811,"Equatorial Guinea",GQ,GNQ,Wele-Nzas,Wele-Nzas,GQ-WN,province,,34.4,,,4,Africa/Malabo,FALSE,1226294475
Bibe,Bibe,,2.0891,10.3461,"Equatorial Guinea",GQ,GNQ,"Centro Sur","Centro Sur",GQ-CS,province,,17.4,,,4,Africa/Malabo,FALSE,1226190748
Bibe,Bibe,,2.0353,10.3864,"Equatorial Guinea",GQ,GNQ,"Centro Sur","Centro Sur",GQ-CS,province,,17.4,,,4,Africa/Malabo,TRUE,1226413557
Basuala,Basuala,"Basuala Misión",3.6415,8.9184,"Equatorial Guinea",GQ,GNQ,"Bioko Norte","Bioko Norte",GQ-BN,province,,561.1,,,3,Africa/Malabo,FALSE,1226274458
Macoc,Macoc,Mokok,1.8352,10.7497,"Equatorial Guinea",GQ,GNQ,Wele-Nzas,Wele-Nzas,GQ-WN,province,,34.4,,,4,Africa/Malabo,FALSE,1226079991
Metolo,Metolo,,0.8950,9.3189,"Equatorial Guinea",GQ,GNQ,Litoral,Litoral,GQ-LI,province,,54.9,,,4,Africa/Malabo,FALSE,1226120795
Icondo,Icondo,,1.7165,11.3739,"Equatorial Guinea",GQ,GNQ,Wele-Nzas,Wele-Nzas,GQ-WN,province,,17.6,,,4,Africa/Malabo,FALSE,1226109995
Nomenan,Nomenan,,1.7079,9.9374,"Equatorial Guinea",GQ,GNQ,Litoral,Litoral,GQ-LI,province,,54.9,,,4,Africa/Malabo,FALSE,1226589561
Etogo,Etogo,,1.1878,9.6750,"Equatorial Guinea",GQ,GNQ,Litoral,Litoral,GQ-LI,province,,54.9,,,4,Africa/Malabo,FALSE,1226035825
Nbona,Nbona,,2.0796,10.4172,"Equatorial Guinea",GQ,GNQ,"Centro Sur","Centro Sur",GQ-CS,province,,54.5,,,4,Africa/Malabo,FALSE,1226755731
Nbona,Nbona,,1.8123,10.5394,"Equatorial Guinea",GQ,GNQ,"Centro Sur","Centro Sur",GQ-CS,province,,17.4,,,4,Africa/Malabo,TRUE,1226474255
Acalayong,Acalayong,Akalayong,1.4293,10.4224,"Equatorial Guinea",GQ,GNQ,"Centro Sur","Centro Sur",GQ-CS,province,,17.4,,,4,Africa/Malabo,FALSE,1226008085
Acalayong,Acalayong,,1.2088,10.5980,"Equatorial Guinea",GQ,GNQ,"Centro Sur","Centro Sur",GQ-CS,province,,17.4,,,4,Africa/Malabo,TRUE,1226936426
Maconanam,Maconanam,Makonanam|Makananam,1.9150,10.7382,"Equatorial Guinea",GQ,GNQ,Wele-Nzas,Wele-Nzas,GQ-WN,province,,34.4,,,4,Africa/Malabo,FALSE,1226956581
Miang,Miang,,1.2225,10.0184,"Equatorial Guinea",GQ,GNQ,Litoral,Litoral,GQ-LI,province,,54.9,,,4,Africa/Malabo,FALSE,1226076370
Miang,Miang,,1.7275,10.0152,"Equatorial Guinea",GQ,GNQ,Litoral,Litoral,GQ-LI,province,,54.9,,,4,Africa/Malabo,TRUE,1226882770
Matadiaté,Matadiate,Matandiate,1.8333,9.7500,"Equatorial Guinea",GQ,GNQ,Litoral,Litoral,GQ-LI,province,,54.9,,,4,Africa/Malabo,FALSE,1226888627
Leng,Leng,,1.5095,10.6410,"Equatorial Guinea",GQ,GNQ,"Centro Sur","Centro Sur",GQ-CS,province,,17.4,,,4,Africa/Malabo,FALSE,1226486036
Mocuu,Mocuu,,2.1355,10.0148,"Equatorial Guinea",GQ,GNQ,Litoral,Litoral,GQ-LI,province,,54.9,,,4,Africa/Malabo,FALSE,1226277251
Dama,Dama,,1.8775,9.8483,"Equatorial Guinea",GQ,GNQ,Litoral,Litoral,GQ-LI,province,,54.9,,,4,Africa/Malabo,FALSE,1226878060
Dipicar,Dipicar,,2.2319,9.8915,"Equatorial Guinea",GQ,GNQ,Litoral,Litoral,GQ-LI,province,,31.1,,,4,Africa/Douala,FALSE,1226277558
Osonengo,Osonengo,Osomongo|Osonongo,1.2616,9.5702,"Equatorial Guinea",GQ,GNQ,Litoral,Litoral,GQ-LI,province,,54.9,,,4,Africa/Malabo,FALSE,1226011106
Tom,Tom,,1.9252,10.5265,"Equatorial Guinea",GQ,GNQ,Kié-Ntem,Kie-Ntem,GQ-KN,province,,54.6,,,4,Africa/Malabo,FALSE,1226494458
Bilortó,Bilorto,,1.8661,9.7970,"Equatorial Guinea",GQ,GNQ,Litoral,Litoral,GQ-LI,province,,54.9,,,4,Africa/Malabo,FALSE,1226816262
"San Carlos","San Carlos",,2.0594,10.6152,"Equatorial Guinea",GQ,GNQ,Kié-Ntem,Kie-Ntem,GQ-KN,province,,54.6,,,4,Africa/Malabo,FALSE,1226740292
"San Carlos","San Carlos",,2.1074,10.7511,"Equatorial Guinea",GQ,GNQ,Kié-Ntem,Kie-Ntem,GQ-KN,province,,54.6,,,4,Africa/Malabo,TRUE,1226559083
"San Carlos","San Carlos",,1.9318,10.5249,"Equatorial Guinea",GQ,GNQ,Kié-Ntem,Kie-Ntem,GQ-KN,province,,43.9,,,4,Africa/Malabo,TRUE,1226022844
Bibono,Bibono,,1.4691,9.6333,"Equatorial Guinea",GQ,GNQ,Litoral,Litoral,GQ-LI,province,,54.9,,,4,Africa/Malabo,FALSE,1226537808
Eñeng,Eneng,,1.9393,10.4734,"Equatorial Guinea",GQ,GNQ,Kié-Ntem,Kie-Ntem,GQ-KN,province,,54.6,,,4,Africa/Malabo,FALSE,1226090346
Nveng,Nveng,,1.6014,10.6450,"Equatorial Guinea",GQ,GNQ,Wele-Nzas,Wele-Nzas,GQ-WN,province,,34.4,,,4,Africa/Malabo,FALSE,1226543271
Ruiché,Ruiche,Buchica|Ruicha,3.4107,8.5499,"Equatorial Guinea",GQ,GNQ,"Bioko Sur","Bioko Sur",GQ-BS,province,,26.8,,,4,Africa/Malabo,FALSE,1226781264
Señe,Sene,,2.0401,11.1356,"Equatorial Guinea",GQ,GNQ,Kié-Ntem,Kie-Ntem,GQ-KN,province,,54.6,,,4,Africa/Malabo,FALSE,1226333612
Tubana,Tubana,,1.7000,9.6532,"Equatorial Guinea",GQ,GNQ,Litoral,Litoral,GQ-LI,province,,54.9,,,4,Africa/Malabo,FALSE,1226465229
Mefo,Mefo,Mafo,1.3865,10.4563,"Equatorial Guinea",GQ,GNQ,"Centro Sur","Centro Sur",GQ-CS,province,,17.4,,,4,Africa/Malabo,FALSE,1226001668
Bilene,Bilene,,1.5730,10.0884,"Equatorial Guinea",GQ,GNQ,"Centro Sur","Centro Sur",GQ-CS,province,,17.4,,,4,Africa/Malabo,FALSE,1226081745
Binguru,Binguru,,1.5024,9.8045,"Equatorial Guinea",GQ,GNQ,Litoral,Litoral,GQ-LI,province,,54.9,,,4,Africa/Malabo,FALSE,1226389340
Menang,Menang,,2.1586,11.2908,"Equatorial Guinea",GQ,GNQ,Kié-Ntem,Kie-Ntem,GQ-KN,province,,54.6,,,4,Africa/Malabo,FALSE,1226330729
Abumbem,Abumbem,,1.8849,10.3449,"Equatorial Guinea",GQ,GNQ,"Centro Sur","Centro Sur",GQ-CS,province,,17.4,,,4,Africa/Malabo,FALSE,1226784934
Ndyengayong,Ndyengayong,,1.6809,10.3023,"Equatorial Guinea",GQ,GNQ,"Centro Sur","Centro Sur",GQ-CS,province,,17.4,,,4,Africa/Malabo,FALSE,1226615022
Ndyengayong,Ndyengayong,,1.4680,10.6095,"Equatorial Guinea",GQ,GNQ,"Centro Sur","Centro Sur",GQ-CS,province,,17.4,,,4,Africa/Malabo,TRUE,1226135649
Eyamoyong,Eyamoyong,Eyamayon|Eyamayong,1.2253,10.5820,"Equatorial Guinea",GQ,GNQ,"Centro Sur","Centro Sur",GQ-CS,province,,17.4,,,4,Africa/Malabo,FALSE,1226556029
Mebaiñ,Mebain,Ebaiñ,1.5168,10.5883,"Equatorial Guinea",GQ,GNQ,"Centro Sur","Centro Sur",GQ-CS,province,,17.4,,,4,Africa/Malabo,FALSE,1226812960
Manyanga,Manyanga,,1.6203,9.7164,"Equatorial Guinea",GQ,GNQ,Litoral,Litoral,GQ-LI,province,,54.9,,,4,Africa/Malabo,FALSE,1226258133
Ntu,Ntu,,1.8733,11.3699,"Equatorial Guinea",GQ,GNQ,Kié-Ntem,Kie-Ntem,GQ-KN,province,,32.0,,,4,Africa/Malabo,FALSE,1226406685
Betimbe,Betimbe,Bedimbe,1.1252,9.4500,"Equatorial Guinea",GQ,GNQ,Litoral,Litoral,GQ-LI,province,,54.9,,,4,Africa/Malabo,FALSE,1226275260
Mengui,Mengui,,2.1074,11.3049,"Equatorial Guinea",GQ,GNQ,Kié-Ntem,Kie-Ntem,GQ-KN,province,,54.6,,,4,Africa/Malabo,FALSE,1226387380
Afansoc,Afansoc,Afa‘ansok-Esong,1.8548,10.6017,"Equatorial Guinea",GQ,GNQ,Wele-Nzas,Wele-Nzas,GQ-WN,province,,34.4,,,4,Africa/Malabo,FALSE,1226074458
Nsogoboot,Nsogoboot,Nsogobot,2.1569,10.8005,"Equatorial Guinea",GQ,GNQ,Kié-Ntem,Kie-Ntem,GQ-KN,province,,54.6,,,4,Africa/Malabo,FALSE,1226781614
Amvamg,Amvamg,,1.7582,10.4860,"Equatorial Guinea",GQ,GNQ,"Centro Sur","Centro Sur",GQ-CS,province,,17.4,,,4,Africa/Malabo,FALSE,1226992779
Mebametan,Mebametan,,1.3195,10.1978,"Equatorial Guinea",GQ,GNQ,"Centro Sur","Centro Sur",GQ-CS,province,,17.4,,,4,Africa/Malabo,FALSE,1226918581
España,Espana,,1.0327,9.9377,"Equatorial Guinea",GQ,GNQ,Litoral,Litoral,GQ-LI,province,,54.9,,,4,Africa/Malabo,FALSE,1226723026
Mibam,Mibam,Mibang|Miban,1.7224,10.9442,"Equatorial Guinea",GQ,GNQ,Wele-Nzas,Wele-Nzas,GQ-WN,province,,34.4,,,4,Africa/Malabo,FALSE,1226525394
Tec,Tec,Tek,0.9667,10.0000,"Equatorial Guinea",GQ,GNQ,Litoral,Litoral,GQ-LI,province,,2.5,,,5,Africa/Libreville,FALSE,1226876771
Bingacue,Bingacue,Bingakue,1.4142,9.6499,"Equatorial Guinea",GQ,GNQ,Litoral,Litoral,GQ-LI,province,,54.9,,,4,Africa/Malabo,FALSE,1226706928
Bisobinam,Bisobinam,,1.0714,10.7439,"Equatorial Guinea",GQ,GNQ,"Centro Sur","Centro Sur",GQ-CS,province,,17.4,,,4,Africa/Malabo,FALSE,1226290678
Bisobinam,Bisobinam,,1.3642,10.7100,"Equatorial Guinea",GQ,GNQ,"Centro Sur","Centro Sur",GQ-CS,province,,17.4,,,4,Africa/Malabo,TRUE,1226077764
Bisobinam,Bisobinam,,1.3789,10.5816,"Equatorial Guinea",GQ,GNQ,"Centro Sur","Centro Sur",GQ-CS,province,,17.4,,,4,Africa/Malabo,TRUE,1226974781
Bisobinam,Bisobinam,,1.7328,10.4410,"Equatorial Guinea",GQ,GNQ,"Centro Sur","Centro Sur",GQ-CS,province,,17.4,,,4,Africa/Malabo,TRUE,1226878371
Bisobinam,Bisobinam,,1.0189,10.0082,"Equatorial Guinea",GQ,GNQ,"Centro Sur","Centro Sur",GQ-CS,province,,17.4,,,4,Africa/Malabo,TRUE,1226299209
Bisobinam,Bisobinam,,1.4482,10.5281,"Equatorial Guinea",GQ,GNQ,"Centro Sur","Centro Sur",GQ-CS,province,,17.4,,,4,Africa/Malabo,TRUE,1226644381
Acoc,Acoc,Akok,1.8211,10.7118,"Equatorial Guinea",GQ,GNQ,Wele-Nzas,Wele-Nzas,GQ-WN,province,,34.4,,,4,Africa/Malabo,FALSE,1226842588
Ayaelon,Ayaelon,Ayabilon,1.7987,11.3922,"Equatorial Guinea",GQ,GNQ,Kié-Ntem,Kie-Ntem,GQ-KN,province,,17.6,,,4,Africa/Libreville,FALSE,1226611233
Ebamoyong,Ebamoyong,Ebamayong,1.1011,10.3813,"Equatorial Guinea",GQ,GNQ,"Centro Sur","Centro Sur",GQ-CS,province,,17.4,,,4,Africa/Malabo,FALSE,1226392900
Endendem,Endendem,Endemdem,1.8138,9.8223,"Equatorial Guinea",GQ,GNQ,Litoral,Litoral,GQ-LI,province,,54.9,,,4,Africa/Malabo,FALSE,1226285055
Akinebitom,Akinebitom,,1.9034,10.7167,"Equatorial Guinea",GQ,GNQ,Wele-Nzas,Wele-Nzas,GQ-WN,province,,34.4,,,4,Africa/Malabo,FALSE,1226070429
Abiara,Abiara,,1.3354,10.9911,"Equatorial Guinea",GQ,GNQ,Wele-Nzas,Wele-Nzas,GQ-WN,province,,34.4,,,4,Africa/Malabo,FALSE,1226435856
Cnesis,Cnesis,,1.6886,11.0700,"Equatorial Guinea",GQ,GNQ,Wele-Nzas,Wele-Nzas,GQ-WN,province,,34.4,,,4,Africa/Malabo,FALSE,1226421445
Behopue,Behopue,,0.9154,9.3056,"Equatorial Guinea",GQ,GNQ,Litoral,Litoral,GQ-LI,province,,54.9,,,4,Africa/Malabo,FALSE,1226770896
Asocndoba,Asocndoba,Asokdoba,1.2729,10.4654,"Equatorial Guinea",GQ,GNQ,"Centro Sur","Centro Sur",GQ-CS,province,,17.4,,,4,Africa/Malabo,FALSE,1226355792
Encoengoon,Encoengoon,,1.6312,10.9607,"Equatorial Guinea",GQ,GNQ,Wele-Nzas,Wele-Nzas,GQ-WN,province,,34.4,,,4,Africa/Malabo,FALSE,1226903555
Maseng,Maseng,Masseng|Meseng,1.9070,10.6991,"Equatorial Guinea",GQ,GNQ,Wele-Nzas,Wele-Nzas,GQ-WN,province,,34.4,,,4,Africa/Malabo,FALSE,1226109801
Maseng,Maseng,,1.5767,11.2926,"Equatorial Guinea",GQ,GNQ,Wele-Nzas,Wele-Nzas,GQ-WN,province,,34.4,,,4,Africa/Malabo,TRUE,1226152939
Maseng,Maseng,Maseng-Nsamikan,1.8785,10.5574,"Equatorial Guinea",GQ,GNQ,Wele-Nzas,Wele-Nzas,GQ-WN,province,,26.9,,,4,Africa/Malabo,TRUE,1226632297
Mvongo,Mvongo,Nvongo,1.9534,10.6284,"Equatorial Guinea",GQ,GNQ,Wele-Nzas,Wele-Nzas,GQ-WN,province,,34.4,,,4,Africa/Malabo,FALSE,1226656803
Luango,Luango,,1.6958,9.6411,"Equatorial Guinea",GQ,GNQ,Litoral,Litoral,GQ-LI,province,,54.9,,,4,Africa/Malabo,FALSE,1226505273
Kinanongo,Kinanongo,,1.7833,9.6167,"Equatorial Guinea",GQ,GNQ,Litoral,Litoral,GQ-LI,province,,0,,,5,Africa/Malabo,FALSE,1226605102
Ayeme,Ayeme,,0.9962,10.2824,"Equatorial Guinea",GQ,GNQ,"Centro Sur","Centro Sur",GQ-CS,province,,6.5,,,5,Africa/Libreville,FALSE,1226027073
Bicaba,Bicaba,Bikaba,1.5925,9.6926,"Equatorial Guinea",GQ,GNQ,Litoral,Litoral,GQ-LI,province,,54.9,,,4,Africa/Malabo,FALSE,1226468675
Bonobono,Bonobono,,1.2357,9.6243,"Equatorial Guinea",GQ,GNQ,Litoral,Litoral,GQ-LI,province,,54.9,,,4,Africa/Malabo,FALSE,1226055652
Afanengui,Afanengui,Afanangui,2.1470,10.9488,"Equatorial Guinea",GQ,GNQ,Kié-Ntem,Kie-Ntem,GQ-KN,province,,54.6,,,4,Africa/Malabo,FALSE,1226860863
"Baloeri de Cristo Rey","Baloeri de Cristo Rey",,3.6722,8.6367,"Equatorial Guinea",GQ,GNQ,"Bioko Norte","Bioko Norte",GQ-BN,province,,561.1,,,3,Africa/Malabo,FALSE,1226502939
Ndangueng,Ndangueng,Ndonguen|Ndanguen,2.0333,10.5709,"Equatorial Guinea",GQ,GNQ,Kié-Ntem,Kie-Ntem,GQ-KN,province,,54.6,,,4,Africa/Malabo,FALSE,1226735804
Ndangueng,Ndangueng,,1.8288,11.3631,"Equatorial Guinea",GQ,GNQ,Kié-Ntem,Kie-Ntem,GQ-KN,province,,21.1,,,4,Africa/Malabo,TRUE,1226436471
Mbominang,Mbominang,,1.9428,10.7321,"Equatorial Guinea",GQ,GNQ,Wele-Nzas,Wele-Nzas,GQ-WN,province,,34.4,,,4,Africa/Malabo,FALSE,1226992613
Ñiasang,Niasang,,2.0690,10.9207,"Equatorial Guinea",GQ,GNQ,Kié-Ntem,Kie-Ntem,GQ-KN,province,,54.6,,,4,Africa/Malabo,FALSE,1226994980
Motuin,Motuin,,1.9685,10.2809,"Equatorial Guinea",GQ,GNQ,"Centro Sur","Centro Sur",GQ-CS,province,,17.4,,,4,Africa/Malabo,FALSE,1226242821
Eoco,Eoco,Ehoko,3.3178,8.7414,"Equatorial Guinea",GQ,GNQ,"Bioko Sur","Bioko Sur",GQ-BS,province,,26.8,,,4,Africa/Malabo,FALSE,1226274700
Fublia,Fublia,,1.8413,10.1334,"Equatorial Guinea",GQ,GNQ,"Centro Sur","Centro Sur",GQ-CS,province,,17.4,,,4,Africa/Malabo,FALSE,1226361569
Evoaryulu,Evoaryulu,,1.0418,10.9488,"Equatorial Guinea",GQ,GNQ,"Centro Sur","Centro Sur",GQ-CS,province,,28.0,,,4,Africa/Malabo,FALSE,1226990400
Bemvong,Bemvong,,1.1821,9.4049,"Equatorial Guinea",GQ,GNQ,Litoral,Litoral,GQ-LI,province,,54.9,,,4,Africa/Malabo,FALSE,1226487223
Elonsam,Elonsam,,1.3721,10.6598,"Equatorial Guinea",GQ,GNQ,"Centro Sur","Centro Sur",GQ-CS,province,,17.4,,,4,Africa/Malabo,FALSE,1226162592
Ndyomso,Ndyomso,,1.4057,10.9057,"Equatorial Guinea",GQ,GNQ,Wele-Nzas,Wele-Nzas,GQ-WN,province,,34.4,,,4,Africa/Malabo,FALSE,1226890110
Upaca,Upaca,,0.8953,9.3157,"Equatorial Guinea",GQ,GNQ,Litoral,Litoral,GQ-LI,province,,54.9,,,4,Africa/Malabo,FALSE,1226721909
Mfurencoc,Mfurencoc,,1.3554,10.5519,"Equatorial Guinea",GQ,GNQ,"Centro Sur","Centro Sur",GQ-CS,province,,17.4,,,4,Africa/Malabo,FALSE,1226197517
Nsung,Nsung,,1.7933,10.9020,"Equatorial Guinea",GQ,GNQ,Wele-Nzas,Wele-Nzas,GQ-WN,province,,34.4,,,4,Africa/Malabo,FALSE,1226793364
Mindyimitom,Mindyimitom,Michimitom,1.8617,10.0457,"Equatorial Guinea",GQ,GNQ,Litoral,Litoral,GQ-LI,province,,54.9,,,4,Africa/Malabo,FALSE,1226797315
"San Carlos","San Carlos",,1.6829,11.3484,"Equatorial Guinea",GQ,GNQ,Wele-Nzas,Wele-Nzas,GQ-WN,province,,17.6,,,4,Africa/Malabo,FALSE,1226250553
Olenam,Olenam,,1.5118,11.0900,"Equatorial Guinea",GQ,GNQ,Wele-Nzas,Wele-Nzas,GQ-WN,province,,34.4,,,4,Africa/Malabo,FALSE,1226693631
Bidogo,Bidogo,,1.1018,10.1340,"Equatorial Guinea",GQ,GNQ,Litoral,Litoral,GQ-LI,province,,54.9,,,4,Africa/Malabo,FALSE,1226304003
Avelenam,Avelenam,Abenelam,1.1292,9.9539,"Equatorial Guinea",GQ,GNQ,Litoral,Litoral,GQ-LI,province,,54.9,,,4,Africa/Malabo,FALSE,1226623797
Abang,Abang,,1.9813,11.1323,"Equatorial Guinea",GQ,GNQ,Kié-Ntem,Kie-Ntem,GQ-KN,province,,54.6,,,4,Africa/Malabo,FALSE,1226084223
Abang,Abang,,1.9078,11.1697,"Equatorial Guinea",GQ,GNQ,Kié-Ntem,Kie-Ntem,GQ-KN,province,,54.6,,,4,Africa/Malabo,TRUE,1226549148
Abang,Abang,,1.8673,11.1323,"Equatorial Guinea",GQ,GNQ,Kié-Ntem,Kie-Ntem,GQ-KN,province,,54.6,,,4,Africa/Malabo,TRUE,1226335531
Abang,Abang,,1.9740,10.9936,"Equatorial Guinea",GQ,GNQ,Kié-Ntem,Kie-Ntem,GQ-KN,province,,54.6,,,4,Africa/Malabo,TRUE,1226240832
Abang,Abang,,2.1677,11.1580,"Equatorial Guinea",GQ,GNQ,Kié-Ntem,Kie-Ntem,GQ-KN,province,,53.2,,,4,Africa/Malabo,TRUE,1226996906
Abang,Abang,,2.1481,11.3354,"Equatorial Guinea",GQ,GNQ,Kié-Ntem,Kie-Ntem,GQ-KN,province,,32.3,,,4,Africa/Malabo,TRUE,1226995212
Macoete,Macoete,,1.1023,10.3916,"Equatorial Guinea",GQ,GNQ,"Centro Sur","Centro Sur",GQ-CS,province,,17.4,,,4,Africa/Malabo,FALSE,1226571414
Sácriba,Sacriba,Shack-River,3.7093,8.7116,"Equatorial Guinea",GQ,GNQ,"Bioko Norte","Bioko Norte",GQ-BN,province,,561.1,,,3,Africa/Malabo,FALSE,1226045783
Madyamebe,Madyamebe,,1.4220,9.6362,"Equatorial Guinea",GQ,GNQ,Litoral,Litoral,GQ-LI,province,,54.9,,,4,Africa/Malabo,FALSE,1226525474
Madyamebé,Madyamebe,Macha’mabe,1.1314,9.7737,"Equatorial Guinea",GQ,GNQ,Litoral,Litoral,GQ-LI,province,,54.9,,,4,Africa/Malabo,TRUE,1226979732
Ngüema,Nguema,,1.7833,11.3167,"Equatorial Guinea",GQ,GNQ,Kié-Ntem,Kie-Ntem,GQ-KN,province,,54.6,,,4,Africa/Malabo,FALSE,1226870495
Anungom,Anungom,Anungon,1.8204,11.3972,"Equatorial Guinea",GQ,GNQ,Kié-Ntem,Kie-Ntem,GQ-KN,province,,17.6,,,4,Africa/Malabo,FALSE,1226140176
Mbubuin,Mbubuin,,2.0036,9.9130,"Equatorial Guinea",GQ,GNQ,Litoral,Litoral,GQ-LI,province,,54.9,,,4,Africa/Malabo,FALSE,1226435134
Achap,Achap,Adyap,1.9000,11.3500,"Equatorial Guinea",GQ,GNQ,Kié-Ntem,Kie-Ntem,GQ-KN,province,,32.0,,,4,Africa/Malabo,FALSE,1226958781
Akora,Akora,,1.8500,9.9000,"Equatorial Guinea",GQ,GNQ,Litoral,Litoral,GQ-LI,province,,54.9,,,4,Africa/Malabo,FALSE,1226998378
Ecog,Ecog,,1.3147,11.0485,"Equatorial Guinea",GQ,GNQ,Wele-Nzas,Wele-Nzas,GQ-WN,province,,34.4,,,4,Africa/Malabo,FALSE,1226088070
Esam,Esam,,1.5710,11.1756,"Equatorial Guinea",GQ,GNQ,Wele-Nzas,Wele-Nzas,GQ-WN,province,,34.4,,,4,Africa/Malabo,FALSE,1226099058
Bama,Bama,,1.8065,9.8513,"Equatorial Guinea",GQ,GNQ,Litoral,Litoral,GQ-LI,province,,54.9,,,4,Africa/Malabo,FALSE,1226837210
Ndumnco,Ndumnco,Ndomenko,1.8531,10.2587,"Equatorial Guinea",GQ,GNQ,"Centro Sur","Centro Sur",GQ-CS,province,,17.4,,,4,Africa/Malabo,FALSE,1226395739
Ncalayong,Ncalayong,Nkalayong,1.8448,10.6037,"Equatorial Guinea",GQ,GNQ,Wele-Nzas,Wele-Nzas,GQ-WN,province,,26.6,,,4,Africa/Malabo,FALSE,1226277067
Nguotnsoc,Nguotnsoc,,1.4674,9.8543,"Equatorial Guinea",GQ,GNQ,Litoral,Litoral,GQ-LI,province,,54.9,,,4,Africa/Malabo,FALSE,1226644212
Mbeayop,Mbeayop,Mbayop,1.6565,11.3381,"Equatorial Guinea",GQ,GNQ,Wele-Nzas,Wele-Nzas,GQ-WN,province,,19.7,,,4,Africa/Libreville,FALSE,1226800590
Ononobere,Ononobere,Ononebele,1.0298,10.0255,"Equatorial Guinea",GQ,GNQ,"Centro Sur","Centro Sur",GQ-CS,province,,17.4,,,4,Africa/Malabo,FALSE,1226596804
Acanabor,Acanabor,Akanabor,1.6742,10.3580,"Equatorial Guinea",GQ,GNQ,"Centro Sur","Centro Sur",GQ-CS,province,,17.4,,,4,Africa/Malabo,FALSE,1226112482
Acanabor,Acanabor,Oguede|Akanabor-Ogude|Akanabor,1.0403,10.0519,"Equatorial Guinea",GQ,GNQ,"Centro Sur","Centro Sur",GQ-CS,province,,17.4,,,4,Africa/Malabo,TRUE,1226662427
Acanabor,Acanabor,Akanabor,1.0472,10.9187,"Equatorial Guinea",GQ,GNQ,"Centro Sur","Centro Sur",GQ-CS,province,,17.4,,,4,Africa/Malabo,TRUE,1226640924
Acanabor,Acanabor,,1.0527,10.6287,"Equatorial Guinea",GQ,GNQ,"Centro Sur","Centro Sur",GQ-CS,province,,17.4,,,4,Africa/Malabo,TRUE,1226370276
Acanabor,Acanabor,,0.9973,10.0837,"Equatorial Guinea",GQ,GNQ,"Centro Sur","Centro Sur",GQ-CS,province,,6.6,,,5,Africa/Libreville,TRUE,1226936081
Efule,Efule,Efulan,1.0873,9.5684,"Equatorial Guinea",GQ,GNQ,Litoral,Litoral,GQ-LI,province,,54.9,,,4,Africa/Malabo,FALSE,1226422112
Manchine,Manchine,,1.6299,10.7679,"Equatorial Guinea",GQ,GNQ,Wele-Nzas,Wele-Nzas,GQ-WN,province,,34.4,,,4,Africa/Malabo,FALSE,1226301444
"Ebcua Meyene","Ebcua Meyene",,1.1911,10.5242,"Equatorial Guinea",GQ,GNQ,"Centro Sur","Centro Sur",GQ-CS,province,,17.4,,,4,Africa/Malabo,FALSE,1226151396
Emvemvé,Emvemve,Enbembe,1.0519,10.2461,"Equatorial Guinea",GQ,GNQ,"Centro Sur","Centro Sur",GQ-CS,province,,17.4,,,4,Africa/Malabo,FALSE,1226058294
Niamayong,Niamayong,,1.7182,10.4858,"Equatorial Guinea",GQ,GNQ,"Centro Sur","Centro Sur",GQ-CS,province,,17.4,,,4,Africa/Malabo,FALSE,1226967453
Mbiralen,Mbiralen,Mbiralem,1.9322,9.8860,"Equatorial Guinea",GQ,GNQ,Litoral,Litoral,GQ-LI,province,,54.9,,,4,Africa/Malabo,FALSE,1226057103
Bandondolo,Bandondolo,,1.1132,9.6293,"Equatorial Guinea",GQ,GNQ,Litoral,Litoral,GQ-LI,province,,54.9,,,4,Africa/Malabo,FALSE,1226286068
Nsoagono,Nsoagono,,1.6397,10.3916,"Equatorial Guinea",GQ,GNQ,"Centro Sur","Centro Sur",GQ-CS,province,,17.4,,,4,Africa/Malabo,FALSE,1226650088
Nco,Nco,Nko,1.8599,10.5012,"Equatorial Guinea",GQ,GNQ,"Centro Sur","Centro Sur",GQ-CS,province,,17.4,,,4,Africa/Malabo,FALSE,1226276724
Nco,Nco,Nko,1.8289,10.5750,"Equatorial Guinea",GQ,GNQ,"Centro Sur","Centro Sur",GQ-CS,province,,17.4,,,4,Africa/Malabo,TRUE,1226958681
Nco,Nco,,1.7073,10.4960,"Equatorial Guinea",GQ,GNQ,"Centro Sur","Centro Sur",GQ-CS,province,,17.4,,,4,Africa/Malabo,TRUE,1226475907
Etegueveiñ,Eteguevein,Eteoveng,1.8919,11.2721,"Equatorial Guinea",GQ,GNQ,Kié-Ntem,Kie-Ntem,GQ-KN,province,,54.6,,,4,Africa/Malabo,FALSE,1226475585
Ngüeogo,Ngueogo,Ngueyogo,0.8957,9.3153,"Equatorial Guinea",GQ,GNQ,Litoral,Litoral,GQ-LI,province,,54.9,,,4,Africa/Malabo,FALSE,1226578307
Bon,Bon,,1.6027,10.6843,"Equatorial Guinea",GQ,GNQ,Wele-Nzas,Wele-Nzas,GQ-WN,province,,34.4,,,4,Africa/Malabo,FALSE,1226401431
Ebolobur,Ebolobur,,1.2414,9.8168,"Equatorial Guinea",GQ,GNQ,Litoral,Litoral,GQ-LI,province,,54.9,,,4,Africa/Malabo,FALSE,1226461809
Masoc,Masoc,,1.4643,9.8411,"Equatorial Guinea",GQ,GNQ,Litoral,Litoral,GQ-LI,province,,54.9,,,4,Africa/Malabo,FALSE,1226734925
Janga,Janga,,1.5702,9.5931,"Equatorial Guinea",GQ,GNQ,Litoral,Litoral,GQ-LI,province,,54.9,,,4,Africa/Malabo,FALSE,1226899160
Kiri,Kiri,,1.1808,10.5483,"Equatorial Guinea",GQ,GNQ,"Centro Sur","Centro Sur",GQ-CS,province,,17.4,,,4,Africa/Malabo,FALSE,1226630534
Esantua,Esantua,,2.0419,10.1380,"Equatorial Guinea",GQ,GNQ,Litoral,Litoral,GQ-LI,province,,54.9,,,4,Africa/Malabo,FALSE,1226224440
Midyimitom,Midyimitom,Michimiton,1.9600,10.5385,"Equatorial Guinea",GQ,GNQ,Kié-Ntem,Kie-Ntem,GQ-KN,province,,54.6,,,4,Africa/Malabo,FALSE,1226442909
Midyimitom,Midyimitom,Michimiton,2.1092,10.6892,"Equatorial Guinea",GQ,GNQ,Kié-Ntem,Kie-Ntem,GQ-KN,province,,54.6,,,4,Africa/Malabo,TRUE,1226840217
Ndalama,Ndalama,,1.6803,10.3464,"Equatorial Guinea",GQ,GNQ,"Centro Sur","Centro Sur",GQ-CS,province,,17.4,,,4,Africa/Malabo,FALSE,1226761583
Nonkieñ,Nonkien,Nonkieng|Nnonkieñ,1.7412,11.2251,"Equatorial Guinea",GQ,GNQ,Wele-Nzas,Wele-Nzas,GQ-WN,province,,34.4,,,4,Africa/Malabo,FALSE,1226375686
Econeguon,Econeguon,Eko’guong,2.1033,10.3757,"Equatorial Guinea",GQ,GNQ,"Centro Sur","Centro Sur",GQ-CS,province,,17.4,,,4,Africa/Malabo,FALSE,1226452446
Uboca,Uboca,,1.5030,9.5682,"Equatorial Guinea",GQ,GNQ,Litoral,Litoral,GQ-LI,province,,54.9,,,4,Africa/Malabo,FALSE,1226118436
Ebom,Ebom,,2.0833,11.1668,"Equatorial Guinea",GQ,GNQ,Kié-Ntem,Kie-Ntem,GQ-KN,province,,54.6,,,4,Africa/Malabo,FALSE,1226278892
Evocuon,Evocuon,,2.0554,10.4783,"Equatorial Guinea",GQ,GNQ,Kié-Ntem,Kie-Ntem,GQ-KN,province,,54.6,,,4,Africa/Malabo,FALSE,1226298956
Acocsi,Acocsi,Ako’osi,1.3497,11.1430,"Equatorial Guinea",GQ,GNQ,Wele-Nzas,Wele-Nzas,GQ-WN,province,,34.4,,,4,Africa/Malabo,FALSE,1226794407
Combere,Combere,,1.4179,9.6163,"Equatorial Guinea",GQ,GNQ,Litoral,Litoral,GQ-LI,province,,54.9,,,4,Africa/Malabo,FALSE,1226806414
Mfaná,Mfana,,1.9425,10.5723,"Equatorial Guinea",GQ,GNQ,Wele-Nzas,Wele-Nzas,GQ-WN,province,,34.4,,,4,Africa/Malabo,FALSE,1226285172
Moganda,Moganda,,1.8712,9.7819,"Equatorial Guinea",GQ,GNQ,Litoral,Litoral,GQ-LI,province,,54.9,,,4,Africa/Malabo,FALSE,1226189520
Acoga,Acoga,Akoga,1.1053,9.6301,"Equatorial Guinea",GQ,GNQ,Litoral,Litoral,GQ-LI,province,,54.9,,,4,Africa/Malabo,FALSE,1226012787
Acoga,Acoga,,1.8135,9.9224,"Equatorial Guinea",GQ,GNQ,Litoral,Litoral,GQ-LI,province,,54.9,,,4,Africa/Malabo,TRUE,1226892071
Noayong,Noayong,,1.3703,10.7001,"Equatorial Guinea",GQ,GNQ,"Centro Sur","Centro Sur",GQ-CS,province,,17.4,,,4,Africa/Malabo,FALSE,1226163837
Micong,Micong,,1.8239,10.5935,"Equatorial Guinea",GQ,GNQ,"Centro Sur","Centro Sur",GQ-CS,province,,17.4,,,4,Africa/Malabo,FALSE,1226086896
Yecuo,Yecuo,,1.7925,10.6369,"Equatorial Guinea",GQ,GNQ,Wele-Nzas,Wele-Nzas,GQ-WN,province,,34.4,,,4,Africa/Malabo,FALSE,1226025021
Fonete,Fonete,,1.7451,11.0570,"Equatorial Guinea",GQ,GNQ,Kié-Ntem,Kie-Ntem,GQ-KN,province,,54.6,,,4,Africa/Malabo,FALSE,1226792326
Engás,Engas,,1.4055,11.3263,"Equatorial Guinea",GQ,GNQ,Wele-Nzas,Wele-Nzas,GQ-WN,province,,34.4,,,4,Africa/Malabo,FALSE,1226848885
Ncobebeñ,Ncobeben,,1.9933,10.0309,"Equatorial Guinea",GQ,GNQ,Litoral,Litoral,GQ-LI,province,,54.9,,,4,Africa/Malabo,FALSE,1226487675
Mabama,Mabama,,1.6819,11.1652,"Equatorial Guinea",GQ,GNQ,Wele-Nzas,Wele-Nzas,GQ-WN,province,,34.4,,,4,Africa/Malabo,FALSE,1226742161
Ecumdum,Ecumdum,Ekumdum,1.8606,10.8150,"Equatorial Guinea",GQ,GNQ,Wele-Nzas,Wele-Nzas,GQ-WN,province,,34.4,,,4,Africa/Malabo,FALSE,1226000000
Eyiyielon,Eyiyielon,,1.8616,9.9882,"Equatorial Guinea",GQ,GNQ,Litoral,Litoral,GQ-LI,province,,54.9,,,4,Africa/Malabo,FALSE,1226418578
Dalama,Dalama,,2.0030,11.3159,"Equatorial Guinea",GQ,GNQ,Kié-Ntem,Kie-Ntem,GQ-KN,province,,54.6,,,4,Africa/Malabo,FALSE,1226405777
Ayan,Ayan,Ayana,1.3333,10.7313,"Equatorial Guinea",GQ,GNQ,"Centro Sur","Centro Sur",GQ-CS,province,,17.4,,,4,Africa/Malabo,FALSE,1226854448
Lea,Lea,Lea-Ngolo,1.8641,9.7858,"Equatorial Guinea",GQ,GNQ,Litoral,Litoral,GQ-LI,province,,54.9,,,4,Africa/Malabo,FALSE,1226622355
Aconangui,Aconangui,Akonangui,1.8003,10.4038,"Equatorial Guinea",GQ,GNQ,"Centro Sur","Centro Sur",GQ-CS,province,,17.4,,,4,Africa/Malabo,FALSE,1226957891
Bohé,Bohe,Boho|Baho,3.2854,8.7338,"Equatorial Guinea",GQ,GNQ,"Bioko Sur","Bioko Sur",GQ-BS,province,,26.8,,,4,Africa/Malabo,FALSE,1226839469
Mvengayong,Mvengayong,,1.9559,10.7972,"Equatorial Guinea",GQ,GNQ,Kié-Ntem,Kie-Ntem,GQ-KN,province,,43.2,,,4,Africa/Malabo,FALSE,1226426476
Maan,Maan,,2.1424,10.1721,"Equatorial Guinea",GQ,GNQ,Litoral,Litoral,GQ-LI,province,,54.9,,,4,Africa/Malabo,FALSE,1226896078
Abang,Abang,Abanga,1.1871,11.0105,"Equatorial Guinea",GQ,GNQ,Wele-Nzas,Wele-Nzas,GQ-WN,province,,34.4,,,4,Africa/Malabo,FALSE,1226898822
Abang,Abang,,1.8341,10.6851,"Equatorial Guinea",GQ,GNQ,Wele-Nzas,Wele-Nzas,GQ-WN,province,,34.4,,,4,Africa/Malabo,TRUE,1226571184
Abang,Abang,,1.9276,10.7662,"Equatorial Guinea",GQ,GNQ,Wele-Nzas,Wele-Nzas,GQ-WN,province,,34.4,,,4,Africa/Malabo,TRUE,1226113771
Abang,Abang,,1.6367,10.8435,"Equatorial Guinea",GQ,GNQ,Wele-Nzas,Wele-Nzas,GQ-WN,province,,34.4,,,4,Africa/Malabo,TRUE,1226300010
Abe,Abe,,1.8366,10.4617,"Equatorial Guinea",GQ,GNQ,"Centro Sur","Centro Sur",GQ-CS,province,,17.4,,,4,Africa/Malabo,FALSE,1226748416
Mfui,Mfui,Mfuiñ,1.8680,10.9811,"Equatorial Guinea",GQ,GNQ,Kié-Ntem,Kie-Ntem,GQ-KN,province,,54.6,,,4,Africa/Malabo,FALSE,1226758988
Anungá,Anunga,,1.3300,11.2908,"Equatorial Guinea",GQ,GNQ,Wele-Nzas,Wele-Nzas,GQ-WN,province,,34.4,,,4,Africa/Malabo,FALSE,1226748188
Añisoc,Anisoc,Añisok,1.4786,11.1057,"Equatorial Guinea",GQ,GNQ,Wele-Nzas,Wele-Nzas,GQ-WN,province,,34.4,,,4,Africa/Malabo,TRUE,1226433226
Mongomo-Ngoc,Mongomo-Ngoc,,1.9144,11.1589,"Equatorial Guinea",GQ,GNQ,Kié-Ntem,Kie-Ntem,GQ-KN,province,,54.6,,,4,Africa/Malabo,FALSE,1226287691
Abanda,Abanda,,1.4483,9.6271,"Equatorial Guinea",GQ,GNQ,Litoral,Litoral,GQ-LI,province,,54.9,,,4,Africa/Malabo,FALSE,1226766378
Maconanam,Maconanam,,1.7674,9.7475,"Equatorial Guinea",GQ,GNQ,Litoral,Litoral,GQ-LI,province,,54.9,,,4,Africa/Malabo,FALSE,1226888693
Moeri,Moeri,Mueri,3.4672,8.6683,"Equatorial Guinea",GQ,GNQ,"Bioko Sur","Bioko Sur",GQ-BS,province,,26.8,,,4,Africa/Malabo,FALSE,1226954314
Nfonga,Nfonga,,1.8540,9.8281,"Equatorial Guinea",GQ,GNQ,Litoral,Litoral,GQ-LI,province,,54.9,,,4,Africa/Malabo,FALSE,1226909296
Aconikie,Aconikie,,1.7905,9.9288,"Equatorial Guinea",GQ,GNQ,Litoral,Litoral,GQ-LI,province,,54.9,,,4,Africa/Malabo,FALSE,1226610932
Ecobenam,Ecobenam,,1.8590,9.7904,"Equatorial Guinea",GQ,GNQ,Litoral,Litoral,GQ-LI,province,,54.9,,,4,Africa/Malabo,FALSE,1226265927
Ebana,Ebana,,1.1549,10.7764,"Equatorial Guinea",GQ,GNQ,"Centro Sur","Centro Sur",GQ-CS,province,,17.4,,,4,Africa/Malabo,FALSE,1226743200
Ncumecoc,Ncumecoc,Nkoensok,2.1023,10.5318,"Equatorial Guinea",GQ,GNQ,Kié-Ntem,Kie-Ntem,GQ-KN,province,,54.6,,,4,Africa/Malabo,FALSE,1226340462
Ecoc,Ecoc,,1.7044,11.3764,"Equatorial Guinea",GQ,GNQ,Wele-Nzas,Wele-Nzas,GQ-WN,province,,17.6,,,4,Africa/Malabo,FALSE,1226298013
Italamanga,Italamanga,,1.2575,9.3973,"Equatorial Guinea",GQ,GNQ,Litoral,Litoral,GQ-LI,province,,54.9,,,4,Africa/Malabo,FALSE,1226566451
Italamanga,Italamanga,Itala,1.5667,9.8500,"Equatorial Guinea",GQ,GNQ,Litoral,Litoral,GQ-LI,province,,54.9,,,4,Africa/Malabo,TRUE,1226381797
Mveng,Mveng,,1.5280,11.2051,"Equatorial Guinea",GQ,GNQ,Wele-Nzas,Wele-Nzas,GQ-WN,province,,34.4,,,4,Africa/Malabo,FALSE,1226941627
Atom,Atom,Aton,2.1539,11.0274,"Equatorial Guinea",GQ,GNQ,Kié-Ntem,Kie-Ntem,GQ-KN,province,,54.6,,,4,Africa/Malabo,FALSE,1226246953
Minsengminsoc,Minsengminsoc,Misemisok,1.1367,10.4637,"Equatorial Guinea",GQ,GNQ,"Centro Sur","Centro Sur",GQ-CS,province,,17.4,,,4,Africa/Malabo,FALSE,1226466975
Ncumadyap,Ncumadyap,,1.0033,10.9120,"Equatorial Guinea",GQ,GNQ,"Centro Sur","Centro Sur",GQ-CS,province,,17.4,,,4,Africa/Libreville,FALSE,1226140635
Abogocola,Abogocola,Abogokola,1.1370,9.9326,"Equatorial Guinea",GQ,GNQ,Litoral,Litoral,GQ-LI,province,,54.9,,,4,Africa/Malabo,FALSE,1226124440
Okeva,Okeva,Okeba,1.0907,10.1186,"Equatorial Guinea",GQ,GNQ,Litoral,Litoral,GQ-LI,province,,54.9,,,4,Africa/Malabo,FALSE,1226622939
Nsogobot,Nsogobot,,1.8787,10.8543,"Equatorial Guinea",GQ,GNQ,Wele-Nzas,Wele-Nzas,GQ-WN,province,,34.4,,,4,Africa/Malabo,FALSE,1226890600
Meseng,Meseng,,1.2635,10.7963,"Equatorial Guinea",GQ,GNQ,"Centro Sur","Centro Sur",GQ-CS,province,,34.4,,,4,Africa/Malabo,FALSE,1226774406
Ngona,Ngona,,1.7230,10.7039,"Equatorial Guinea",GQ,GNQ,Wele-Nzas,Wele-Nzas,GQ-WN,province,,34.4,,,4,Africa/Malabo,FALSE,1226085425
Bifet,Bifet,Bifee,2.0698,11.2685,"Equatorial Guinea",GQ,GNQ,Kié-Ntem,Kie-Ntem,GQ-KN,province,,54.6,,,4,Africa/Malabo,FALSE,1226329646
Milang,Milang,Melang,1.9200,11.2602,"Equatorial Guinea",GQ,GNQ,Kié-Ntem,Kie-Ntem,GQ-KN,province,,54.6,,,4,Africa/Malabo,FALSE,1226838944
Bedyá,Bedya,,1.3283,10.5827,"Equatorial Guinea",GQ,GNQ,"Centro Sur","Centro Sur",GQ-CS,province,,17.4,,,4,Africa/Malabo,FALSE,1226994751
Niasam,Niasam,,1.9452,10.2440,"Equatorial Guinea",GQ,GNQ,"Centro Sur","Centro Sur",GQ-CS,province,,17.4,,,4,Africa/Malabo,FALSE,1226867721
Mfulacom,Mfulacom,Mfulakom,1.9684,10.3991,"Equatorial Guinea",GQ,GNQ,"Centro Sur","Centro Sur",GQ-CS,province,,17.4,,,4,Africa/Malabo,FALSE,1226245790
Ebobut,Ebobut,,1.7468,10.4528,"Equatorial Guinea",GQ,GNQ,"Centro Sur","Centro Sur",GQ-CS,province,,17.4,,,4,Africa/Malabo,FALSE,1226854335
Bilon,Bilon,,1.7091,9.8497,"Equatorial Guinea",GQ,GNQ,Litoral,Litoral,GQ-LI,province,,54.9,,,4,Africa/Malabo,FALSE,1226160818
Bilón,Bilon,,1.9386,9.8833,"Equatorial Guinea",GQ,GNQ,Litoral,Litoral,GQ-LI,province,,54.9,,,4,Africa/Malabo,TRUE,1226870763
Sisacang,Sisacang,,1.3917,11.2810,"Equatorial Guinea",GQ,GNQ,Wele-Nzas,Wele-Nzas,GQ-WN,province,,34.4,,,4,Africa/Malabo,FALSE,1226988709
"San Antonio","San Antonio",,1.1455,10.4884,"Equatorial Guinea",GQ,GNQ,"Centro Sur","Centro Sur",GQ-CS,province,,17.4,,,4,Africa/Malabo,FALSE,1226792802
Alon,Alon,,1.5994,10.8566,"Equatorial Guinea",GQ,GNQ,Wele-Nzas,Wele-Nzas,GQ-WN,province,,34.4,,,4,Africa/Malabo,FALSE,1226181448
Moguomo,Moguomo,Maguomo,1.5638,10.5143,"Equatorial Guinea",GQ,GNQ,"Centro Sur","Centro Sur",GQ-CS,province,,17.4,,,4,Africa/Malabo,FALSE,1226682346
Mboete,Mboete,,1.3427,10.3218,"Equatorial Guinea",GQ,GNQ,"Centro Sur","Centro Sur",GQ-CS,province,,17.4,,,4,Africa/Malabo,FALSE,1226869632
Mboete,Mboete,,1.3285,10.4623,"Equatorial Guinea",GQ,GNQ,"Centro Sur","Centro Sur",GQ-CS,province,,17.4,,,4,Africa/Malabo,TRUE,1226830922
Mboete,Mboete,,1.5708,10.5374,"Equatorial Guinea",GQ,GNQ,"Centro Sur","Centro Sur",GQ-CS,province,,17.4,,,4,Africa/Malabo,TRUE,1226948278
Mboete,Mboete,,1.5782,10.3510,"Equatorial Guinea",GQ,GNQ,"Centro Sur","Centro Sur",GQ-CS,province,,17.4,,,4,Africa/Malabo,TRUE,1226722383
Mboete,Mboete,,1.4342,10.3527,"Equatorial Guinea",GQ,GNQ,"Centro Sur","Centro Sur",GQ-CS,province,,17.4,,,4,Africa/Malabo,TRUE,1226422068
Mboete,Mboete,,1.4470,10.4631,"Equatorial Guinea",GQ,GNQ,"Centro Sur","Centro Sur",GQ-CS,province,,17.4,,,4,Africa/Malabo,TRUE,1226924140
"Bacaké Pequeño","Bacake Pequeno","Bakake Pequeño",3.5667,8.8572,"Equatorial Guinea",GQ,GNQ,"Bioko Norte","Bioko Norte",GQ-BN,province,,561.1,,,3,Africa/Malabo,FALSE,1226100445
Agua,Agua,,1.8340,11.0835,"Equatorial Guinea",GQ,GNQ,Kié-Ntem,Kie-Ntem,GQ-KN,province,,54.6,,,4,Africa/Malabo,FALSE,1226298294
Domande,Domande,,0.8901,9.3219,"Equatorial Guinea",GQ,GNQ,Litoral,Litoral,GQ-LI,province,,54.9,,,4,Africa/Malabo,FALSE,1226320658
Afanebang,Afanebang,,2.1432,10.8567,"Equatorial Guinea",GQ,GNQ,Kié-Ntem,Kie-Ntem,GQ-KN,province,,54.6,,,4,Africa/Malabo,FALSE,1226589385
Esong,Esong,Eson,2.1574,10.9973,"Equatorial Guinea",GQ,GNQ,Kié-Ntem,Kie-Ntem,GQ-KN,province,,54.6,,,4,Africa/Malabo,FALSE,1226854356
Esong,Esong,Eson,2.0071,11.2653,"Equatorial Guinea",GQ,GNQ,Kié-Ntem,Kie-Ntem,GQ-KN,province,,54.6,,,4,Africa/Malabo,TRUE,1226400736
Esong,Esong,,1.8917,11.2220,"Equatorial Guinea",GQ,GNQ,Kié-Ntem,Kie-Ntem,GQ-KN,province,,54.6,,,4,Africa/Malabo,TRUE,1226212487
Bombe,Bombe,,3.4570,8.6224,"Equatorial Guinea",GQ,GNQ,"Bioko Sur","Bioko Sur",GQ-BS,province,,26.8,,,4,Africa/Malabo,FALSE,1226899069
Eori,Eori,,3.2736,8.7026,"Equatorial Guinea",GQ,GNQ,"Bioko Sur","Bioko Sur",GQ-BS,province,,26.8,,,4,Africa/Malabo,FALSE,1226410518
Como,Como,,1.1497,9.5914,"Equatorial Guinea",GQ,GNQ,Litoral,Litoral,GQ-LI,province,,54.9,,,4,Africa/Malabo,FALSE,1226822015
Andom,Andom,,1.9674,9.9933,"Equatorial Guinea",GQ,GNQ,Litoral,Litoral,GQ-LI,province,,54.9,,,4,Africa/Malabo,FALSE,1226077806
Abengnam,Abengnam,Abagnam,1.1147,10.9993,"Equatorial Guinea",GQ,GNQ,Wele-Nzas,Wele-Nzas,GQ-WN,province,,34.4,,,4,Africa/Malabo,FALSE,1226889308
Nveng,Nveng,,1.7178,10.1204,"Equatorial Guinea",GQ,GNQ,"Centro Sur","Centro Sur",GQ-CS,province,,17.4,,,4,Africa/Malabo,FALSE,1226632785
Ecoguong,Ecoguong,Ekoguong,1.2768,10.4631,"Equatorial Guinea",GQ,GNQ,"Centro Sur","Centro Sur",GQ-CS,province,,17.4,,,4,Africa/Malabo,FALSE,1226238443
Ecoguong,Ecoguong,,1.5913,10.5226,"Equatorial Guinea",GQ,GNQ,"Centro Sur","Centro Sur",GQ-CS,province,,17.4,,,4,Africa/Malabo,TRUE,1226165547
Ecoguong,Ecoguong,Eko’guong,1.1952,10.4859,"Equatorial Guinea",GQ,GNQ,"Centro Sur","Centro Sur",GQ-CS,province,,17.4,,,4,Africa/Malabo,TRUE,1226160183
Ecoguong,Ecoguong,,1.9912,10.3087,"Equatorial Guinea",GQ,GNQ,"Centro Sur","Centro Sur",GQ-CS,province,,17.4,,,4,Africa/Malabo,TRUE,1226824295
Nbubui,Nbubui,,1.8727,10.2689,"Equatorial Guinea",GQ,GNQ,"Centro Sur","Centro Sur",GQ-CS,province,,17.4,,,4,Africa/Malabo,FALSE,1226036971
Elong,Elong,,1.7932,10.1083,"Equatorial Guinea",GQ,GNQ,"Centro Sur","Centro Sur",GQ-CS,province,,17.4,,,4,Africa/Malabo,FALSE,1226615078
Ngaña,Ngana,,0.9344,9.3205,"Equatorial Guinea",GQ,GNQ,Litoral,Litoral,GQ-LI,province,,54.9,,,4,Africa/Malabo,FALSE,1226847105
Ayamboga,Ayamboga,,1.2534,9.4127,"Equatorial Guinea",GQ,GNQ,Litoral,Litoral,GQ-LI,province,,54.9,,,4,Africa/Malabo,FALSE,1226881398
Ngang,Ngang,,2.0623,11.1911,"Equatorial Guinea",GQ,GNQ,Kié-Ntem,Kie-Ntem,GQ-KN,province,,54.6,,,4,Africa/Malabo,FALSE,1226628544
Sogodyam,Sogodyam,Sugocham,0.9787,10.0149,"Equatorial Guinea",GQ,GNQ,"Centro Sur","Centro Sur",GQ-CS,province,,2.5,,,5,Africa/Libreville,FALSE,1226349377
Ibinamae,Ibinamae,Ivinamaye,0.9061,9.3048,"Equatorial Guinea",GQ,GNQ,Litoral,Litoral,GQ-LI,province,,54.9,,,4,Africa/Malabo,FALSE,1226375386
Bidoa,Bidoa,Bidon,1.2335,10.5779,"Equatorial Guinea",GQ,GNQ,"Centro Sur","Centro Sur",GQ-CS,province,,17.4,,,4,Africa/Malabo,FALSE,1226253864
Yem,Yem,,1.4117,10.9433,"Equatorial Guinea",GQ,GNQ,Wele-Nzas,Wele-Nzas,GQ-WN,province,,34.4,,,4,Africa/Malabo,FALSE,1226133857
Aconekien,Aconekien,,1.3960,10.2337,"Equatorial Guinea",GQ,GNQ,"Centro Sur","Centro Sur",GQ-CS,province,,17.4,,,4,Africa/Malabo,FALSE,1226150650
Mbondo,Mbondo,,2.2232,9.7932,"Equatorial Guinea",GQ,GNQ,Litoral,Litoral,GQ-LI,province,,54.9,,,4,Africa/Malabo,FALSE,1226916663
