city,city_ascii,city_alt,lat,lng,country,iso2,iso3,admin_name,admin_name_ascii,admin_code,admin_type,capital,density,population,population_proper,ranking,timezone,same_name,id
"Addis Ababa","Addis Ababa","Addis Abbaba|Ādīs Ābeba|Addis Abeba",9.0300,38.7400,Ethiopia,ET,ETH,"Ādīs Ābeba","Adis Abeba",ET-AA,administration,primary,5770.5,3041002,3041002,1,Africa/Addis_Ababa,FALSE,1231824991
"Ērer Sātā","Erer Sata","Yarar Sātā|Errer|Erer-Gota|Erer|Yerer Sata|Erer-Iya",9.5667,41.3833,Ethiopia,ET,ETH,Sumalē,Sumale,ET-SO,state,,36.1,649000,649000,2,Africa/Addis_Ababa,FALSE,1231563638
Shashemenē,Shashemene,Shashamanni|Shashamanna|Shāshamani|Shashamana|Sciasciamanne|Shashamane|Sciasciamanna,7.2000,38.6000,Ethiopia,ET,ETH,Oromīya,Oromiya,ET-OR,state,,23676.6,408368,408368,2,Africa/Addis_Ababa,FALSE,1231110370
"K’ebrī Dehar","K'ebri Dehar","Kabri Dar|K’abradaharē|Qabradaharē|Kebri Dekhar|Gabredarre",6.7333,44.2667,Ethiopia,ET,ETH,Sumalē,Sumale,ET-SO,state,,14.1,363000,363000,2,Africa/Addis_Ababa,FALSE,1231393469
Nazrēt,Nazret,Nazreth|Nazareth|Hadama|Adama,8.5414,39.2689,Ethiopia,ET,ETH,Oromīya,Oromiya,ET-OR,state,,10837.7,324000,324000,2,Africa/Addis_Ababa,FALSE,1231826873
Mekele,Mekele,Maqalē|Makalle|Makale|Macalle|Maqalle|Mek’elē,13.4969,39.4769,Ethiopia,ET,ETH,Tigray,Tigray,ET-TI,administration,admin,1451.8,323700,323700,2,Africa/Addis_Ababa,FALSE,1231468531
Godē,Gode,Godi,5.9527,43.5516,Ethiopia,ET,ETH,Sumalē,Sumale,ET-SO,state,,36.7,320782,320782,2,Africa/Addis_Ababa,FALSE,1231128743
Āwasa,Awasa,Hawassa|Awassa,7.0500,38.4667,Ethiopia,ET,ETH,"YeDebub Bihēroch Bihēreseboch na Hizboch","YeDebub Biheroch Bihereseboch na Hizboch",ET-SN,state,admin,6002.0,300100,300100,2,Africa/Addis_Ababa,FALSE,1231663122
"Dire Dawa","Dire Dawa","Daredawa|Dirediua|Dire Dewa|Dirē Dawa|Dire Daba|Direaoua|Dirdabò|Diré-Daoua|D’ire Daua",9.6000,41.8667,Ethiopia,ET,ETH,"Dirē Dawa","Dire Dawa",ET-DD,administration,admin,228.4,277000,277000,2,Africa/Addis_Ababa,FALSE,1231089714
"Bahir Dar","Bahir Dar","Bahrdar Giyorgis|Bahrdar Giyergio|Bahr Dar|Bahar Dar|Bahar|Babardur Georgis|Bahar Dar Ghiorghis|Bāherdār-Giyorgis",11.6000,37.3833,Ethiopia,ET,ETH,Āmara,Amara,ET-AM,state,admin,147.6,243300,243300,2,Africa/Addis_Ababa,FALSE,1231784118
Sodo,Sodo,Soddu,6.8550,37.7808,Ethiopia,ET,ETH,"YeDebub Bihēroch Bihēreseboch na Hizboch","YeDebub Biheroch Bihereseboch na Hizboch",ET-SN,state,,533.9,213467,213467,2,Africa/Addis_Ababa,FALSE,1231130720
"Ārba Minch’","Arba Minch'","Minghi|Gantar|Arba Mench|Arba Mintch",6.0333,37.5500,Ethiopia,ET,ETH,"YeDebub Bihēroch Bihēreseboch na Hizboch","YeDebub Biheroch Bihereseboch na Hizboch",ET-SN,state,,3270.1,192043,192043,2,Africa/Addis_Ababa,FALSE,1231302134
Desē,Dese,Dessie|Dessi|Dessa|Dessye|Dasē,11.1333,39.6333,Ethiopia,ET,ETH,Āmara,Amara,ET-AM,state,,899.8,187900,187900,2,Africa/Addis_Ababa,FALSE,1231359719
Hosa’ina,Hosa'ina,Hosāenā|Hosana|Hossana|Hosseina|Hosanna,7.5500,37.8500,Ethiopia,ET,ETH,"YeDebub Bihēroch Bihēreseboch na Hizboch","YeDebub Biheroch Bihereseboch na Hizboch",ET-SN,state,,489.6,179761,179761,2,Africa/Addis_Ababa,FALSE,1231400775
"K’ebrī Beyah","K'ebri Beyah",Gabribagia|Kebri-Biyakh|Gabribaja,9.0833,43.0833,Ethiopia,ET,ETH,Sumalē,Sumale,ET-SO,state,,50.7,165518,165518,2,Africa/Addis_Ababa,FALSE,1231877186
Jijiga,Jijiga,Jigjigga|Jigjiga|Djigdjiga|Giggigga|Giggiga|Dzhidzhiga,9.3500,42.8000,Ethiopia,ET,ETH,Sumalē,Sumale,ET-SO,state,admin,192.5,159300,159300,2,Africa/Addis_Ababa,FALSE,1231737909
Dīla,Dila,Dilla,6.4083,38.3083,Ethiopia,ET,ETH,"YeDebub Bihēroch Bihēreseboch na Hizboch","YeDebub Biheroch Bihereseboch na Hizboch",ET-SN,state,,1010.1,151682,151682,2,Africa/Addis_Ababa,FALSE,1231393325
Nek’emtē,Nek'emte,Lekemti|Lekemt|Lehempti|Lechenti|Lechempti|Lakemti|Nekempt|Naqamti|Naqamet|Nakamti|Nekempti|Lechemti|Lekemte|Lechempte|Nekempte|Lekempti|Nakempti|Nekemt|Nak’amet,9.0833,36.5500,Ethiopia,ET,ETH,Oromīya,Oromiya,ET-OR,state,,3733.3,148613,148613,2,Africa/Addis_Ababa,FALSE,1231437227
"Debre Birhan","Debre Birhan","Dabra Berham|Debra Berham|Dabra-Berhān|Debra Birhan|Debra Berhan|Debre Berhan|Debra Brehan",9.6833,39.5333,Ethiopia,ET,ETH,Āmara,Amara,ET-AM,state,,4434.5,139724,139724,2,Africa/Addis_Ababa,TRUE,1231777741
"Debre Mark’os","Debre Mark'os","Dabra-7ārqos|Dabra Mārko’s|Debra Markos|Debra Marcos|Monkorer|Moncorer|Debre Marcos",10.3333,37.7167,Ethiopia,ET,ETH,Āmara,Amara,ET-AM,state,,2633.6,133810,133810,2,Africa/Addis_Ababa,FALSE,1231943444
Ferfer,Ferfer,Feerfeer,5.0833,45.0833,Ethiopia,ET,ETH,Sumalē,Sumale,ET-SO,state,,14.7,133521,133521,2,Africa/Mogadishu,FALSE,1231764818
Āwarē,Aware,Awareh|Auareh|Auareh|Auare|Aware,8.2667,44.1500,Ethiopia,ET,ETH,Sumalē,Sumale,ET-SO,state,,37.7,132149,132149,2,Africa/Addis_Ababa,FALSE,1231934049
Harar,Harar,Harrar|Hārar|Kharer|Hārer,9.3111,42.1278,Ethiopia,ET,ETH,"Hārerī Hizb","Hareri Hizb",ET-HA,administration,admin,689.5,129000,129000,2,Africa/Addis_Ababa,FALSE,1231785978
Kombolcha,Kombolcha,Combolcia|Kombolcah|Cambolcia|Kambolchā|Kembolcha|Combolcha,11.0867,39.7367,Ethiopia,ET,ETH,Āmara,Amara,ET-AM,state,,14253.8,125654,125654,2,Africa/Addis_Ababa,FALSE,1231476399
Jīma,Jima,Djimma|Jimma|Gimma|Gima,7.6667,36.8333,Ethiopia,ET,ETH,Oromīya,Oromiya,ET-OR,state,,2409.6,120960,120960,2,Africa/Addis_Ababa,FALSE,1231214366
"Debre Tabor","Debre Tabor","Samara|Debra Tabor|Dabra-Tābor",11.8500,38.0167,Ethiopia,ET,ETH,Āmara,Amara,ET-AM,state,,4712.8,119176,119176,2,Africa/Addis_Ababa,FALSE,1231557860
Harshin,Harshin,,9.2167,43.5878,Ethiopia,ET,ETH,Sumalē,Sumale,ET-SO,state,,85.1,117187,117187,2,Africa/Addis_Ababa,FALSE,1231946994
Ādīgrat,Adigrat,,14.2667,39.4500,Ethiopia,ET,ETH,Tigray,Tigray,ET-TI,administration,,3703.0,116193,116193,2,Africa/Addis_Ababa,FALSE,1231492773
Babīlē,Babile,Babih|Babilli,9.2167,42.3333,Ethiopia,ET,ETH,Oromīya,Oromiya,ET-OR,state,,26.2,100000,100000,3,Africa/Addis_Ababa,TRUE,1231924903
"Debre Zeyit","Debre Zeyit","Debre Zeit|Debra Zeit|Bishoftu|Biscioftù|Debre Zeyt",8.7500,38.9833,Ethiopia,ET,ETH,Oromīya,Oromiya,ET-OR,state,,713.8,99928,99928,3,Africa/Addis_Ababa,FALSE,1231675489
Weldiya,Weldiya,Weldya|Wubete|Woldia|Ualdia|Waldeyā|Weldia|Waldia,11.8306,39.6000,Ethiopia,ET,ETH,Āmara,Amara,ET-AM,state,,179.4,98911,98911,3,Africa/Addis_Ababa,FALSE,1231023092
Gambēla,Gambela,"Gambella|Gambela Post|Gambeila",8.2500,34.5833,Ethiopia,ET,ETH,"Gambēla Hizboch","Gambela Hizboch",ET-GA,administration,admin,4731.4,97643,97643,2,Africa/Addis_Ababa,FALSE,1231698892
Shirē,Shire,Semama,14.1000,38.2833,Ethiopia,ET,ETH,Tigray,Tigray,ET-TI,administration,,161.9,95491,95491,3,Africa/Addis_Ababa,FALSE,1231526396
"Mīzan Teferī","Mizan Teferi","Mizon Teferi|Mizan Tafari|Mizan|Mesan",7.0000,35.5833,Ethiopia,ET,ETH,"YeDebub Bihēroch Bihēreseboch na Hizboch","YeDebub Biheroch Bihereseboch na Hizboch",ET-SN,state,,2013.0,91437,91437,2,Africa/Addis_Ababa,FALSE,1231330466
Denan,Denan,"Badu Danan|Danan|Danane",6.5000,43.5000,Ethiopia,ET,ETH,Sumalē,Sumale,ET-SO,state,,5.7,87380,87380,3,Africa/Addis_Ababa,FALSE,1231663674
Yabēlo,Yabelo,Yeabelo|Yābalo|Iavello|Yavelo|Yavello,4.8833,38.0833,Ethiopia,ET,ETH,Oromīya,Oromiya,ET-OR,state,,25.3,86400,86400,3,Africa/Addis_Ababa,FALSE,1231019846
Ādwa,Adwa,Auda|Adowa|Adua|Adaba|Aduwā,14.1667,38.9000,Ethiopia,ET,ETH,Tigray,Tigray,ET-TI,administration,,4635.8,85644,85644,2,Africa/Addis_Ababa,FALSE,1231086312
Warder,Warder,Werdēr|Wardair|Wadere|Uardere|Uorder,6.9667,45.3500,Ethiopia,ET,ETH,Sumalē,Sumale,ET-SO,state,,3.7,85400,85400,3,Africa/Addis_Ababa,FALSE,1231158948
Gonder,Gonder,Gondar|Gwender|Gwonder,12.6075,37.4592,Ethiopia,ET,ETH,Āmara,Amara,ET-AM,state,,386.5,80886,80886,3,Africa/Addis_Ababa,FALSE,1231234833
Ādīgala,Adigala,Addagalla|Adagalla|Adigalla,10.4236,42.2333,Ethiopia,ET,ETH,Sumalē,Sumale,ET-SO,state,,16.6,80440,80440,3,Africa/Addis_Ababa,FALSE,1231021572
Togoch’alē,Togoch'ale,"Tongochale|Togwuchalie|Togo Wuch’alē|Gerbehale|Tog Wajaale|Tug Wajale",9.6014,43.3361,Ethiopia,ET,ETH,Sumalē,Sumale,ET-SO,state,,137.9,70450,70450,3,Africa/Addis_Ababa,FALSE,1231990748
Bodītī,Boditi,Bodity|Boditti|Boditu,6.8667,37.8667,Ethiopia,ET,ETH,"YeDebub Bihēroch Bihēreseboch na Hizboch","YeDebub Biheroch Bihereseboch na Hizboch",ET-SN,state,,818.7,67861,67861,3,Africa/Addis_Ababa,FALSE,1231974220
Āsela,Asela,Asselle|Asella|Asalā|Aselle|Assela,7.9500,39.1167,Ethiopia,ET,ETH,Oromīya,Oromiya,ET-OR,state,,3961.7,67269,67269,2,Africa/Addis_Ababa,FALSE,1231347519
Āksum,Aksum,Axum|Akesum,14.1208,38.7278,Ethiopia,ET,ETH,Tigray,Tigray,ET-TI,administration,,3868.0,66800,66800,2,Africa/Addis_Ababa,FALSE,1231573651
Mota,Mota,Mata|Motta,11.0833,37.8667,Ethiopia,ET,ETH,Āmara,Amara,ET-AM,state,,246.0,56156,56156,3,Africa/Addis_Ababa,FALSE,1231135838
Bonga,Bonga,"Bonga (1)",7.2667,36.2333,Ethiopia,ET,ETH,"YeDebub M‘irab Ītyop’iya Hizboch","YeDebub M'irab Ityop'iya Hizboch",ET-SW,,admin,2193.7,56045,56045,2,Africa/Addis_Ababa,FALSE,1231409607
"Finote Selam","Finote Selam","Fenote Selam",10.7000,37.2667,Ethiopia,ET,ETH,Āmara,Amara,ET-AM,state,,782.5,55567,55567,3,Africa/Addis_Ababa,FALSE,1231472850
Dangila,Dangila,Dungoler|Dānglā|Danghela|Danghilla|Danghila,11.2667,36.8333,Ethiopia,ET,ETH,Āmara,Amara,ET-AM,state,,231.0,53225,53225,3,Africa/Addis_Ababa,FALSE,1231000015
Metema,Metema,Matamā|Metemma|Gallabat,12.9667,36.2000,Ethiopia,ET,ETH,Āmara,Amara,ET-AM,state,,36.2,50581,50581,3,Africa/Addis_Ababa,FALSE,1231471612
Semera,Semera,,11.7922,41.0086,Ethiopia,ET,ETH,Āfar,Afar,ET-AF,state,admin,14.2,50000,50000,2,Africa/Addis_Ababa,FALSE,1231617820
Mojo,Mojo,Maggio|Mojjo|Moggio|Modjo|Moccia|Mojjio,8.6500,39.0833,Ethiopia,ET,ETH,Oromīya,Oromiya,ET-OR,state,,269.1,49521,49521,3,Africa/Addis_Ababa,FALSE,1231772257
Sebeta,Sebeta,,8.9111,38.6214,Ethiopia,ET,ETH,Oromīya,Oromiya,ET-OR,state,,212.8,49331,49331,3,Africa/Addis_Ababa,FALSE,1231560096
Goba,Goba,Gobbà,7.0000,39.9833,Ethiopia,ET,ETH,Oromīya,Oromiya,ET-OR,state,,1589.3,49309,32025,3,Africa/Addis_Ababa,FALSE,1231837780
"Hāgere Hiywet","Hagere Hiywet","Hagere Hiywot|Hagere-Hiywer|Agere Hiywet|Āmbo|Hagere Hiwot",8.9833,37.8500,Ethiopia,ET,ETH,Oromīya,Oromiya,ET-OR,state,,4722.6,48171,48171,2,Africa/Addis_Ababa,FALSE,1231809487
Robē,Robe,"Robē (2)",7.1167,40.0000,Ethiopia,ET,ETH,Oromīya,Oromiya,ET-OR,state,,5003.6,44382,44382,2,Africa/Addis_Ababa,FALSE,1231266151
"Yirga ‘Alem","Yirga `Alem",Dalle|Agraria|Ābosto|Irgalem|Yirgalem,6.7500,38.4167,Ethiopia,ET,ETH,"YeDebub Bihēroch Bihēreseboch na Hizboch","YeDebub Biheroch Bihereseboch na Hizboch",ET-SN,state,,1322.0,43815,43815,3,Africa/Addis_Ababa,FALSE,1231817240
Mersa,Mersa,,11.6667,39.6583,Ethiopia,ET,ETH,Āmara,Amara,ET-AM,state,,183.8,41253,41253,3,Africa/Addis_Ababa,FALSE,1231844606
Giyon,Giyon,Gion|Chitu|Ualiso|Welīso|Walso|Waliso|Woliso|Walliso|Guyon|Welso|Wolliso|Ghion|Wolisso|Uolisò,8.5333,37.9667,Ethiopia,ET,ETH,Oromīya,Oromiya,ET-OR,state,,4283.2,37878,37878,2,Africa/Addis_Ababa,FALSE,1231961383
Mek’ī,Mek'i,Maki,8.1500,38.8167,Ethiopia,ET,ETH,Oromīya,Oromiya,ET-OR,state,,216.3,36597,36597,3,Africa/Addis_Ababa,FALSE,1231135266
Bedēsa,Bedesa,Tora|Bedessa,6.8830,37.9329,Ethiopia,ET,ETH,"YeDebub Bihēroch Bihēreseboch na Hizboch","YeDebub Biheroch Bihereseboch na Hizboch",ET-SN,state,,373.6,35294,35294,3,Africa/Addis_Ababa,FALSE,1231807796
"Ābīy Ādī","Abiy Adi","Abi Addi|Abi Abdi|Abbi Addi|Aby Adi|Abi-Adi|Abiy",13.6231,39.0017,Ethiopia,ET,ETH,Tigray,Tigray,ET-TI,administration,,87.9,34176,34176,3,Africa/Addis_Ababa,FALSE,1231200318
Āzezo,Azezo,,12.5586,37.4308,Ethiopia,ET,ETH,Āmara,Amara,ET-AM,state,,5906.2,33719,33719,2,Africa/Addis_Ababa,FALSE,1231317573
Butajīra,Butajira,Buttagira|Butlagira|Butajera,8.1208,38.3792,Ethiopia,ET,ETH,"YeDebub Bihēroch Bihēreseboch na Hizboch","YeDebub Biheroch Bihereseboch na Hizboch",ET-SN,state,,2981.3,33406,33406,2,Africa/Addis_Ababa,FALSE,1231050211
Ālamat’ā,Alamat'a,Alomato|Alomata|Alemata,12.4167,39.5500,Ethiopia,ET,ETH,Tigray,Tigray,ET-TI,administration,,6475.5,33214,33214,2,Africa/Addis_Ababa,FALSE,1231954520
Āreka,Areka,"Areka Ancheto|Ancheto",7.0710,37.7076,Ethiopia,ET,ETH,"YeDebub Bihēroch Bihēreseboch na Hizboch","YeDebub Biheroch Bihereseboch na Hizboch",ET-SN,state,,980.1,31408,31408,3,Africa/Addis_Ababa,FALSE,1231646056
Gīmbī,Gimbi,Gembi|Ghimbi,9.1667,35.8333,Ethiopia,ET,ETH,Oromīya,Oromiya,ET-OR,state,,1539.8,30981,30981,3,Africa/Addis_Ababa,FALSE,1231550284
"Dolo Odo","Dolo Odo",Dolo,4.1667,42.0667,Ethiopia,ET,ETH,Sumalē,Sumale,ET-SO,state,,17.0,30970,30970,3,Africa/Addis_Ababa,FALSE,1231046394
Chagne,Chagne,"K.H.S. Ber|Meteke|Kedamawi H.S. Ber|Kedamawi Haile Selassie Ber|Metekel|K.H. Selassie Ber",10.9500,36.5000,Ethiopia,ET,ETH,Āmara,Amara,ET-AM,state,,123.4,30938,30938,3,Africa/Addis_Ababa,FALSE,1231473183
Jinka,Jinka,,5.7833,36.5667,Ethiopia,ET,ETH,"YeDebub Bihēroch Bihēreseboch na Hizboch","YeDebub Biheroch Bihereseboch na Hizboch",ET-SN,state,,21.5,30249,30249,3,Africa/Addis_Ababa,FALSE,1231671120
Wik’ro,Wik'ro,Uikro|Wukro|Ugoro|Uogorò,13.7833,39.6000,Ethiopia,ET,ETH,Tigray,Tigray,ET-TI,administration,,3399.3,30210,30210,2,Africa/Addis_Ababa,FALSE,1231223279
"Degeh Bur","Degeh Bur","Dasgahbur|Dagahabur|Degh Bur|Degabur|Degekh Bur|Dagabur|Degahbur|Degahabur|Deghabour",8.2167,43.5667,Ethiopia,ET,ETH,Sumalē,Sumale,ET-SO,state,,11.1,30027,30027,3,Africa/Addis_Ababa,FALSE,1231855349
"Dembī Dolo","Dembi Dolo","Dambidollo|Dembilollo|Dembidollo|Dembi Doilo|Saio|Dambidolo",8.5353,34.8003,Ethiopia,ET,ETH,Oromīya,Oromiya,ET-OR,state,,207.2,29448,29448,3,Africa/Addis_Ababa,FALSE,1231620291
Welk’īt’ē,Welk'it'e,Walkitti|Uolkittè|Uolchitte|Wolkite|Walkite,8.2833,37.7833,Ethiopia,ET,ETH,"YeDebub Bihēroch Bihēreseboch na Hizboch","YeDebub Biheroch Bihereseboch na Hizboch",ET-SN,state,,4040.3,28866,28866,2,Africa/Addis_Ababa,FALSE,1231083511
Metu,Metu,Mettu|Mattu,8.3000,35.5833,Ethiopia,ET,ETH,Oromīya,Oromiya,ET-OR,state,,1770.1,28782,28782,3,Africa/Addis_Ababa,FALSE,1231361169
Shakīso,Shakiso,,5.7500,38.9167,Ethiopia,ET,ETH,Oromīya,Oromiya,ET-OR,state,,71.2,28260,28260,3,Africa/Addis_Ababa,FALSE,1231345308
Fichē,Fiche,Fitche|Fice|Fechē|Ficce,9.8000,38.7333,Ethiopia,ET,ETH,Oromīya,Oromiya,ET-OR,state,,1280.9,27493,27493,3,Africa/Addis_Ababa,FALSE,1231384026
K’olīto,K'olito,"Golito|Ālaba K’ulīto|Alaba|Colito|Alaba Kolito|Goluto",7.3122,38.0892,Ethiopia,ET,ETH,"YeDebub Bihēroch Bihēreseboch na Hizboch","YeDebub Biheroch Bihereseboch na Hizboch",ET-SN,state,,390.3,27359,27359,3,Africa/Addis_Ababa,FALSE,1231294595
Werota,Werota,"Wereta (1)",11.9167,37.7000,Ethiopia,ET,ETH,Āmara,Amara,ET-AM,state,,268.8,26317,26317,3,Africa/Addis_Ababa,FALSE,1231170165
Genet,Genet,Hollatta|Holetta|Holeta|Holata|Oletta|Holotā|Gennet,9.0500,38.5000,Ethiopia,ET,ETH,Oromīya,Oromiya,ET-OR,state,,2024.3,25593,25593,2,Africa/Addis_Ababa,FALSE,1231301779
Āgaro,Agaro,Aggarò,7.8558,36.5858,Ethiopia,ET,ETH,Oromīya,Oromiya,ET-OR,state,,454.8,25458,25458,3,Africa/Addis_Ababa,FALSE,1231182793
Burē,Bure,Burie|Burye,10.7000,37.0667,Ethiopia,ET,ETH,Āmara,Amara,ET-AM,state,,229.9,25084,25084,3,Africa/Addis_Ababa,FALSE,1231106866
Moyalē,Moyale,Moiale,3.5270,39.0560,Ethiopia,ET,ETH,Oromīya,Oromiya,ET-OR,state,,13.8,25000,25000,3,Africa/Addis_Ababa,FALSE,1231227722
Kobo,Kobo,Cobbo,12.1500,39.6333,Ethiopia,ET,ETH,Āmara,Amara,ET-AM,state,,147.2,24867,24867,3,Africa/Addis_Ababa,TRUE,1231442396
"Ādīs Zemen","Adis Zemen","Addis Zaman|Addis Zemen",12.1167,37.7833,Ethiopia,ET,ETH,Āmara,Amara,ET-AM,state,,253.4,24849,24849,3,Africa/Addis_Ababa,FALSE,1231619970
Dodola,Dodola,Dodolla|Dodolo,6.9833,39.1833,Ethiopia,ET,ETH,Oromīya,Oromiya,ET-OR,state,,178.9,24767,24767,3,Africa/Addis_Ababa,FALSE,1231390840
Gelemso,Gelemso,Ghelemsò|Galamso,8.8167,40.5167,Ethiopia,ET,ETH,Oromīya,Oromiya,ET-OR,state,,405.5,24200,24200,3,Africa/Addis_Ababa,FALSE,1231438273
Maychew,Maychew,"Maych’awu|Mai Keu|Mai Ciò|Mai Ceu|Maichew|Maitchew|Mai Chio",12.7833,39.5333,Ethiopia,ET,ETH,Tigray,Tigray,ET-TI,administration,,3636.8,23419,23419,2,Africa/Addis_Ababa,FALSE,1231612323
Asaita,Asaita,Āysa’īta|Aisaita|Asayta|Āsayita|Assayita,11.5667,41.4333,Ethiopia,ET,ETH,Āfar,Afar,ET-AF,state,,50.5,22718,22718,3,Africa/Addis_Ababa,FALSE,1231171609
Sek’ot’a,Sek'ot'a,Sokota|Socota|Sak’ot’ā|Sacaya|Socata|Saqot’a|Soketa,12.6253,39.0350,Ethiopia,ET,ETH,Āmara,Amara,ET-AM,state,,285.4,22346,22346,3,Africa/Addis_Ababa,FALSE,1231550759
Himora,Himora,"Humera|Khimora-1|Himora (1)|Al Homera",14.2861,36.6097,Ethiopia,ET,ETH,Tigray,Tigray,ET-TI,administration,,1530.4,21653,21653,3,Africa/Addis_Ababa,FALSE,1231449720
Mī’ēso,Mi'eso,Meheso|Miesso,9.2333,40.7500,Ethiopia,ET,ETH,Oromīya,Oromiya,ET-OR,state,,72.4,21348,21348,3,Africa/Addis_Ababa,FALSE,1231730193
Metahāra,Metahara,Matahārā|Metehara,8.9000,39.9167,Ethiopia,ET,ETH,Oromīya,Oromiya,ET-OR,state,,99.4,21348,21348,3,Africa/Addis_Ababa,FALSE,1231766002
Ādēt,Adet,"Addiet|Addiet Canna",11.2667,37.4833,Ethiopia,ET,ETH,Āmara,Amara,ET-AM,state,,198.0,21117,21117,3,Africa/Addis_Ababa,FALSE,1231929103
Injibara,Injibara,"Inja Bara|Ingiabara|Engiabara|Enjabārā",10.9500,36.9333,Ethiopia,ET,ETH,Āmara,Amara,ET-AM,state,,241.6,21065,21065,3,Africa/Addis_Ababa,FALSE,1231853157
Welench’ītī,Welench'iti,Ualankit|Uolenciti|Aualancheti|Wolinchiti|Uelenciti,8.6667,39.4333,Ethiopia,ET,ETH,Oromīya,Oromiya,ET-OR,state,,152.2,20984,20984,3,Africa/Addis_Ababa,FALSE,1231349696
Debark’,Debark',Dibark|Dabārk’|Debarek|Debarech|Davark|Devark|Debarec|Dabārq,13.1333,37.9000,Ethiopia,ET,ETH,Āmara,Amara,ET-AM,state,,131.5,20839,20839,3,Africa/Addis_Ababa,FALSE,1231894156
Batī,Bati,Batie|Batia,11.1833,40.0167,Ethiopia,ET,ETH,Āmara,Amara,ET-AM,state,,121.1,20536,20536,3,Africa/Addis_Ababa,FALSE,1231243570
Āsosa,Asosa,,10.0667,34.5167,Ethiopia,ET,ETH,"Bīnshangul Gumuz","Binshangul Gumuz",ET-BE,state,admin,51.1,20226,20226,2,Africa/Addis_Ababa,FALSE,1231491184
Bichena,Bichena,Bichana|Bechanā|Biccena,10.4500,38.2000,Ethiopia,ET,ETH,Āmara,Amara,ET-AM,state,,293.6,19916,19916,3,Africa/Addis_Ababa,FALSE,1231640166
Nejo,Nejo,Neggio|Nedjo|Najo|Nego|Neju,9.5000,35.5000,Ethiopia,ET,ETH,Oromīya,Oromiya,ET-OR,state,,176.9,19887,19887,3,Africa/Addis_Ababa,FALSE,1231617295
"Gebre Guracha","Gebre Guracha","Cuyu|Kuyu|Gabra Guracha|Gabre Guracha",9.8000,38.4000,Ethiopia,ET,ETH,Oromīya,Oromiya,ET-OR,state,,161.2,19830,19830,3,Africa/Addis_Ababa,FALSE,1231514161
Aysha,Aysha,Aiscia|Aicha|Ayshia|Aisha,10.7500,42.5667,Ethiopia,ET,ETH,Sumalē,Sumale,ET-SO,state,,10.8,19570,19570,3,Africa/Addis_Ababa,FALSE,1231232970
Bedelē,Bedele,Bedelle|Bedelli|Beddele,8.4500,36.3500,Ethiopia,ET,ETH,Oromīya,Oromiya,ET-OR,state,,3352.6,19517,19517,2,Africa/Addis_Ababa,FALSE,1231583728
Āsasa,Asasa,,7.1000,39.1944,Ethiopia,ET,ETH,Oromīya,Oromiya,ET-OR,state,,263.0,19506,19506,3,Africa/Addis_Ababa,FALSE,1231640244
Kemisē,Kemise,Kemsē|Kemissie|Cascim|Kassebie,10.7167,39.8667,Ethiopia,ET,ETH,Āmara,Amara,ET-AM,state,,6671.6,19420,19420,2,Africa/Addis_Ababa,FALSE,1231665461
Ābomsa,Abomsa,,8.5833,39.8500,Ethiopia,ET,ETH,Oromīya,Oromiya,ET-OR,state,,123.2,19208,19208,3,Africa/Addis_Ababa,FALSE,1231331780
"Nefas Mewch’a","Nefas Mewch'a","Nifas Mewch’a|Nefas Mucha|Nefas Moicha|Nefas Mocià|Ne Fas Macha",11.7333,38.4667,Ethiopia,ET,ETH,Āmara,Amara,ET-AM,state,,174.0,18691,18691,3,Africa/Addis_Ababa,FALSE,1231652571
Bedēsa,Bedesa,Bedessa,8.9000,40.7833,Ethiopia,ET,ETH,Oromīya,Oromiya,ET-OR,state,,8363.0,18187,18187,2,Africa/Addis_Ababa,FALSE,1231037182
Lalībela,Lalibela,Lālibalā|Labibela,12.0317,39.0411,Ethiopia,ET,ETH,Āmara,Amara,ET-AM,state,,141.1,17367,17367,3,Africa/Addis_Ababa,FALSE,1231020267
Gīnīr,Ginir,Ginnīr|Ghigner|Ghiignir|Ghimir|Ghinner|Ghinnir,7.1333,40.7000,Ethiopia,ET,ETH,Oromīya,Oromiya,ET-OR,state,,82.2,17102,17102,3,Africa/Addis_Ababa,FALSE,1231167016
Cheraro,Cheraro,,14.3958,37.7731,Ethiopia,ET,ETH,Tigray,Tigray,ET-TI,administration,,448.2,17045,17045,3,Africa/Addis_Ababa,FALSE,1231449470
Huruta,Huruta,"Hurruta|Huruta (1)|Uruta Mariam",8.1500,39.3500,Ethiopia,ET,ETH,Oromīya,Oromiya,ET-OR,state,,295.1,16922,16922,3,Africa/Addis_Ababa,FALSE,1231839518
Korem,Korem,"Kworam|Koram|Quorem|Quoram|Quaram|Quoram Vecchia",12.5000,39.5167,Ethiopia,ET,ETH,Tigray,Tigray,ET-TI,administration,,2783.0,16856,16856,2,Africa/Addis_Ababa,FALSE,1231332352
Dēra,Dera,Daià,8.3333,39.3167,Ethiopia,ET,ETH,Oromīya,Oromiya,ET-OR,state,,205.0,16731,16731,3,Africa/Addis_Ababa,FALSE,1231378383
Bek’ojī,Bek'oji,Bokoggi|Boccoggi|Bok’ojī|Bocoggi,7.5833,39.3333,Ethiopia,ET,ETH,Oromīya,Oromiya,ET-OR,state,,220.1,16730,16730,3,Africa/Addis_Ababa,FALSE,1231921614
Hīrna,Hirna,,9.2167,41.1000,Ethiopia,ET,ETH,Oromīya,Oromiya,ET-OR,state,,503.6,16726,16726,3,Africa/Addis_Ababa,FALSE,1231773847
Dejen,Dejen,Dingab|Degen,10.1667,38.1333,Ethiopia,ET,ETH,Āmara,Amara,ET-AM,state,,209.6,15483,15483,3,Africa/Addis_Ababa,FALSE,1231136097
"Funyan Bīra","Funyan Bira","Flambiro|Fiambiro|Funyan Jebe|Fugnan Hujuba|Fugnanbira|Bivio Fiambiro|Fun’yam-Dzheba|Funyan Jeba|Fiyambiro",9.3500,42.4000,Ethiopia,ET,ETH,Oromīya,Oromiya,ET-OR,state,,279.7,15478,15478,3,Africa/Addis_Ababa,FALSE,1231640828
Dembecha,Dembecha,Denbecha|Dambach’ā|Dembeccia|Dembechia,10.5500,37.4833,Ethiopia,ET,ETH,Āmara,Amara,ET-AM,state,,173.0,15008,15008,3,Africa/Addis_Ababa,FALSE,1231138306
Shambu,Shambu,Shambo|Sciambo|Shembo|Shembu,9.5667,37.1000,Ethiopia,ET,ETH,Oromīya,Oromiya,ET-OR,state,,2923.0,14995,14995,2,Africa/Addis_Ababa,FALSE,1231819871
Āfdem,Afdem,Afdam,9.4667,41.0000,Ethiopia,ET,ETH,Sumalē,Sumale,ET-SO,state,,52.0,14789,14789,3,Africa/Addis_Ababa,FALSE,1231882057
Kelafo,Kelafo,"Au Calif|Callafo|Qellafo|Kellafo",5.5889,44.2056,Ethiopia,ET,ETH,Sumalē,Sumale,ET-SO,state,,38.0,14242,14242,3,Africa/Addis_Ababa,FALSE,1231044866
Gesuba,Gesuba,Murie|Mure,6.7242,37.5567,Ethiopia,ET,ETH,"YeDebub Bihēroch Bihēreseboch na Hizboch","YeDebub Biheroch Bihereseboch na Hizboch",ET-SN,state,,396.7,13927,13927,3,Africa/Addis_Ababa,FALSE,1231778594
"Debre Werk’","Debre Werk'","Debra Uerch|Dabra-Warq|Debra Work|Debra Werk|Debra Uork|Debra Uorc|Debra Uorch|Debra Wark|Dabra Wark’",10.6667,38.1667,Ethiopia,ET,ETH,Āmara,Amara,ET-AM,state,,228.3,13908,13908,3,Africa/Addis_Ababa,FALSE,1231572143
"‘Alem T’ēna","`Alem T'ena","Alem Tenna",8.3000,38.9500,Ethiopia,ET,ETH,Oromīya,Oromiya,ET-OR,state,,246.4,13529,13529,3,Africa/Addis_Ababa,FALSE,1231008148
"Ādīs ‘Alem","Adis `Alem","Addis Alem|Addis-Ālam",9.0333,38.4000,Ethiopia,ET,ETH,Oromīya,Oromiya,ET-OR,state,,217.7,13423,13423,3,Africa/Addis_Ababa,FALSE,1231598304
Shīnīlē,Shinile,Cinile|Scenele|Ghinièle,9.6667,41.8333,Ethiopia,ET,ETH,Sumalē,Sumale,ET-SO,state,,16.6,13132,13132,3,Africa/Addis_Ababa,FALSE,1231940232
Kofelē,Kofele,Kefole|Cofole|Kofale,7.0000,38.7500,Ethiopia,ET,ETH,Oromīya,Oromiya,ET-OR,state,,397.7,13127,13127,3,Africa/Addis_Ababa,FALSE,1231392237
Dabat,Dabat,"Dahat|Dabat (2)",12.9842,37.7650,Ethiopia,ET,ETH,Āmara,Amara,ET-AM,state,,154.6,12574,12574,3,Africa/Addis_Ababa,FALSE,1231841967
Kwīhā,Kwiha,Kiviha|Kweha|Quiha|Kuikha|Kohā,13.4769,39.5450,Ethiopia,ET,ETH,Tigray,Tigray,ET-TI,administration,,30630.1,12543,12543,2,Africa/Addis_Ababa,FALSE,1231541994
Sendafa,Sendafa,Sandafe|Sendefà,9.1500,39.0333,Ethiopia,ET,ETH,Oromīya,Oromiya,ET-OR,state,,4272.7,12298,12298,2,Africa/Addis_Ababa,FALSE,1231004037
"Dolo Bay","Dolo Bay",Dolobaye|Dolo,4.1833,42.0833,Ethiopia,ET,ETH,Sumalē,Sumale,ET-SO,state,,19.3,11810,11810,3,Africa/Addis_Ababa,FALSE,1231539120
Negēlē,Negele,Neghelli|Negelli|Nagēlē|Neghelle|Negelle|Negelie,5.3167,39.5833,Ethiopia,ET,ETH,Oromīya,Oromiya,ET-OR,state,,2406.4,11772,11772,2,Africa/Addis_Ababa,FALSE,1231215294
Fīnch’a’ā,Finch'a'a,Finchawa|Fincha,9.9000,37.4500,Ethiopia,ET,ETH,Oromīya,Oromiya,ET-OR,state,,65.0,11134,11134,3,Africa/Addis_Ababa,TRUE,1231348007
Āwash,Awash,Auasc,8.9944,40.1667,Ethiopia,ET,ETH,Āfar,Afar,ET-AF,state,,30.3,11053,11053,3,Africa/Addis_Ababa,FALSE,1231768288
Chencha,Chencha,Cencia|Dincia|Dincha|Cengia,6.2500,37.5667,Ethiopia,ET,ETH,"YeDebub Bihēroch Bihēreseboch na Hizboch","YeDebub Biheroch Bihereseboch na Hizboch",ET-SN,state,,434.0,10488,10488,3,Africa/Addis_Ababa,FALSE,1231948389
Kele,Kele,Kelie,6.0833,38.0333,Ethiopia,ET,ETH,Oromīya,Oromiya,ET-OR,state,,73.7,10084,10084,3,Africa/Addis_Ababa,FALSE,1231687475
"Were Īlu","Were Ilu","Uorre Ilu|Warra Hailu|Ware Ilu|Wara Hāylu|Woreyilu|Wereyilu|Warayelu|Uorra Ilu",10.6000,39.4333,Ethiopia,ET,ETH,Āmara,Amara,ET-AM,state,,184.0,10062,10062,3,Africa/Addis_Ababa,FALSE,1231595190
Sagurē,Sagure,Saggure,7.7500,39.1500,Ethiopia,ET,ETH,Oromīya,Oromiya,ET-OR,state,,210.9,9960,9960,3,Africa/Addis_Ababa,FALSE,1231246746
Mēga,Mega,Megga,4.0167,38.2500,Ethiopia,ET,ETH,Oromīya,Oromiya,ET-OR,state,,9.7,9370,9370,4,Africa/Addis_Ababa,FALSE,1231972849
Gorē,Gore,Gwore|Gannat|Gorei|Genud,8.1490,35.5370,Ethiopia,ET,ETH,Oromīya,Oromiya,ET-OR,state,,263.5,9352,9352,3,Africa/Addis_Ababa,FALSE,1231481918
Shendē,Shende,"Shendie Gebreal|Shinde Gabriel|Shindī",10.6333,36.9333,Ethiopia,ET,ETH,Āmara,Amara,ET-AM,state,,96.2,9293,9293,4,Africa/Addis_Ababa,FALSE,1231251281
Bīkē,Bike,Bicket|Biche|Biki|Bicchè|Bikki,9.5297,41.1969,Ethiopia,ET,ETH,Sumalē,Sumale,ET-SO,state,,52.0,9197,9197,4,Africa/Addis_Ababa,FALSE,1231520658
Intich’o,Intich'o,Intīch’ew|Entisciò|Ent’ech’o|Enticho|Entichew|Enticcio,14.2667,39.1500,Ethiopia,ET,ETH,Tigray,Tigray,ET-TI,administration,,185.1,9048,9048,4,Africa/Addis_Ababa,FALSE,1231591819
"Ādamī Tulu","Adami Tulu",Adamitullo|Addamitullu,7.8667,38.7000,Ethiopia,ET,ETH,Oromīya,Oromiya,ET-OR,state,,201.7,9034,9034,3,Africa/Addis_Ababa,FALSE,1231102446
"Hāgere Selam","Hagere Selam","Agheresalam|Hula|Agere Selam",6.4833,38.5167,Ethiopia,ET,ETH,"YeDebub Bihēroch Bihēreseboch na Hizboch","YeDebub Biheroch Bihereseboch na Hizboch",ET-SN,state,,641.8,8491,8491,3,Africa/Addis_Ababa,FALSE,1231320016
"Mekane Selam","Mekane Selam","Mekane Salam|Denbi Mekane Selam|Agibar",10.7500,38.7500,Ethiopia,ET,ETH,Āmara,Amara,ET-AM,state,,158.1,8481,8481,3,Africa/Addis_Ababa,FALSE,1231776750
"Idaga Hamus","Idaga Hamus","Idagaamus|Edaga Hamus|Adagamus",14.1833,39.5667,Ethiopia,ET,ETH,Tigray,Tigray,ET-TI,administration,,164.2,8474,8474,4,Africa/Addis_Ababa,FALSE,1231497904
Gewanē,Gewane,Gouani|Gawāni|Gewanī|Gauani,10.1664,40.6453,Ethiopia,ET,ETH,Āfar,Afar,ET-AF,state,,4.8,8408,8408,3,Africa/Addis_Ababa,FALSE,1231439257
Mambuk,Mambuk,Mambuc,11.2833,36.2167,Ethiopia,ET,ETH,"Bīnshangul Gumuz","Binshangul Gumuz",ET-BE,state,,14.0,8352,8352,4,Africa/Addis_Ababa,FALSE,1231642783
Gīdolē,Gidole,Ghidole|Ghidolie,5.6500,37.3667,Ethiopia,ET,ETH,"YeDebub Bihēroch Bihēreseboch na Hizboch","YeDebub Biheroch Bihereseboch na Hizboch",ET-SN,state,,118.5,8167,8167,3,Africa/Addis_Ababa,FALSE,1231448101
"Hāgere Selam","Hagere Selam","Khagere Selam",13.6500,39.1667,Ethiopia,ET,ETH,Tigray,Tigray,ET-TI,administration,,150.3,8130,8130,4,Africa/Addis_Ababa,FALSE,1231536695
"Ādī Āmday","Adi Amday","Addi Amday",13.6333,39.3333,Ethiopia,ET,ETH,Tigray,Tigray,ET-TI,administration,,74.0,7885,7885,4,Africa/Addis_Ababa,FALSE,1231240647
Rama,Rama,"Lala|Mai Lala",14.4167,38.7833,Ethiopia,ET,ETH,Tigray,Tigray,ET-TI,administration,,114.4,7824,7824,4,Africa/Addis_Ababa,FALSE,1231439144
Negash,Negash,,13.8814,39.5989,Ethiopia,ET,ETH,Tigray,Tigray,ET-TI,administration,,135.6,7753,7753,4,Africa/Addis_Ababa,FALSE,1231196111
"Kara K’orē","Kara K'ore",Karakorie|Caracore,10.4833,39.9333,Ethiopia,ET,ETH,Āmara,Amara,ET-AM,state,,277.5,7487,7487,3,Africa/Addis_Ababa,FALSE,1231620488
Mekoy,Mekoy,,10.7167,39.7500,Ethiopia,ET,ETH,Āmara,Amara,ET-AM,state,,261.0,7487,7487,3,Africa/Addis_Ababa,FALSE,1231725055
Selekleka,Selekleka,Slehleka|Seleklaka|Selaclaca|Salaklakā|Koyetsa,14.1167,38.4833,Ethiopia,ET,ETH,Tigray,Tigray,ET-TI,administration,,161.9,7391,7391,4,Africa/Addis_Ababa,FALSE,1231205130
Shilabo,Shilabo,Shīlabē|Scillave|Shelabo,6.1000,44.7667,Ethiopia,ET,ETH,Sumalē,Sumale,ET-SO,state,,8.8,7239,7239,4,Africa/Addis_Ababa,FALSE,1231885645
Bambesi,Bambesi,"Bombasci|Abu Matis|Bambīshī|Abba Moti",9.7500,34.7333,Ethiopia,ET,ETH,"Bīnshangul Gumuz","Binshangul Gumuz",ET-BE,state,,53.0,7166,7166,4,Africa/Addis_Ababa,FALSE,1231488714
Rēma,Rema,"Rēma (1)",10.2761,38.9178,Ethiopia,ET,ETH,Āmara,Amara,ET-AM,state,,142.7,7000,7000,4,Africa/Addis_Ababa,FALSE,1231452980
Wich’alē,Wich'ale,Uccialli|Uchialli|Wuchale,11.5000,39.6000,Ethiopia,ET,ETH,Āmara,Amara,ET-AM,state,,174.1,6811,6811,3,Africa/Addis_Ababa,FALSE,1231079017
Beigi,Beigi,Ghermus|Germus|Beica|Begi,9.3333,34.4833,Ethiopia,ET,ETH,Oromīya,Oromiya,ET-OR,state,,169.6,6106,6106,3,Africa/Addis_Ababa,FALSE,1231164901
Bulk’ī,Bulk'i,,6.2833,36.8111,Ethiopia,ET,ETH,"YeDebub Bihēroch Bihēreseboch na Hizboch","YeDebub Biheroch Bihereseboch na Hizboch",ET-SN,state,,204.8,5878,5878,3,Africa/Addis_Ababa,TRUE,1231757943
"Inda Silasē","Inda Silase","Enda Selassie|Asbi|Inda Selassie|Inda Silasē Āts’bī|Azbi",13.8667,39.7333,Ethiopia,ET,ETH,Tigray,Tigray,ET-TI,administration,,134.8,5857,5857,4,Africa/Addis_Ababa,TRUE,1231170099
Hawzēn,Hawzen,Hāwuzēn|Hausien|Khauzen|Hauzien,13.9833,39.4333,Ethiopia,ET,ETH,Tigray,Tigray,ET-TI,administration,,189.6,5638,5638,4,Africa/Addis_Ababa,FALSE,1231645795
"Yismala Gīyorgīs","Yismala Giyorgis","Yismala Geyorgis|Ismala Chiorghis|Ismala|Ismala Gheorghis|Yismala Giorgis",11.6000,36.9500,Ethiopia,ET,ETH,Āmara,Amara,ET-AM,state,,208.0,5309,5309,3,Africa/Addis_Ababa,FALSE,1231905326
"Adi Remets","Adi Remets","Adi Erzanye|Adi Remoz|Ādī Remet|Ādī Ramets’|Adi Remots|Adi Remos",13.7500,37.3167,Ethiopia,ET,ETH,Tigray,Tigray,ET-TI,administration,,49.9,5203,5203,4,Africa/Addis_Ababa,FALSE,1231445860
Dibate,Dibate,Debatie|Dibati,10.6500,36.2167,Ethiopia,ET,ETH,"Bīnshangul Gumuz","Binshangul Gumuz",ET-BE,state,,43.3,5010,5010,4,Africa/Addis_Ababa,FALSE,1231680295
Gīdamī,Gidami,"K’idamē Gebeya|Gadamo|Gidamie|Gadame|Ghidami",8.9833,34.6167,Ethiopia,ET,ETH,Oromīya,Oromiya,ET-OR,state,,65.6,5007,5007,3,Africa/Addis_Ababa,FALSE,1231392313
Gorgora,Gorgora,,12.2333,37.3000,Ethiopia,ET,ETH,Āmara,Amara,ET-AM,state,,271.6,4783,4783,3,Africa/Addis_Ababa,FALSE,1231760810
Āgula-e,Agula-e,Āgula‘i|Agulà|Agulaā|Agulla,13.6917,39.5917,Ethiopia,ET,ETH,Tigray,Tigray,ET-TI,administration,,135.6,4636,4636,4,Africa/Addis_Ababa,FALSE,1231702374
Konso,Konso,,5.2500,37.4833,Ethiopia,ET,ETH,"YeDebub Bihēroch Bihēreseboch na Hizboch","YeDebub Biheroch Bihereseboch na Hizboch",ET-SN,state,,158.6,4593,4593,4,Africa/Addis_Ababa,FALSE,1231687295
Meraro,Meraro,,7.4100,39.2356,Ethiopia,ET,ETH,Oromīya,Oromiya,ET-OR,state,,220.1,4307,4307,3,Africa/Addis_Ababa,FALSE,1231908013
"Debre Zeyit","Debre Zeyit","Wembera|Wanbera|Wombera|Umbera|Debre Zeyt|Wambarā|Uombera|Uambera|Debre Zeit",10.5833,35.8000,Ethiopia,ET,ETH,"Bīnshangul Gumuz","Binshangul Gumuz",ET-BE,state,,12.6,4179,4179,4,Africa/Addis_Ababa,FALSE,1231569482
Getema,Getema,Katama|Catama|Gatama,8.9000,36.4833,Ethiopia,ET,ETH,Oromīya,Oromiya,ET-OR,state,,175.3,4082,4082,3,Africa/Addis_Ababa,FALSE,1231274353
Indibir,Indibir,Endeber|Imdibir,8.1167,37.9333,Ethiopia,ET,ETH,"YeDebub Bihēroch Bihēreseboch na Hizboch","YeDebub Biheroch Bihereseboch na Hizboch",ET-SN,state,,289.1,4057,4057,3,Africa/Addis_Ababa,FALSE,1231422581
Tenta,Tenta,,11.3167,39.2500,Ethiopia,ET,ETH,Āmara,Amara,ET-AM,state,,161.0,4022,4022,3,Africa/Addis_Ababa,FALSE,1231543752
Gondē,Gonde,Gondi,8.0500,39.3000,Ethiopia,ET,ETH,Oromīya,Oromiya,ET-OR,state,,240.5,3965,3965,3,Africa/Addis_Ababa,FALSE,1231724838
Samrē,Samre,"Tsarma|Mariam Tsarma|Zamara",13.1833,39.2000,Ethiopia,ET,ETH,Tigray,Tigray,ET-TI,administration,,99.0,3712,3712,4,Africa/Addis_Ababa,FALSE,1231846667
Dīnsho,Dinsho,Gurie,7.0833,39.7500,Ethiopia,ET,ETH,Oromīya,Oromiya,ET-OR,state,,88.1,3609,3609,4,Africa/Addis_Ababa,FALSE,1231291861
Īteya,Iteya,Itiya|Ītaya|Eteya|Etaya,8.1333,39.2333,Ethiopia,ET,ETH,Oromīya,Oromiya,ET-OR,state,,259.4,3601,3601,3,Africa/Addis_Ababa,FALSE,1231290010
Ītang,Itang,,8.2000,34.2667,Ethiopia,ET,ETH,"Gambēla Hizboch","Gambela Hizboch",ET-GA,administration,,29.6,3601,3601,4,Africa/Addis_Ababa,FALSE,1231478189
"Gishe Ābay","Gishe Abay","Gish Abay|Sekela Gish Ābay|Sekela|Abbai|Abai|Ghisc Abbai|Gshe Abay|Gesh Abai Michael",10.9833,37.2167,Ethiopia,ET,ETH,Āmara,Amara,ET-AM,state,,233.9,3385,3385,3,Africa/Addis_Ababa,FALSE,1231857776
Dewelē,Dewele,Daouénle|Duanle|Dawanlē,11.0347,42.6314,Ethiopia,ET,ETH,Sumalē,Sumale,ET-SO,state,,10.8,3357,3357,3,Africa/Addis_Ababa,FALSE,1231915109
"Ējersa Goro","Ejersa Goro",Edzhersa-Goro,9.4833,42.2333,Ethiopia,ET,ETH,Oromīya,Oromiya,ET-OR,state,,313.2,3104,3104,3,Africa/Addis_Ababa,FALSE,1231374305
Majī,Maji,Magi,6.2000,35.5833,Ethiopia,ET,ETH,"YeDebub Bihēroch Bihēreseboch na Hizboch","YeDebub Biheroch Bihereseboch na Hizboch",ET-SN,state,,9.9,2930,2930,4,Africa/Addis_Ababa,FALSE,1231039701
Yetman,Yetman,,10.3333,38.1333,Ethiopia,ET,ETH,Āmara,Amara,ET-AM,state,,293.6,2896,2896,3,Africa/Addis_Ababa,FALSE,1231770481
"Aliyu Amba","Aliyu Amba","Alio Amba",9.5333,39.8000,Ethiopia,ET,ETH,Āmara,Amara,ET-AM,state,,140.0,2873,2873,3,Africa/Addis_Ababa,FALSE,1231806045
"Mekane Birhan","Mekane Birhan","Mekane Birhan (2)",12.9833,38.1167,Ethiopia,ET,ETH,Āmara,Amara,ET-AM,state,,120.4,2717,2717,3,Africa/Addis_Ababa,FALSE,1231481721
"Sela Dingay","Sela Dingay","Salla Dingai|Sahla Dengai|Sahala|Sabala|Sala Dingai|Salā Dengāy|Sabala Dingai|Sela Dengay",9.9667,39.6333,Ethiopia,ET,ETH,Āmara,Amara,ET-AM,state,,144.6,2707,2707,3,Africa/Addis_Ababa,FALSE,1231845484
"Dengel Ber","Dengel Ber",Denghelbar|Dengelbar|Denghelber,11.9500,37.0000,Ethiopia,ET,ETH,Āmara,Amara,ET-AM,state,,116.0,2439,2439,3,Africa/Addis_Ababa,FALSE,1231724275
Bantu,Bantu,"Liven|Bantu Liben",8.6167,38.3667,Ethiopia,ET,ETH,Oromīya,Oromiya,ET-OR,state,,220.0,2381,2381,3,Africa/Addis_Ababa,FALSE,1231891681
Ankober,Ankober,Ancobar|Gourabela|Gorebela|Ancober|Ankobar,9.6077,39.7362,Ethiopia,ET,ETH,Āmara,Amara,ET-AM,state,,140.0,2288,2288,3,Africa/Addis_Ababa,FALSE,1231165301
Lasarat,Lasarat,"Laso Harrad|Lassarat|Las Harad",10.6667,42.4500,Ethiopia,ET,ETH,Sumalē,Sumale,ET-SO,state,,10.8,2269,2269,4,Africa/Addis_Ababa,FALSE,1231234229
"Elda ar","Elda ar","Elidahar|Ēlīda’ār|Eli Dar",12.0500,41.9167,Ethiopia,ET,ETH,Āfar,Afar,ET-AF,state,,6.2,2228,2228,4,Africa/Addis_Ababa,FALSE,1231102934
Āydora,Aydora,"Lager’ 1|Āydora (1)",9.8592,41.3694,Ethiopia,ET,ETH,Sumalē,Sumale,ET-SO,state,,36.1,2168,2168,4,Africa/Addis_Ababa,TRUE,1231535300
Assaco,Assaco,Assako,8.5167,40.0333,Ethiopia,ET,ETH,Oromīya,Oromiya,ET-OR,state,,232.5,1961,1961,3,Africa/Addis_Ababa,FALSE,1231399850
Soderē,Sodere,"Sodorē Ye’Meznanya Bota|Sodore",8.4000,39.3833,Ethiopia,ET,ETH,Oromīya,Oromiya,ET-OR,state,,233.6,1867,1867,3,Africa/Addis_Ababa,FALSE,1231587697
Dīgelu,Digelu,"Digelu Kidame Gebeya",7.7500,39.2500,Ethiopia,ET,ETH,Oromīya,Oromiya,ET-OR,state,,210.9,1643,1643,3,Africa/Addis_Ababa,FALSE,1231601799
Meteka,Meteka,,9.8667,40.5167,Ethiopia,ET,ETH,Āfar,Afar,ET-AF,state,,7.0,1579,1579,4,Africa/Addis_Ababa,FALSE,1231863709
"Debre Selam","Debre Selam",,8.2500,40.1333,Ethiopia,ET,ETH,Oromīya,Oromiya,ET-OR,state,,148.1,1465,1465,4,Africa/Addis_Ababa,FALSE,1231518966
Hint’alo,Hint'alo,Int’alo|Hentald|Antālo,13.3167,39.4500,Ethiopia,ET,ETH,Tigray,Tigray,ET-TI,administration,,108.6,1179,1179,4,Africa/Addis_Ababa,FALSE,1231017400
Bolo,Bolo,"Bollo Selassie",8.8333,39.3667,Ethiopia,ET,ETH,Āmara,Amara,ET-AM,state,,97.8,1157,1157,4,Africa/Addis_Ababa,TRUE,1231242467
Turmi,Turmi,,4.9667,36.4833,Ethiopia,ET,ETH,"YeDebub Bihēroch Bihēreseboch na Hizboch","YeDebub Biheroch Bihereseboch na Hizboch",ET-SN,state,,14.4,1087,1087,3,Africa/Addis_Ababa,FALSE,1231138211
Ārjo,Arjo,Argio,8.8167,36.4667,Ethiopia,ET,ETH,Oromīya,Oromiya,ET-OR,state,,162.1,1000,1000,4,Africa/Addis_Ababa,FALSE,1231791652
Gota,Gota,"Gota Marmarsa",9.5167,41.3333,Ethiopia,ET,ETH,Sumalē,Sumale,ET-SO,state,,36.1,869,869,4,Africa/Addis_Ababa,FALSE,1231900892
Kurmuk,Kurmuk,,10.5572,34.2955,Ethiopia,ET,ETH,"Bīnshangul Gumuz","Binshangul Gumuz",ET-BE,state,,16.4,554,554,3,Africa/Khartoum,FALSE,1231143636
Mengē,Menge,Mengie,10.3833,34.7667,Ethiopia,ET,ETH,"Bīnshangul Gumuz","Binshangul Gumuz",ET-BE,state,,38.2,318,318,4,Africa/Addis_Ababa,FALSE,1231670889
Yegora,Yegora,,10.1500,37.8500,Ethiopia,ET,ETH,Āmara,Amara,ET-AM,state,,181.4,,,4,Africa/Addis_Ababa,FALSE,1231506859
Fina,Fina,Faina,8.1667,34.2333,Ethiopia,ET,ETH,"Gambēla Hizboch","Gambela Hizboch",ET-GA,administration,,29.6,,,4,Africa/Addis_Ababa,FALSE,1231146166
"Debre Medahani","Debre Medahani",,11.7167,38.3667,Ethiopia,ET,ETH,Āmara,Amara,ET-AM,state,,174.0,,,4,Africa/Addis_Ababa,FALSE,1231139056
Rocabaita,Rocabaita,Rokabaita,14.5581,38.2469,Ethiopia,ET,ETH,Tigray,Tigray,ET-TI,administration,,85.8,,,4,Africa/Addis_Ababa,FALSE,1231166376
Āt’ebela,At'ebela,"Āt’ebela (2)",8.8167,38.5833,Ethiopia,ET,ETH,Oromīya,Oromiya,ET-OR,state,,212.8,,,3,Africa/Addis_Ababa,FALSE,1231372640
Melk’umba,Melk'umba,,13.3614,39.2557,Ethiopia,ET,ETH,Tigray,Tigray,ET-TI,administration,,99.0,,,4,Africa/Addis_Ababa,FALSE,1231791831
Goch’er,Goch'er,Cocior,9.6167,37.3000,Ethiopia,ET,ETH,Oromīya,Oromiya,ET-OR,state,,100.8,,,4,Africa/Addis_Ababa,FALSE,1231443398
Muk’ogo,Muk'ogo,,12.3500,38.9833,Ethiopia,ET,ETH,Āmara,Amara,ET-AM,state,,96.0,,,4,Africa/Addis_Ababa,FALSE,1231046584
Gasay,Gasay,,11.8000,38.1333,Ethiopia,ET,ETH,Āmara,Amara,ET-AM,state,,249.9,,,3,Africa/Addis_Ababa,FALSE,1231469844
Gadober,Gadober,,13.4500,38.6333,Ethiopia,ET,ETH,Āmara,Amara,ET-AM,state,,68.9,,,4,Africa/Addis_Ababa,FALSE,1231960637
Dimbel,Dimbel,Goaggiem|Goaggien,14.0491,39.6875,Ethiopia,ET,ETH,Tigray,Tigray,ET-TI,administration,,163.1,,,4,Africa/Addis_Ababa,FALSE,1231451963
"Ādī Kolen","Adi Kolen",,13.4333,39.3667,Ethiopia,ET,ETH,Tigray,Tigray,ET-TI,administration,,113.5,,,4,Africa/Addis_Ababa,FALSE,1231645020
Bermagog,Bermagog,,5.4339,44.9983,Ethiopia,ET,ETH,Sumalē,Sumale,ET-SO,state,,14.7,,,4,Africa/Addis_Ababa,FALSE,1231764285
"Īje Lola","Ije Lola",,8.8285,42.1687,Ethiopia,ET,ETH,Oromīya,Oromiya,ET-OR,state,,134.0,,,4,Africa/Addis_Ababa,FALSE,1231329396
Bukero,Bukero,"Bukero (1)",11.7000,39.6000,Ethiopia,ET,ETH,Āmara,Amara,ET-AM,state,,183.8,,,4,Africa/Addis_Ababa,FALSE,1231593674
"Ula Uda","Ula Uda",,9.2167,38.0167,Ethiopia,ET,ETH,Oromīya,Oromiya,ET-OR,state,,231.8,,,3,Africa/Addis_Ababa,FALSE,1231898193
Tēgē,Tege,,9.2000,35.3833,Ethiopia,ET,ETH,Oromīya,Oromiya,ET-OR,state,,216.3,,,3,Africa/Addis_Ababa,FALSE,1231499208
"Bar Shēvēl","Bar Shevel","Bar Sciavel",5.2833,42.3167,Ethiopia,ET,ETH,Sumalē,Sumale,ET-SO,state,,17.7,,,4,Africa/Addis_Ababa,FALSE,1231421527
"Messecher Gabriel","Messecher Gabriel",,13.5167,38.0500,Ethiopia,ET,ETH,Tigray,Tigray,ET-TI,administration,,68.9,,,4,Africa/Addis_Ababa,FALSE,1231749535
But’ulī,But'uli,,9.6667,38.7500,Ethiopia,ET,ETH,Oromīya,Oromiya,ET-OR,state,,227.9,,,3,Africa/Addis_Ababa,FALSE,1231393435
Islamba,Islamba,,9.6542,39.7428,Ethiopia,ET,ETH,Āmara,Amara,ET-AM,state,,140.0,,,4,Africa/Addis_Ababa,FALSE,1231215261
K’ut’ayē,K'ut'aye,,10.6905,39.4170,Ethiopia,ET,ETH,Āmara,Amara,ET-AM,state,,184.0,,,4,Africa/Addis_Ababa,FALSE,1231014562
Āykel,Aykel,,12.5500,37.0667,Ethiopia,ET,ETH,Āmara,Amara,ET-AM,state,,88.8,,,4,Africa/Addis_Ababa,FALSE,1231586434
Ājo,Ajo,,9.0667,37.6167,Ethiopia,ET,ETH,Oromīya,Oromiya,ET-OR,state,,146.6,,,4,Africa/Addis_Ababa,FALSE,1231381905
Wīlo,Wilo,,9.6167,37.7833,Ethiopia,ET,ETH,Oromīya,Oromiya,ET-OR,state,,120.0,,,4,Africa/Addis_Ababa,FALSE,1231743306
Harorēys,Haroreys,Kharoreys,9.4383,43.0278,Ethiopia,ET,ETH,Sumalē,Sumale,ET-SO,state,,192.5,,,4,Africa/Addis_Ababa,FALSE,1231103448
Iecumbal,Iecumbal,,10.8167,37.3833,Ethiopia,ET,ETH,Āmara,Amara,ET-AM,state,,199.3,,,4,Africa/Addis_Ababa,FALSE,1231249486
"Harbu Āba Hola","Harbu Aba Hola",,9.4000,37.0833,Ethiopia,ET,ETH,Oromīya,Oromiya,ET-OR,state,,232.5,,,3,Africa/Addis_Ababa,FALSE,1231730439
Ch’isa,Ch'isa,,10.6667,39.3833,Ethiopia,ET,ETH,Āmara,Amara,ET-AM,state,,184.0,,,4,Africa/Addis_Ababa,FALSE,1231584209
Abuto,Abuto,,10.9687,39.5622,Ethiopia,ET,ETH,Āmara,Amara,ET-AM,state,,169.8,,,4,Africa/Addis_Ababa,FALSE,1231565425
Boudi,Boudi,,4.0833,40.1333,Ethiopia,ET,ETH,Oromīya,Oromiya,ET-OR,state,,28.1,,,4,Africa/Addis_Ababa,FALSE,1231249511
Guragē,Gurage,,9.6667,38.7833,Ethiopia,ET,ETH,Oromīya,Oromiya,ET-OR,state,,281.3,,,3,Africa/Addis_Ababa,FALSE,1231012700
Bochiaba,Bochiaba,Bacialbà,7.5667,33.9333,Ethiopia,ET,ETH,"Gambēla Hizboch","Gambela Hizboch",ET-GA,administration,,4.9,,,5,Africa/Addis_Ababa,FALSE,1231133978
"Agab Uorchei","Agab Uorchei","Akab Workei|Agab Workei|Agab Worchei",13.7000,36.9667,Ethiopia,ET,ETH,Tigray,Tigray,ET-TI,administration,,49.9,,,4,Africa/Addis_Ababa,FALSE,1231329730
Funyanē,Funyane,,9.2558,41.6261,Ethiopia,ET,ETH,Oromīya,Oromiya,ET-OR,state,,563.1,,,3,Africa/Addis_Ababa,FALSE,1231000670
Zinz,Zinz,,10.3584,39.5072,Ethiopia,ET,ETH,Āmara,Amara,ET-AM,state,,141.7,,,4,Africa/Addis_Ababa,FALSE,1231063544
Zinz,Zinz,Medich,10.0251,39.3736,Ethiopia,ET,ETH,Āmara,Amara,ET-AM,state,,59.3,,,4,Africa/Addis_Ababa,TRUE,1231811292
Bidrē,Bidre,Biderre,5.9167,39.6333,Ethiopia,ET,ETH,Oromīya,Oromiya,ET-OR,state,,17.1,,,4,Africa/Addis_Ababa,FALSE,1231162669
Dīyīlu,Diyilu,,9.6106,40.2474,Ethiopia,ET,ETH,Āfar,Afar,ET-AF,state,,22.0,,,4,Africa/Addis_Ababa,FALSE,1231799161
Gagab,Gagab,,8.1667,43.8000,Ethiopia,ET,ETH,Sumalē,Sumale,ET-SO,state,,11.1,,,4,Africa/Addis_Ababa,FALSE,1231322390
Mulig,Mulig,Mulg,8.1500,38.2667,Ethiopia,ET,ETH,"YeDebub Bihēroch Bihēreseboch na Hizboch","YeDebub Biheroch Bihereseboch na Hizboch",ET-SN,state,,322.8,,,3,Africa/Addis_Ababa,FALSE,1231446847
"Adi Laha","Adi Laha","Adi Lakha",14.2673,38.3896,Ethiopia,ET,ETH,Tigray,Tigray,ET-TI,administration,,85.8,,,4,Africa/Addis_Ababa,FALSE,1231178803
Additu,Additu,,14.0313,38.7390,Ethiopia,ET,ETH,Tigray,Tigray,ET-TI,administration,,184.1,,,4,Africa/Addis_Ababa,FALSE,1231091819
"Āk’abī Se’āt","Ak'abi Se'at",,14.1060,38.4961,Ethiopia,ET,ETH,Tigray,Tigray,ET-TI,administration,,163.0,,,4,Africa/Addis_Ababa,FALSE,1231006828
Gherbidda,Gherbidda,,11.7833,39.6000,Ethiopia,ET,ETH,Āmara,Amara,ET-AM,state,,179.4,,,4,Africa/Addis_Ababa,FALSE,1231296559
Badica,Badica,Badika,6.7496,34.8910,Ethiopia,ET,ETH,"YeDebub Bihēroch Bihēreseboch na Hizboch","YeDebub Biheroch Bihereseboch na Hizboch",ET-SN,state,,1.9,,,5,Africa/Addis_Ababa,FALSE,1231000048
"Degel Ch’īs","Degel Ch'is","Degl Ch’īs",9.8333,37.0500,Ethiopia,ET,ETH,Oromīya,Oromiya,ET-OR,state,,61.6,,,4,Africa/Addis_Ababa,FALSE,1231675388
Doale,Doale,,10.2833,42.3833,Ethiopia,ET,ETH,Sumalē,Sumale,ET-SO,state,,16.6,,,4,Africa/Addis_Ababa,FALSE,1231746759
Guasasali,Guasasali,,6.5783,42.8267,Ethiopia,ET,ETH,Sumalē,Sumale,ET-SO,state,,12.0,,,4,Africa/Addis_Ababa,FALSE,1231611154
"Metkel Īlama","Metkel Ilama",,13.7038,39.5788,Ethiopia,ET,ETH,Tigray,Tigray,ET-TI,administration,,135.6,,,4,Africa/Addis_Ababa,FALSE,1231599202
Hāmbēntu,Hambentu,,7.3667,39.9500,Ethiopia,ET,ETH,Oromīya,Oromiya,ET-OR,state,,100.3,,,4,Africa/Addis_Ababa,FALSE,1231876956
Gotet,Gotet,,9.8068,39.1655,Ethiopia,ET,ETH,Āmara,Amara,ET-AM,state,,165.7,,,4,Africa/Addis_Ababa,FALSE,1231653937
"Ādī K’o’o","Adi K'o'o",,14.3983,39.1106,Ethiopia,ET,ETH,Tigray,Tigray,ET-TI,administration,,185.1,,,4,Africa/Addis_Ababa,FALSE,1231675554
Mak’udī,Mak'udi,,13.8311,39.4256,Ethiopia,ET,ETH,Tigray,Tigray,ET-TI,administration,,135.6,,,4,Africa/Addis_Ababa,FALSE,1231425996
Cabahot,Cabahot,Kabakhot,7.8047,43.9442,Ethiopia,ET,ETH,Sumalē,Sumale,ET-SO,state,,11.1,,,4,Africa/Addis_Ababa,FALSE,1231845872
Manetī,Maneti,,9.1000,35.7333,Ethiopia,ET,ETH,Oromīya,Oromiya,ET-OR,state,,303.3,,,3,Africa/Addis_Ababa,FALSE,1231351523
Talē,Tale,,9.2000,36.8333,Ethiopia,ET,ETH,Oromīya,Oromiya,ET-OR,state,,147.9,,,4,Africa/Addis_Ababa,FALSE,1231834899
Dulale,Dulale,,10.5333,40.5000,Ethiopia,ET,ETH,Āfar,Afar,ET-AF,state,,41.8,,,4,Africa/Addis_Ababa,FALSE,1231814500
Belēy,Beley,,9.5619,42.9319,Ethiopia,ET,ETH,Sumalē,Sumale,ET-SO,state,,192.5,,,4,Africa/Addis_Ababa,FALSE,1231383228
"Ādī Āba Jebano","Adi Aba Jebano",,12.5667,39.7667,Ethiopia,ET,ETH,Tigray,Tigray,ET-TI,administration,,104.2,,,4,Africa/Addis_Ababa,FALSE,1231855215
Boda,Boda,,6.4500,37.3667,Ethiopia,ET,ETH,"YeDebub Bihēroch Bihēreseboch na Hizboch","YeDebub Biheroch Bihereseboch na Hizboch",ET-SN,state,,147.8,,,4,Africa/Addis_Ababa,FALSE,1231921032
Dalota,Dalota,,9.8333,38.9167,Ethiopia,ET,ETH,Āmara,Amara,ET-AM,state,,188.3,,,4,Africa/Addis_Ababa,FALSE,1231477000
Ch’emoga,Ch'emoga,,10.3000,37.7667,Ethiopia,ET,ETH,Āmara,Amara,ET-AM,state,,173.8,,,4,Africa/Addis_Ababa,FALSE,1231202194
Bersīsī,Bersisi,,7.3500,36.8833,Ethiopia,ET,ETH,Oromīya,Oromiya,ET-OR,state,,294.0,,,3,Africa/Addis_Ababa,FALSE,1231745328
Sedīko,Sediko,,10.0167,38.5000,Ethiopia,ET,ETH,Oromīya,Oromiya,ET-OR,state,,260.9,,,3,Africa/Addis_Ababa,FALSE,1231672012
Ulahama,Ulahama,Ulakhama,9.6372,42.1500,Ethiopia,ET,ETH,Oromīya,Oromiya,ET-OR,state,,444.7,,,3,Africa/Addis_Ababa,FALSE,1231503783
Bodoacio,Bodoacio,,7.1500,37.8333,Ethiopia,ET,ETH,"YeDebub Bihēroch Bihēreseboch na Hizboch","YeDebub Biheroch Bihereseboch na Hizboch",ET-SN,state,,756.0,,,3,Africa/Addis_Ababa,FALSE,1231888733
"Hāra Gebeya","Hara Gebeya",,11.8333,39.7333,Ethiopia,ET,ETH,Āmara,Amara,ET-AM,state,,179.4,,,4,Africa/Addis_Ababa,FALSE,1231769886
Ādamē,Adame,,11.3500,39.8500,Ethiopia,ET,ETH,Āmara,Amara,ET-AM,state,,172.1,,,4,Africa/Addis_Ababa,FALSE,1231343765
Migie,Migie,,6.0000,37.5333,Ethiopia,ET,ETH,"YeDebub Bihēroch Bihēreseboch na Hizboch","YeDebub Biheroch Bihereseboch na Hizboch",ET-SN,state,,1029.3,,,3,Africa/Addis_Ababa,FALSE,1231116684
Gīlawo,Gilawo,Ileo|Olea,8.1667,34.3333,Ethiopia,ET,ETH,"Gambēla Hizboch","Gambela Hizboch",ET-GA,administration,,29.6,,,4,Africa/Addis_Ababa,FALSE,1231764688
Tegorgwa,Tegorgwa,Tegorguo,13.5804,39.3132,Ethiopia,ET,ETH,Tigray,Tigray,ET-TI,administration,,150.3,,,4,Africa/Addis_Ababa,FALSE,1231258620
Ahamali,Ahamali,,7.9667,44.5333,Ethiopia,ET,ETH,Sumalē,Sumale,ET-SO,state,,8.9,,,5,Africa/Addis_Ababa,FALSE,1231817587
Sariti,Sariti,Seraiti,7.0667,35.5333,Ethiopia,ET,ETH,"YeDebub Bihēroch Bihēreseboch na Hizboch","YeDebub Biheroch Bihereseboch na Hizboch",ET-SN,state,,156.8,,,4,Africa/Addis_Ababa,FALSE,1231205468
Belenta,Belenta,,13.0488,39.0116,Ethiopia,ET,ETH,Āmara,Amara,ET-AM,state,,99.0,,,4,Africa/Addis_Ababa,FALSE,1231431694
"Were Waju","Were Waju",Burah|Burac,9.0500,34.7167,Ethiopia,ET,ETH,Oromīya,Oromiya,ET-OR,state,,104.1,,,4,Africa/Addis_Ababa,FALSE,1231468454
K’una,K'una,,10.5000,39.1333,Ethiopia,ET,ETH,Āmara,Amara,ET-AM,state,,111.0,,,4,Africa/Addis_Ababa,FALSE,1231252603
Debir,Debir,,11.1167,37.9333,Ethiopia,ET,ETH,Āmara,Amara,ET-AM,state,,246.0,,,3,Africa/Addis_Ababa,FALSE,1231946849
Debir,Debir,Mafud|Māhfud|Makfud,9.9739,39.9731,Ethiopia,ET,ETH,Āmara,Amara,ET-AM,state,,207.4,,,3,Africa/Addis_Ababa,TRUE,1231139557
Debir,Debir,,11.7500,39.0833,Ethiopia,ET,ETH,Āmara,Amara,ET-AM,state,,196.2,,,4,Africa/Addis_Ababa,TRUE,1231947119
Debir,Debir,"Debir (1)",12.1833,39.2000,Ethiopia,ET,ETH,Āmara,Amara,ET-AM,state,,141.4,,,4,Africa/Addis_Ababa,TRUE,1231073949
Debir,Debir,,9.6943,39.5147,Ethiopia,ET,ETH,Āmara,Amara,ET-AM,state,,116.5,,,4,Africa/Addis_Ababa,TRUE,1231307309
Debir,Debir,"Debir (2)",12.9000,39.2333,Ethiopia,ET,ETH,Āmara,Amara,ET-AM,state,,36.9,,,4,Africa/Addis_Ababa,TRUE,1231437581
Wemberya,Wemberya,,11.8833,36.9833,Ethiopia,ET,ETH,Āmara,Amara,ET-AM,state,,208.0,,,3,Africa/Addis_Ababa,FALSE,1231520805
Ābram,Abram,,10.0167,37.9000,Ethiopia,ET,ETH,Āmara,Amara,ET-AM,state,,181.4,,,4,Africa/Addis_Ababa,FALSE,1231118275
Conci,Conci,,8.7167,37.1500,Ethiopia,ET,ETH,Oromīya,Oromiya,ET-OR,state,,151.6,,,4,Africa/Addis_Ababa,FALSE,1231173938
Uerab,Uerab,,12.3833,37.8500,Ethiopia,ET,ETH,Āmara,Amara,ET-AM,state,,109.7,,,4,Africa/Addis_Ababa,FALSE,1231835638
Doleti,Doleti,,5.5872,35.3303,Ethiopia,ET,ETH,"YeDebub Bihēroch Bihēreseboch na Hizboch","YeDebub Biheroch Bihereseboch na Hizboch",ET-SN,state,,7.6,,,5,Africa/Addis_Ababa,FALSE,1231470068
Nassiga,Nassiga,,7.5131,44.6400,Ethiopia,ET,ETH,Sumalē,Sumale,ET-SO,state,,3.7,,,5,Africa/Addis_Ababa,FALSE,1231506333
Tumha,Tumha,,11.3333,36.7667,Ethiopia,ET,ETH,Āmara,Amara,ET-AM,state,,231.0,,,3,Africa/Addis_Ababa,FALSE,1231774406
"Aba Guyo Ana","Aba Guyo Ana",,5.3167,39.5333,Ethiopia,ET,ETH,Oromīya,Oromiya,ET-OR,state,,26.6,,,4,Africa/Addis_Ababa,FALSE,1231320972
"K’eley Kohlīt","K'eley Kohlit","Keley Kokhlit",13.9867,39.7377,Ethiopia,ET,ETH,Tigray,Tigray,ET-TI,administration,,134.8,,,4,Africa/Addis_Ababa,FALSE,1231851964
"Ālī K’eno","Ali K'eno",Ali-Ken,9.2764,42.2397,Ethiopia,ET,ETH,"Hārerī Hizb","Hareri Hizb",ET-HA,administration,,689.5,,,3,Africa/Addis_Ababa,FALSE,1231808761
Wila,Wila,,9.8333,38.8833,Ethiopia,ET,ETH,Āmara,Amara,ET-AM,state,,188.3,,,4,Africa/Addis_Ababa,FALSE,1231390002
Kubalgē,Kubalge,,10.0699,39.9652,Ethiopia,ET,ETH,Āmara,Amara,ET-AM,state,,32.8,,,4,Africa/Addis_Ababa,FALSE,1231197789
Ābēnyendē,Abenyende,Abenyendu,10.1333,34.7833,Ethiopia,ET,ETH,"Bīnshangul Gumuz","Binshangul Gumuz",ET-BE,state,,51.1,,,4,Africa/Addis_Ababa,FALSE,1231637663
Daggaddo,Daggaddo,,14.0333,40.7167,Ethiopia,ET,ETH,Āfar,Afar,ET-AF,state,,14.6,,,4,Africa/Addis_Ababa,FALSE,1231452481
"Melka Bafeta","Melka Bafeta","Mel’ka Bateta|Malka Bafata|Malca Bafata",6.7608,42.0808,Ethiopia,ET,ETH,Sumalē,Sumale,ET-SO,state,,12.0,,,4,Africa/Addis_Ababa,FALSE,1231602065
"‘Alem Ketema","`Alem Ketema","Alem Catema|Alām Katma",10.0830,39.0330,Ethiopia,ET,ETH,Āmara,Amara,ET-AM,state,,159.4,,,4,Africa/Addis_Ababa,FALSE,1231334392
Golongol,Golongol,,7.8833,43.6833,Ethiopia,ET,ETH,Sumalē,Sumale,ET-SO,state,,11.1,,,4,Africa/Addis_Ababa,FALSE,1231055670
Gurī,Guri,Gure|Gusara,7.4500,40.6000,Ethiopia,ET,ETH,Oromīya,Oromiya,ET-OR,state,,63.4,,,4,Africa/Addis_Ababa,FALSE,1231125974
Ēnyo,Enyo,,8.8833,38.0167,Ethiopia,ET,ETH,Oromīya,Oromiya,ET-OR,state,,194.6,,,4,Africa/Addis_Ababa,FALSE,1231416449
Dunnan,Dunnan,Dhana,7.6333,42.5500,Ethiopia,ET,ETH,Sumalē,Sumale,ET-SO,state,,28.2,,,4,Africa/Addis_Ababa,FALSE,1231805016
Info,Info,,14.2167,39.4500,Ethiopia,ET,ETH,Tigray,Tigray,ET-TI,administration,,226.6,,,3,Africa/Addis_Ababa,FALSE,1231287247
"Seyo Dirē","Seyo Dire",,9.3000,38.6833,Ethiopia,ET,ETH,Oromīya,Oromiya,ET-OR,state,,94.3,,,4,Africa/Addis_Ababa,FALSE,1231652426
Melkē,Melke,,9.5667,38.6667,Ethiopia,ET,ETH,Oromīya,Oromiya,ET-OR,state,,195.3,,,4,Africa/Addis_Ababa,FALSE,1231190267
Melkē,Melke,,9.8167,37.0833,Ethiopia,ET,ETH,Oromīya,Oromiya,ET-OR,state,,61.6,,,4,Africa/Addis_Ababa,TRUE,1231217603
"Debra Ghelele","Debra Ghelele",,10.4000,39.9833,Ethiopia,ET,ETH,Āmara,Amara,ET-AM,state,,166.4,,,4,Africa/Addis_Ababa,FALSE,1231510482
Āft’in,Aft'in,,9.9000,38.4167,Ethiopia,ET,ETH,Oromīya,Oromiya,ET-OR,state,,167.8,,,4,Africa/Addis_Ababa,FALSE,1231893396
Yisak’o,Yisak'o,,8.9667,40.6667,Ethiopia,ET,ETH,Oromīya,Oromiya,ET-OR,state,,370.3,,,3,Africa/Addis_Ababa,FALSE,1231456154
Gosha,Gosha,,9.5069,41.7742,Ethiopia,ET,ETH,Oromīya,Oromiya,ET-OR,state,,444.7,,,3,Africa/Addis_Ababa,FALSE,1231944394
"K’erē Yasa","K'ere Yasa",,9.5833,38.7000,Ethiopia,ET,ETH,Oromīya,Oromiya,ET-OR,state,,195.3,,,4,Africa/Addis_Ababa,FALSE,1231451664
K’īlentī,K'ilenti,,11.7333,39.8500,Ethiopia,ET,ETH,Āmara,Amara,ET-AM,state,,183.8,,,4,Africa/Addis_Ababa,FALSE,1231445405
Burk’ītu,Burk'itu,,7.0000,39.9000,Ethiopia,ET,ETH,Oromīya,Oromiya,ET-OR,state,,36.5,,,4,Africa/Addis_Ababa,FALSE,1231901697
Gērēsē,Gerese,Garasse,5.9167,37.3000,Ethiopia,ET,ETH,"YeDebub Bihēroch Bihēreseboch na Hizboch","YeDebub Biheroch Bihereseboch na Hizboch",ET-SN,state,,277.8,,,3,Africa/Addis_Ababa,FALSE,1231173227
Segīro,Segiro,,9.8500,36.2167,Ethiopia,ET,ETH,Oromīya,Oromiya,ET-OR,state,,69.8,,,4,Africa/Addis_Ababa,FALSE,1231650255
Ch’ibach’ibasa,Ch'ibach'ibasa,,10.7667,36.8667,Ethiopia,ET,ETH,Āmara,Amara,ET-AM,state,,243.4,,,3,Africa/Addis_Ababa,FALSE,1231966197
Ārch’o,Arch'o,,9.3833,38.7667,Ethiopia,ET,ETH,Oromīya,Oromiya,ET-OR,state,,179.0,,,4,Africa/Addis_Ababa,FALSE,1231235262
Alaybede,Alaybede,Aleibadei|Awkelef,9.3828,43.5139,Ethiopia,ET,ETH,Sumalē,Sumale,ET-SO,state,,85.1,,,4,Africa/Mogadishu,FALSE,1231747228
Oghin,Oghin,,7.6667,33.7500,Ethiopia,ET,ETH,"Gambēla Hizboch","Gambela Hizboch",ET-GA,administration,,4.9,,,5,Africa/Addis_Ababa,FALSE,1231582859
Nunanaguna,Nunanaguna,,14.4878,38.2491,Ethiopia,ET,ETH,Tigray,Tigray,ET-TI,administration,,85.8,,,4,Africa/Addis_Ababa,FALSE,1231974364
Ānbes,Anbes,,12.0667,36.9333,Ethiopia,ET,ETH,Āmara,Amara,ET-AM,state,,88.3,,,4,Africa/Addis_Ababa,FALSE,1231508173
"T’īs Āba Līma","T'is Aba Lima",,11.4667,39.7000,Ethiopia,ET,ETH,Āmara,Amara,ET-AM,state,,335.2,,,3,Africa/Addis_Ababa,FALSE,1231410615
Sēlo,Selo,,6.7333,37.1167,Ethiopia,ET,ETH,"YeDebub Bihēroch Bihēreseboch na Hizboch","YeDebub Biheroch Bihereseboch na Hizboch",ET-SN,state,,133.0,,,4,Africa/Addis_Ababa,FALSE,1231246486
Wergesha,Wergesha,Uorgesha,13.6282,39.3800,Ethiopia,ET,ETH,Tigray,Tigray,ET-TI,administration,,150.3,,,4,Africa/Addis_Ababa,FALSE,1231365424
"Ādī K’ashī","Adi K'ashi",,12.7000,39.5667,Ethiopia,ET,ETH,Tigray,Tigray,ET-TI,administration,,185.0,,,4,Africa/Addis_Ababa,FALSE,1231430060
T’enkaka,T'enkaka,,9.1167,38.2500,Ethiopia,ET,ETH,Oromīya,Oromiya,ET-OR,state,,201.4,,,3,Africa/Addis_Ababa,FALSE,1231590581
Merek’ts’eda,Merek'ts'eda,,12.5167,39.1167,Ethiopia,ET,ETH,Āmara,Amara,ET-AM,state,,78.6,,,4,Africa/Addis_Ababa,FALSE,1231415627
Negdai,Negdai,,14.1678,39.6836,Ethiopia,ET,ETH,Tigray,Tigray,ET-TI,administration,,35.1,,,4,Africa/Addis_Ababa,FALSE,1231163612
Bantu,Bantu,,9.6167,38.6167,Ethiopia,ET,ETH,Oromīya,Oromiya,ET-OR,state,,195.3,,,4,Africa/Addis_Ababa,TRUE,1231970548
Bantu,Bantu,,9.8167,37.0500,Ethiopia,ET,ETH,Oromīya,Oromiya,ET-OR,state,,61.6,,,4,Africa/Addis_Ababa,TRUE,1231751511
Inderaccia,Inderaccia,,7.6333,35.3333,Ethiopia,ET,ETH,"YeDebub Bihēroch Bihēreseboch na Hizboch","YeDebub Biheroch Bihereseboch na Hizboch",ET-SN,state,,34.0,,,4,Africa/Addis_Ababa,FALSE,1231536049
Wert’u,Wert'u,,9.6500,38.9167,Ethiopia,ET,ETH,Oromīya,Oromiya,ET-OR,state,,329.5,,,3,Africa/Addis_Ababa,FALSE,1231245724
Inmeda,Inmeda,Immeda|Imida,8.2333,34.0833,Ethiopia,ET,ETH,"Gambēla Hizboch","Gambela Hizboch",ET-GA,administration,,29.6,,,4,Africa/Addis_Ababa,FALSE,1231431453
Hālu,Halu,,8.1500,35.3333,Ethiopia,ET,ETH,Oromīya,Oromiya,ET-OR,state,,82.2,,,4,Africa/Addis_Ababa,FALSE,1231970096
Jacho,Jacho,,7.3667,37.5167,Ethiopia,ET,ETH,"YeDebub Bihēroch Bihēreseboch na Hizboch","YeDebub Biheroch Bihereseboch na Hizboch",ET-SN,state,,361.0,,,3,Africa/Addis_Ababa,FALSE,1231680688
Obele,Obele,Bodoleh,8.7833,43.4500,Ethiopia,ET,ETH,Sumalē,Sumale,ET-SO,state,,11.1,,,4,Africa/Addis_Ababa,FALSE,1231174923
Gubetgun,Gubetgun,,7.8778,44.4089,Ethiopia,ET,ETH,Sumalē,Sumale,ET-SO,state,,72.8,,,4,Africa/Addis_Ababa,FALSE,1231471735
Gohule,Gohule,Gokhule,5.1213,43.1783,Ethiopia,ET,ETH,Sumalē,Sumale,ET-SO,state,,6.5,,,5,Africa/Addis_Ababa,FALSE,1231278854
Genjī,Genji,Gangi,9.0333,35.6000,Ethiopia,ET,ETH,Oromīya,Oromiya,ET-OR,state,,344.7,,,3,Africa/Addis_Ababa,FALSE,1231229170
Genjī,Genji,,9.3500,37.8167,Ethiopia,ET,ETH,Oromīya,Oromiya,ET-OR,state,,231.8,,,3,Africa/Addis_Ababa,TRUE,1231858372
Genjī,Genji,,9.1167,37.8333,Ethiopia,ET,ETH,Oromīya,Oromiya,ET-OR,state,,137.6,,,4,Africa/Addis_Ababa,TRUE,1231809576
Genjī,Genji,,9.5000,37.2833,Ethiopia,ET,ETH,Oromīya,Oromiya,ET-OR,state,,101.3,,,4,Africa/Addis_Ababa,TRUE,1231476982
Genjī,Genji,,8.2833,37.1833,Ethiopia,ET,ETH,Oromīya,Oromiya,ET-OR,state,,86.6,,,4,Africa/Addis_Ababa,TRUE,1231424194
Genjī,Genji,Gootu,9.9167,36.1833,Ethiopia,ET,ETH,Oromīya,Oromiya,ET-OR,state,,69.8,,,4,Africa/Addis_Ababa,TRUE,1231293135
"Tulu Michire","Tulu Michire","Tullu Micire",6.3833,40.8000,Ethiopia,ET,ETH,Oromīya,Oromiya,ET-OR,state,,63.1,,,4,Africa/Addis_Ababa,FALSE,1231379878
Bursagi-Mallayle,Bursagi-Mallayle,,4.7050,42.8414,Ethiopia,ET,ETH,Sumalē,Sumale,ET-SO,state,,6.5,,,5,Africa/Addis_Ababa,FALSE,1231421974
Bosaso,Bosaso,"Burca Besasu|Burca Besasa",7.1667,40.1167,Ethiopia,ET,ETH,Oromīya,Oromiya,ET-OR,state,,151.9,,,4,Africa/Addis_Ababa,FALSE,1231507583
Yigem,Yigem,,10.2264,39.7731,Ethiopia,ET,ETH,Āmara,Amara,ET-AM,state,,171.0,,,4,Africa/Addis_Ababa,FALSE,1231013192
Jejeba,Jejeba,,8.2833,37.6833,Ethiopia,ET,ETH,"YeDebub Bihēroch Bihēreseboch na Hizboch","YeDebub Biheroch Bihereseboch na Hizboch",ET-SN,state,,161.2,,,4,Africa/Addis_Ababa,FALSE,1231870192
Sebet,Sebet,,9.6333,37.1333,Ethiopia,ET,ETH,Oromīya,Oromiya,ET-OR,state,,162.5,,,4,Africa/Addis_Ababa,FALSE,1231679931
"Adad Dader","Adad Dader",,6.6878,42.3061,Ethiopia,ET,ETH,Sumalē,Sumale,ET-SO,state,,12.0,,,4,Africa/Addis_Ababa,FALSE,1231002165
Yebok’la,Yebok'la,,10.4333,37.9000,Ethiopia,ET,ETH,Āmara,Amara,ET-AM,state,,164.5,,,4,Africa/Addis_Ababa,FALSE,1231076462
Wanche,Wanche,,6.9460,34.9391,Ethiopia,ET,ETH,"YeDebub Bihēroch Bihēreseboch na Hizboch","YeDebub Biheroch Bihereseboch na Hizboch",ET-SN,state,,2.0,,,5,Africa/Addis_Ababa,FALSE,1231112546
"Burk’a Gudo","Burk'a Gudo","Bocchè Guddo",8.8000,40.8500,Ethiopia,ET,ETH,Oromīya,Oromiya,ET-OR,state,,163.8,,,4,Africa/Addis_Ababa,FALSE,1231297553
Jomedo,Jomedo,,10.7749,39.5592,Ethiopia,ET,ETH,Āmara,Amara,ET-AM,state,,214.1,,,3,Africa/Addis_Ababa,FALSE,1231504941
K’at’ila,K'at'ila,Cabana,8.9000,38.7667,Ethiopia,ET,ETH,"Ādīs Ābeba","Adis Abeba",ET-AA,administration,,1846.8,,,3,Africa/Addis_Ababa,FALSE,1231946500
Zhogo,Zhogo,,8.5500,39.1833,Ethiopia,ET,ETH,Oromīya,Oromiya,ET-OR,state,,269.1,,,3,Africa/Addis_Ababa,FALSE,1231024090
Zibgaz,Zibgaz,,12.0333,38.8500,Ethiopia,ET,ETH,Āmara,Amara,ET-AM,state,,141.1,,,4,Africa/Addis_Ababa,FALSE,1231783153
Merhīb,Merhib,Merkhib,13.6490,39.2480,Ethiopia,ET,ETH,Tigray,Tigray,ET-TI,administration,,150.3,,,4,Africa/Addis_Ababa,FALSE,1231284607
Yak’o,Yak'o,,8.4667,36.5500,Ethiopia,ET,ETH,Oromīya,Oromiya,ET-OR,state,,140.6,,,4,Africa/Addis_Ababa,FALSE,1231876659
Balma,Balma,,6.3333,36.6000,Ethiopia,ET,ETH,"YeDebub Bihēroch Bihēreseboch na Hizboch","YeDebub Biheroch Bihereseboch na Hizboch",ET-SN,state,,194.6,,,4,Africa/Addis_Ababa,FALSE,1231435624
Washa,Washa,,12.3500,37.7000,Ethiopia,ET,ETH,Āmara,Amara,ET-AM,state,,180.5,,,4,Africa/Addis_Ababa,FALSE,1231572778
"Goda Goro","Goda Goro",,9.1167,37.3167,Ethiopia,ET,ETH,Oromīya,Oromiya,ET-OR,state,,207.6,,,3,Africa/Addis_Ababa,FALSE,1231810924
Weyu,Weyu,,8.8833,38.9000,Ethiopia,ET,ETH,Oromīya,Oromiya,ET-OR,state,,166.2,,,4,Africa/Addis_Ababa,FALSE,1231657775
"Ch’elīya Yeka","Ch'eliya Yeka",,9.2167,35.4167,Ethiopia,ET,ETH,Oromīya,Oromiya,ET-OR,state,,139.1,,,4,Africa/Addis_Ababa,FALSE,1231000050
"Meta Jīra","Meta Jira",Meta,8.9167,38.5167,Ethiopia,ET,ETH,Oromīya,Oromiya,ET-OR,state,,181.6,,,4,Africa/Addis_Ababa,FALSE,1231127468
Jajura,Jajura,Uongera,7.4667,37.7833,Ethiopia,ET,ETH,"YeDebub Bihēroch Bihēreseboch na Hizboch","YeDebub Biheroch Bihereseboch na Hizboch",ET-SN,state,,489.6,,,3,Africa/Addis_Ababa,FALSE,1231016552
Agulio,Agulio,Aguli,12.3722,41.1292,Ethiopia,ET,ETH,Āfar,Afar,ET-AF,state,,8.0,,,5,Africa/Addis_Ababa,FALSE,1231904508
Vulu,Vulu,Uulu,9.8167,38.9833,Ethiopia,ET,ETH,Āmara,Amara,ET-AM,state,,188.3,,,4,Africa/Addis_Ababa,FALSE,1231206917
Shirmo,Shirmo,,9.4000,38.1333,Ethiopia,ET,ETH,Oromīya,Oromiya,ET-OR,state,,230.3,,,3,Africa/Addis_Ababa,FALSE,1231431119
"Ionghi Superiore","Ionghi Superiore","Upper Ionghi",9.9833,35.3167,Ethiopia,ET,ETH,"Bīnshangul Gumuz","Binshangul Gumuz",ET-BE,state,,49.5,,,4,Africa/Addis_Ababa,FALSE,1231339254
"Telba Dur","Telba Dur",,12.4167,39.7167,Ethiopia,ET,ETH,Tigray,Tigray,ET-TI,administration,,104.2,,,4,Africa/Addis_Ababa,FALSE,1231226314
Demergog,Demergog,,7.3797,47.0114,Ethiopia,ET,ETH,Sumalē,Sumale,ET-SO,state,,12.0,,,4,Africa/Addis_Ababa,FALSE,1231242735
Abaghennen,Abaghennen,Abagennen,12.3833,37.2333,Ethiopia,ET,ETH,Āmara,Amara,ET-AM,state,,271.6,,,3,Africa/Addis_Ababa,FALSE,1231492417
"Ādīya Mīchīrē","Adiya Michire",,9.2000,36.4000,Ethiopia,ET,ETH,Oromīya,Oromiya,ET-OR,state,,142.2,,,4,Africa/Addis_Ababa,FALSE,1231551915
"Adi Borat","Adi Borat",,13.7000,39.2333,Ethiopia,ET,ETH,Tigray,Tigray,ET-TI,administration,,150.3,,,4,Africa/Addis_Ababa,FALSE,1231144567
Seged,Seged,,9.7948,39.4241,Ethiopia,ET,ETH,Āmara,Amara,ET-AM,state,,116.5,,,4,Africa/Addis_Ababa,FALSE,1231103469
Gombor,Gombor,,8.5667,43.4000,Ethiopia,ET,ETH,Sumalē,Sumale,ET-SO,state,,11.1,,,4,Africa/Addis_Ababa,FALSE,1231679468
Bargu,Bargu,,11.1075,40.0520,Ethiopia,ET,ETH,Āmara,Amara,ET-AM,state,,121.1,,,4,Africa/Addis_Ababa,FALSE,1231667604
Kutayē,Kutaye,,10.6817,39.2386,Ethiopia,ET,ETH,Āmara,Amara,ET-AM,state,,224.0,,,3,Africa/Addis_Ababa,FALSE,1231650540
Kutayē,Kutaye,,10.4445,39.3600,Ethiopia,ET,ETH,Āmara,Amara,ET-AM,state,,156.7,,,4,Africa/Addis_Ababa,TRUE,1231934068
"Odo Āgemso","Odo Agemso",,9.6167,38.5333,Ethiopia,ET,ETH,Oromīya,Oromiya,ET-OR,state,,222.5,,,3,Africa/Addis_Ababa,FALSE,1231216183
Bolotarmo,Bolotarmo,Bòlotamo,14.3930,40.0699,Ethiopia,ET,ETH,Āfar,Afar,ET-AF,state,,35.1,,,4,Africa/Addis_Ababa,FALSE,1231807079
Kadjoua,Kadjoua,,7.0167,40.4833,Ethiopia,ET,ETH,Oromīya,Oromiya,ET-OR,state,,94.2,,,4,Africa/Addis_Ababa,FALSE,1231901619
"Weyra Wuha","Weyra Wuha","Woira Waha",12.4500,39.7667,Ethiopia,ET,ETH,Tigray,Tigray,ET-TI,administration,,104.2,,,4,Africa/Addis_Ababa,FALSE,1231282697
Kosen,Kosen,,12.2833,37.3833,Ethiopia,ET,ETH,Āmara,Amara,ET-AM,state,,271.6,,,3,Africa/Addis_Ababa,FALSE,1231151443
Auarla,Auarla,Awarla,7.9167,34.0333,Ethiopia,ET,ETH,"Gambēla Hizboch","Gambela Hizboch",ET-GA,administration,,4.9,,,5,Africa/Addis_Ababa,FALSE,1231491238
Chiel’kong,Chiel'kong,Tagen,8.4565,33.9678,Ethiopia,ET,ETH,"Gambēla Hizboch","Gambela Hizboch",ET-GA,administration,,75.1,,,4,Africa/Addis_Ababa,FALSE,1231492772
Wa’ira,Wa'ira,,14.2506,39.2192,Ethiopia,ET,ETH,Tigray,Tigray,ET-TI,administration,,185.1,,,4,Africa/Addis_Ababa,FALSE,1231145461
"Ādī K’eney","Adi K'eney",,14.2746,39.3393,Ethiopia,ET,ETH,Tigray,Tigray,ET-TI,administration,,226.6,,,3,Africa/Addis_Ababa,FALSE,1231948772
"Āmed Guya","Amed Guya",,10.3283,39.5660,Ethiopia,ET,ETH,Āmara,Amara,ET-AM,state,,141.7,,,4,Africa/Addis_Ababa,FALSE,1231556415
Ugoru,Ugoru,,5.1500,39.6667,Ethiopia,ET,ETH,Oromīya,Oromiya,ET-OR,state,,26.6,,,4,Africa/Addis_Ababa,FALSE,1231157872
Ābadīr,Abadir,Gutu|Guto,8.7500,39.8833,Ethiopia,ET,ETH,Oromīya,Oromiya,ET-OR,state,,99.4,,,4,Africa/Addis_Ababa,FALSE,1231910496
"Adi Tacar","Adi Tacar",,13.8667,37.2167,Ethiopia,ET,ETH,Tigray,Tigray,ET-TI,administration,,20.2,,,4,Africa/Addis_Ababa,FALSE,1231417902
K’eraru,K'eraru,,9.6303,41.9811,Ethiopia,ET,ETH,"Dirē Dawa","Dire Dawa",ET-DD,administration,,444.7,,,3,Africa/Addis_Ababa,FALSE,1231525650
Daballac,Daballac,,7.2149,43.3155,Ethiopia,ET,ETH,Sumalē,Sumale,ET-SO,state,,5.7,,,5,Africa/Addis_Ababa,FALSE,1231662320
Janora,Janora,,12.4667,37.3500,Ethiopia,ET,ETH,Āmara,Amara,ET-AM,state,,271.6,,,3,Africa/Addis_Ababa,FALSE,1231008222
"Omo Nada","Omo Nada",Omo|Omnda|Ominada,7.6333,37.2500,Ethiopia,ET,ETH,Oromīya,Oromiya,ET-OR,state,,215.9,,,3,Africa/Addis_Ababa,FALSE,1231334885
Bole,Bole,,6.6167,37.3667,Ethiopia,ET,ETH,"YeDebub Bihēroch Bihēreseboch na Hizboch","YeDebub Biheroch Bihereseboch na Hizboch",ET-SN,state,,147.8,,,4,Africa/Addis_Ababa,FALSE,1231798700
Marcos,Marcos,,7.3667,39.2333,Ethiopia,ET,ETH,Oromīya,Oromiya,ET-OR,state,,220.1,,,3,Africa/Addis_Ababa,FALSE,1231721941
Solok’ē,Solok'e,,8.2333,38.6167,Ethiopia,ET,ETH,"YeDebub Bihēroch Bihēreseboch na Hizboch","YeDebub Biheroch Bihereseboch na Hizboch",ET-SN,state,,232.0,,,3,Africa/Addis_Ababa,FALSE,1231501852
Bets’wa‘i,Bets'wa`i,Betsuoi|Bets’wa’l,13.2949,39.3631,Ethiopia,ET,ETH,Tigray,Tigray,ET-TI,administration,,108.6,,,4,Africa/Addis_Ababa,FALSE,1231343384
Sidisto,Sidisto,,9.3367,39.5767,Ethiopia,ET,ETH,Āmara,Amara,ET-AM,state,,120.7,,,4,Africa/Addis_Ababa,FALSE,1231000049
Sidisto,Sidisto,Seddisto,9.2391,39.6892,Ethiopia,ET,ETH,Āmara,Amara,ET-AM,state,,57.8,,,4,Africa/Addis_Ababa,TRUE,1231170887
Gebga,Gebga,,11.7000,38.2667,Ethiopia,ET,ETH,Āmara,Amara,ET-AM,state,,174.0,,,4,Africa/Addis_Ababa,FALSE,1231464533
Gedro,Gedro,Gheddera,11.6333,37.4333,Ethiopia,ET,ETH,Āmara,Amara,ET-AM,state,,147.6,,,4,Africa/Addis_Ababa,FALSE,1231153166
Murut,Murut,,12.6667,39.3000,Ethiopia,ET,ETH,Tigray,Tigray,ET-TI,administration,,160.6,,,4,Africa/Addis_Ababa,FALSE,1231741336
Maber,Maber,,13.2000,38.6333,Ethiopia,ET,ETH,Āmara,Amara,ET-AM,state,,36.9,,,4,Africa/Addis_Ababa,FALSE,1231781911
Burjī,Burji,Burgi,5.3833,37.9333,Ethiopia,ET,ETH,Oromīya,Oromiya,ET-OR,state,,56.5,,,4,Africa/Addis_Ababa,FALSE,1231405303
Yesreye,Yesreye,Ānzirē,8.2000,38.2500,Ethiopia,ET,ETH,"YeDebub Bihēroch Bihēreseboch na Hizboch","YeDebub Biheroch Bihereseboch na Hizboch",ET-SN,state,,224.5,,,3,Africa/Addis_Ababa,FALSE,1231886808
Kitimē,Kitime,,8.9500,38.8333,Ethiopia,ET,ETH,"Ādīs Ābeba","Adis Abeba",ET-AA,administration,,3134.0,,,2,Africa/Addis_Ababa,FALSE,1231021546
Tībē,Tibe,Tibbe,9.0667,37.1500,Ethiopia,ET,ETH,Oromīya,Oromiya,ET-OR,state,,270.7,,,3,Africa/Addis_Ababa,FALSE,1231517289
"Yirba Muda","Yirba Muda","Yirba|Irba Moda",6.2000,38.7000,Ethiopia,ET,ETH,Oromīya,Oromiya,ET-OR,state,,242.5,,,3,Africa/Addis_Ababa,FALSE,1231025932
Orensu,Orensu,,9.9500,36.1167,Ethiopia,ET,ETH,"Bīnshangul Gumuz","Binshangul Gumuz",ET-BE,state,,29.4,,,4,Africa/Addis_Ababa,FALSE,1231883235
Āgamsa,Agamsa,,12.0167,39.7667,Ethiopia,ET,ETH,Āmara,Amara,ET-AM,state,,147.2,,,4,Africa/Addis_Ababa,FALSE,1231703667
Guraleh,Guraleh,Giagialeh,6.6667,42.6833,Ethiopia,ET,ETH,Sumalē,Sumale,ET-SO,state,,12.0,,,4,Africa/Addis_Ababa,FALSE,1231456429
"Tulu Uto","Tulu Uto",,9.6333,36.9333,Ethiopia,ET,ETH,Oromīya,Oromiya,ET-OR,state,,91.4,,,4,Africa/Addis_Ababa,FALSE,1231128841
Mīnīso,Miniso,,9.3000,38.3500,Ethiopia,ET,ETH,Oromīya,Oromiya,ET-OR,state,,175.0,,,4,Africa/Addis_Ababa,FALSE,1231663512
Cheha,Cheha,,8.1333,37.7667,Ethiopia,ET,ETH,"YeDebub Bihēroch Bihēreseboch na Hizboch","YeDebub Biheroch Bihereseboch na Hizboch",ET-SN,state,,289.1,,,3,Africa/Addis_Ababa,FALSE,1231353805
"Ādī Habesay","Adi Habesay","Addi Khabesay",14.0879,38.4872,Ethiopia,ET,ETH,Tigray,Tigray,ET-TI,administration,,161.9,,,4,Africa/Addis_Ababa,FALSE,1231788194
K’it’mana,K'it'mana,,12.5000,38.9000,Ethiopia,ET,ETH,Āmara,Amara,ET-AM,state,,83.7,,,4,Africa/Addis_Ababa,FALSE,1231317931
Shewat’a,Shewat'a,,13.3000,38.9500,Ethiopia,ET,ETH,Tigray,Tigray,ET-TI,administration,,87.9,,,4,Africa/Addis_Ababa,FALSE,1231734421
"K’ey Āfer","K'ey Afer",,12.1333,39.4667,Ethiopia,ET,ETH,Āmara,Amara,ET-AM,state,,147.2,,,4,Africa/Addis_Ababa,FALSE,1231254825
Eldima,Eldima,,5.5333,41.9000,Ethiopia,ET,ETH,Sumalē,Sumale,ET-SO,state,,16.7,,,4,Africa/Addis_Ababa,FALSE,1231344582
"Gurbī Sugī","Gurbi Sugi",,3.7333,38.6833,Ethiopia,ET,ETH,Oromīya,Oromiya,ET-OR,state,,41.2,,,4,Africa/Addis_Ababa,FALSE,1231816990
Dīda,Dida,,6.2833,37.4333,Ethiopia,ET,ETH,"YeDebub Bihēroch Bihēreseboch na Hizboch","YeDebub Biheroch Bihereseboch na Hizboch",ET-SN,state,,349.4,,,3,Africa/Addis_Ababa,FALSE,1231286221
"Ādī Fitaw","Adi Fitaw","Addi Fitau|Adi Fitall",14.4960,38.9834,Ethiopia,ET,ETH,Tigray,Tigray,ET-TI,administration,,174.3,,,4,Africa/Addis_Ababa,FALSE,1231606448
Lewlew,Lewlew,,11.5000,39.9333,Ethiopia,ET,ETH,Āmara,Amara,ET-AM,state,,172.1,,,4,Africa/Addis_Ababa,FALSE,1231302737
Āraksē,Arakse,Arata|Aratal,11.5000,38.2167,Ethiopia,ET,ETH,Āmara,Amara,ET-AM,state,,132.0,,,4,Africa/Addis_Ababa,FALSE,1231439227
Gohad,Gohad,,10.5136,41.6375,Ethiopia,ET,ETH,Sumalē,Sumale,ET-SO,state,,16.6,,,4,Africa/Addis_Ababa,FALSE,1231068344
"Yirga Ch’efē","Yirga Ch'efe","Yrga Chafe|Chefe|Irriga Shafi",6.1667,38.2000,Ethiopia,ET,ETH,"YeDebub Bihēroch Bihēreseboch na Hizboch","YeDebub Biheroch Bihereseboch na Hizboch",ET-SN,state,,866.1,,,3,Africa/Addis_Ababa,FALSE,1231321210
Gonderē,Gondere,,6.0833,36.7833,Ethiopia,ET,ETH,"YeDebub Bihēroch Bihēreseboch na Hizboch","YeDebub Biheroch Bihereseboch na Hizboch",ET-SN,state,,143.0,,,4,Africa/Addis_Ababa,FALSE,1231109744
Jileyī,Jileyi,,9.8167,38.6500,Ethiopia,ET,ETH,Oromīya,Oromiya,ET-OR,state,,222.5,,,3,Africa/Addis_Ababa,FALSE,1231296471
"Bēte Nigus","Bete Nigus",,9.9833,37.8000,Ethiopia,ET,ETH,Āmara,Amara,ET-AM,state,,160.3,,,4,Africa/Addis_Ababa,FALSE,1231766907
Ēro,Ero,,9.2167,37.8833,Ethiopia,ET,ETH,Oromīya,Oromiya,ET-OR,state,,203.1,,,3,Africa/Addis_Ababa,FALSE,1231522293
Lach’īma,Lach'ima,,9.4805,42.0727,Ethiopia,ET,ETH,Oromīya,Oromiya,ET-OR,state,,445.7,,,3,Africa/Addis_Ababa,FALSE,1231459269
Ābeltī,Abelti,Abalti|Ablti,8.1667,37.5667,Ethiopia,ET,ETH,Oromīya,Oromiya,ET-OR,state,,217.3,,,3,Africa/Addis_Ababa,FALSE,1231999704
Jeba,Jeba,Dzheba,9.4017,41.9931,Ethiopia,ET,ETH,Oromīya,Oromiya,ET-OR,state,,647.0,,,3,Africa/Addis_Ababa,FALSE,1231227351
Jeba,Jeba,,9.2667,36.9667,Ethiopia,ET,ETH,Oromīya,Oromiya,ET-OR,state,,110.4,,,4,Africa/Addis_Ababa,TRUE,1231097329
Biretē,Birete,,9.4500,38.3000,Ethiopia,ET,ETH,Oromīya,Oromiya,ET-OR,state,,197.5,,,4,Africa/Addis_Ababa,FALSE,1231388919
Chasa,Chasa,,9.2000,37.8167,Ethiopia,ET,ETH,Oromīya,Oromiya,ET-OR,state,,203.1,,,3,Africa/Addis_Ababa,FALSE,1231660063
Welīso,Weliso,,8.5333,38.1000,Ethiopia,ET,ETH,Oromīya,Oromiya,ET-OR,state,,352.8,,,3,Africa/Addis_Ababa,FALSE,1231957075
Gilbit’ē,Gilbit'e,,11.1000,39.4167,Ethiopia,ET,ETH,Āmara,Amara,ET-AM,state,,169.8,,,4,Africa/Addis_Ababa,FALSE,1231024864
"Digu Ts’iyon","Digu Ts'iyon","Dega Tsion|Dego Tsiyon",10.9167,37.6500,Ethiopia,ET,ETH,Āmara,Amara,ET-AM,state,,238.4,,,3,Africa/Addis_Ababa,FALSE,1231881269
"Fisihā Genet’","Fisiha Genet'","Fisiha Guennet|Fiseha Genet",6.1167,38.2000,Ethiopia,ET,ETH,"YeDebub Bihēroch Bihēreseboch na Hizboch","YeDebub Biheroch Bihereseboch na Hizboch",ET-SN,state,,866.1,,,3,Africa/Addis_Ababa,FALSE,1231840819
"Duda Ārba","Duda Arba",Legaida,11.5000,39.6833,Ethiopia,ET,ETH,Āmara,Amara,ET-AM,state,,183.8,,,4,Africa/Addis_Ababa,FALSE,1231475209
Vuca,Vuca,Uuca,7.5500,35.8333,Ethiopia,ET,ETH,"YeDebub Bihēroch Bihēreseboch na Hizboch","YeDebub Biheroch Bihereseboch na Hizboch",ET-SN,state,,105.3,,,4,Africa/Addis_Ababa,FALSE,1231450523
"Dīde Guba","Dide Guba",,9.6833,38.8500,Ethiopia,ET,ETH,Oromīya,Oromiya,ET-OR,state,,329.5,,,3,Africa/Addis_Ababa,FALSE,1231792801
Dīnk’orē,Dink'ore,,7.5000,37.4833,Ethiopia,ET,ETH,"YeDebub Bihēroch Bihēreseboch na Hizboch","YeDebub Biheroch Bihereseboch na Hizboch",ET-SN,state,,361.0,,,3,Africa/Addis_Ababa,FALSE,1231538997
Bek’ī,Bek'i,,7.2833,35.5000,Ethiopia,ET,ETH,"YeDebub Bihēroch Bihēreseboch na Hizboch","YeDebub Biheroch Bihereseboch na Hizboch",ET-SN,state,,97.9,,,4,Africa/Addis_Ababa,FALSE,1231357932
Dabba,Dabba,,5.4167,37.4833,Ethiopia,ET,ETH,"YeDebub Bihēroch Bihēreseboch na Hizboch","YeDebub Biheroch Bihereseboch na Hizboch",ET-SN,state,,158.6,,,4,Africa/Addis_Ababa,FALSE,1231997056
"Ābu Sīrba","Abu Sirba",,8.5833,38.7667,Ethiopia,ET,ETH,Oromīya,Oromiya,ET-OR,state,,166.2,,,4,Africa/Addis_Ababa,FALSE,1231892620
"May Hargets’","May Hargets'",,13.7167,37.7667,Ethiopia,ET,ETH,Tigray,Tigray,ET-TI,administration,,49.9,,,4,Africa/Addis_Ababa,FALSE,1231131683
K’uītī,K'uiti,,9.5167,38.8000,Ethiopia,ET,ETH,Oromīya,Oromiya,ET-OR,state,,213.1,,,3,Africa/Addis_Ababa,FALSE,1231959183
Lumamē,Lumame,,10.2500,37.9333,Ethiopia,ET,ETH,Āmara,Amara,ET-AM,state,,190.6,,,4,Africa/Addis_Ababa,FALSE,1231983628
Zarēma,Zarema,Zarima,13.3422,37.8864,Ethiopia,ET,ETH,Āmara,Amara,ET-AM,state,,91.9,,,4,Africa/Addis_Ababa,FALSE,1231109115
Abaroba,Abaroba,,5.2500,37.2667,Ethiopia,ET,ETH,"YeDebub Bihēroch Bihēreseboch na Hizboch","YeDebub Biheroch Bihereseboch na Hizboch",ET-SN,state,,158.6,,,4,Africa/Addis_Ababa,FALSE,1231970651
Ājo,Ajo,,12.6333,39.6000,Ethiopia,ET,ETH,Tigray,Tigray,ET-TI,administration,,104.2,,,4,Africa/Addis_Ababa,FALSE,1231985146
Disim,Disim,,10.8058,39.4980,Ethiopia,ET,ETH,Āmara,Amara,ET-AM,state,,184.0,,,4,Africa/Addis_Ababa,FALSE,1231662798
Ālefa,Alefa,Alafā,11.9500,36.8667,Ethiopia,ET,ETH,Āmara,Amara,ET-AM,state,,116.0,,,4,Africa/Addis_Ababa,FALSE,1231805012
Kachī,Kachi,,8.0833,35.4500,Ethiopia,ET,ETH,Oromīya,Oromiya,ET-OR,state,,48.9,,,4,Africa/Addis_Ababa,FALSE,1231904993
Odeti,Odeti,,4.0667,38.3333,Ethiopia,ET,ETH,Oromīya,Oromiya,ET-OR,state,,9.7,,,5,Africa/Addis_Ababa,FALSE,1231644263
"K’efo Mesk’eya","K'efo Mesk'eya",,11.9000,39.3833,Ethiopia,ET,ETH,Āmara,Amara,ET-AM,state,,179.4,,,4,Africa/Addis_Ababa,FALSE,1231526253
"Debra Ghennet","Debra Ghennet","Debra Gannat",13.8333,38.6167,Ethiopia,ET,ETH,Tigray,Tigray,ET-TI,administration,,153.1,,,4,Africa/Addis_Ababa,FALSE,1231414059
Bofa,Bofa,,8.4667,39.4500,Ethiopia,ET,ETH,Oromīya,Oromiya,ET-OR,state,,152.2,,,4,Africa/Addis_Ababa,FALSE,1231698097
"Gerahu Sirnay","Gerahu Sirnay","Hov|Gergu Sernay|Gerhu Sirnai",14.4920,39.1397,Ethiopia,ET,ETH,Tigray,Tigray,ET-TI,administration,,185.1,,,4,Africa/Addis_Ababa,FALSE,1231845202
"Doyo Gundī","Doyo Gundi",,9.5333,35.3667,Ethiopia,ET,ETH,Oromīya,Oromiya,ET-OR,state,,176.9,,,4,Africa/Addis_Ababa,FALSE,1231161114
Āroda,Aroda,,12.1167,37.7333,Ethiopia,ET,ETH,Āmara,Amara,ET-AM,state,,253.4,,,3,Africa/Addis_Ababa,FALSE,1231790586
"Ādī Ri’isenay","Adi Ri'isenay","Addi Risenay",14.4922,38.2072,Ethiopia,ET,ETH,Tigray,Tigray,ET-TI,administration,,85.8,,,4,Africa/Addis_Ababa,FALSE,1231251748
Ādīsgē,Adisge,Addisghie,9.8500,38.7667,Ethiopia,ET,ETH,Oromīya,Oromiya,ET-OR,state,,227.9,,,3,Africa/Addis_Ababa,FALSE,1231053490
Bīra’i,Bira'i,,9.5528,41.9625,Ethiopia,ET,ETH,"Dirē Dawa","Dire Dawa",ET-DD,administration,,444.7,,,3,Africa/Addis_Ababa,FALSE,1231958398
Wejītu,Wejitu,,9.9500,38.6167,Ethiopia,ET,ETH,Oromīya,Oromiya,ET-OR,state,,222.5,,,3,Africa/Addis_Ababa,FALSE,1231658295
Kilelī’i,Kileli'i,,14.5869,39.1114,Ethiopia,ET,ETH,Tigray,Tigray,ET-TI,administration,,185.1,,,4,Africa/Addis_Ababa,FALSE,1231957448
"Tulu Lemtu","Tulu Lemtu",,10.0167,38.4667,Ethiopia,ET,ETH,Oromīya,Oromiya,ET-OR,state,,260.9,,,3,Africa/Addis_Ababa,FALSE,1231216566
Yabeto,Yabeto,,9.3575,41.8742,Ethiopia,ET,ETH,Oromīya,Oromiya,ET-OR,state,,556.9,,,3,Africa/Addis_Ababa,FALSE,1231385504
"Chera Gudde","Chera Gudde",,9.8333,34.7167,Ethiopia,ET,ETH,"Bīnshangul Gumuz","Binshangul Gumuz",ET-BE,state,,53.0,,,4,Africa/Addis_Ababa,FALSE,1231113918
Gololcha,Gololcha,,9.5450,41.7681,Ethiopia,ET,ETH,"Dirē Dawa","Dire Dawa",ET-DD,administration,,444.7,,,3,Africa/Addis_Ababa,FALSE,1231380399
Fejij,Fejij,,4.6000,36.3500,Ethiopia,ET,ETH,"YeDebub Bihēroch Bihēreseboch na Hizboch","YeDebub Biheroch Bihereseboch na Hizboch",ET-SN,state,,21.4,,,4,Africa/Addis_Ababa,FALSE,1231637383
Wut’uh,Wut'uh,Vutukh,14.6014,39.0794,Ethiopia,ET,ETH,Tigray,Tigray,ET-TI,administration,,185.1,,,4,Africa/Addis_Ababa,FALSE,1231487969
Bukē,Buke,Luccasodo,9.8333,35.1500,Ethiopia,ET,ETH,Oromīya,Oromiya,ET-OR,state,,102.6,,,4,Africa/Addis_Ababa,FALSE,1231155519
Bale,Bale,,9.4383,41.9556,Ethiopia,ET,ETH,Oromīya,Oromiya,ET-OR,state,,647.0,,,3,Africa/Addis_Ababa,FALSE,1231432281
Furzi,Furzi,Furzè,11.2500,41.4500,Ethiopia,ET,ETH,Āfar,Afar,ET-AF,state,,50.5,,,4,Africa/Addis_Ababa,FALSE,1231989962
Uardai,Uardai,,5.5500,37.9000,Ethiopia,ET,ETH,"YeDebub Bihēroch Bihēreseboch na Hizboch","YeDebub Biheroch Bihereseboch na Hizboch",ET-SN,state,,59.2,,,4,Africa/Addis_Ababa,FALSE,1231357223
Dabaca,Dabaca,,7.2000,39.4333,Ethiopia,ET,ETH,Oromīya,Oromiya,ET-OR,state,,220.1,,,3,Africa/Addis_Ababa,FALSE,1231418077
"Finjal Guma","Finjal Guma",,12.4333,39.6000,Ethiopia,ET,ETH,Tigray,Tigray,ET-TI,administration,,162.1,,,4,Africa/Addis_Ababa,FALSE,1231627948
"Ādī Ābanawo","Adi Abanawo",,12.5500,39.3000,Ethiopia,ET,ETH,Tigray,Tigray,ET-TI,administration,,160.6,,,4,Africa/Addis_Ababa,FALSE,1231763619
Hārērē,Harere,,9.5667,38.6333,Ethiopia,ET,ETH,Oromīya,Oromiya,ET-OR,state,,195.3,,,4,Africa/Addis_Ababa,FALSE,1231866230
Furkwa,Furkwa,Furkuo,13.5920,39.6306,Ethiopia,ET,ETH,Tigray,Tigray,ET-TI,administration,,135.6,,,4,Africa/Addis_Ababa,FALSE,1231560118
"Ch’efē Āba Gowē","Ch'efe Aba Gowe","Ch’efē Āba",9.4333,38.6667,Ethiopia,ET,ETH,Oromīya,Oromiya,ET-OR,state,,94.3,,,4,Africa/Addis_Ababa,FALSE,1231404052
Ambalage,Ambalage,"Āmba Ālagē",12.9333,39.5167,Ethiopia,ET,ETH,Tigray,Tigray,ET-TI,administration,,190.9,,,3,Africa/Addis_Ababa,FALSE,1231698802
"Bahir Hat’era","Bahir Hat'era",,12.5667,39.5167,Ethiopia,ET,ETH,Tigray,Tigray,ET-TI,administration,,160.6,,,4,Africa/Addis_Ababa,FALSE,1231312194
Decano,Decano,,7.5333,37.3500,Ethiopia,ET,ETH,Oromīya,Oromiya,ET-OR,state,,215.9,,,3,Africa/Addis_Ababa,FALSE,1231100414
Megest’a,Megest'a,,13.6032,39.2126,Ethiopia,ET,ETH,Tigray,Tigray,ET-TI,administration,,150.3,,,4,Africa/Addis_Ababa,FALSE,1231461277
Kessuma,Kessuma,Chessuma,9.4333,38.4167,Ethiopia,ET,ETH,Oromīya,Oromiya,ET-OR,state,,175.0,,,4,Africa/Addis_Ababa,FALSE,1231566950
Galata,Galata,,8.2500,39.4333,Ethiopia,ET,ETH,Oromīya,Oromiya,ET-OR,state,,200.9,,,3,Africa/Addis_Ababa,FALSE,1231485549
"Sar Āmba","Sar Amba",,10.3443,39.8817,Ethiopia,ET,ETH,Āmara,Amara,ET-AM,state,,280.8,,,3,Africa/Addis_Ababa,FALSE,1231722013
Siedever,Siedever,Sidever,12.0333,37.0000,Ethiopia,ET,ETH,Āmara,Amara,ET-AM,state,,88.3,,,4,Africa/Addis_Ababa,FALSE,1231965588
Atfakarye,Atfakarye,,14.2012,38.6156,Ethiopia,ET,ETH,Tigray,Tigray,ET-TI,administration,,237.9,,,3,Africa/Addis_Ababa,FALSE,1231224234
Gurgur,Gurgur,Gurgura|Gura,7.8000,41.5333,Ethiopia,ET,ETH,Oromīya,Oromiya,ET-OR,state,,18.2,,,4,Africa/Addis_Ababa,FALSE,1231061467
Ābaro,Abaro,,9.7500,38.8167,Ethiopia,ET,ETH,Oromīya,Oromiya,ET-OR,state,,227.9,,,3,Africa/Addis_Ababa,FALSE,1231478293
Bododa,Bododa,,12.5000,42.2000,Ethiopia,ET,ETH,Āfar,Afar,ET-AF,state,,6.2,,,5,Africa/Addis_Ababa,FALSE,1231485782
"Digo ‘Arb Gebeya","Digo `Arb Gebeya",,10.8500,37.7333,Ethiopia,ET,ETH,Āmara,Amara,ET-AM,state,,266.6,,,3,Africa/Addis_Ababa,FALSE,1231326551
Hanat,Hanat,,12.9833,39.3833,Ethiopia,ET,ETH,Tigray,Tigray,ET-TI,administration,,190.9,,,4,Africa/Addis_Ababa,FALSE,1231181617
Moleshet,Moleshet,,11.4500,39.0833,Ethiopia,ET,ETH,Āmara,Amara,ET-AM,state,,156.0,,,4,Africa/Addis_Ababa,FALSE,1231483035
Gīldīma,Gildima,,9.8717,39.9142,Ethiopia,ET,ETH,Āmara,Amara,ET-AM,state,,184.6,,,4,Africa/Addis_Ababa,FALSE,1231573309
Libca,Libca,Libka,11.2833,36.0500,Ethiopia,ET,ETH,"Bīnshangul Gumuz","Binshangul Gumuz",ET-BE,state,,14.0,,,4,Africa/Addis_Ababa,FALSE,1231380998
Gandaba,Gandaba,Gandabal|Gundabella,7.8282,42.1846,Ethiopia,ET,ETH,Sumalē,Sumale,ET-SO,state,,43.9,,,4,Africa/Addis_Ababa,FALSE,1231157321
Puone,Puone,,8.1114,33.1645,Ethiopia,ET,ETH,"Gambēla Hizboch","Gambela Hizboch",ET-GA,administration,,24.1,,,4,Africa/Addis_Ababa,FALSE,1231270312
Orda,Orda,,8.9833,34.7167,Ethiopia,ET,ETH,Oromīya,Oromiya,ET-OR,state,,104.1,,,4,Africa/Addis_Ababa,FALSE,1231292433
"Feres Bēt","Feres Bet",,10.8500,37.6000,Ethiopia,ET,ETH,Āmara,Amara,ET-AM,state,,238.4,,,3,Africa/Addis_Ababa,FALSE,1231777851
"Feres Bēt","Feres Bet","Feses Bēt|Giafarie",10.5350,39.5382,Ethiopia,ET,ETH,Āmara,Amara,ET-AM,state,,117.9,,,4,Africa/Addis_Ababa,TRUE,1231419492
"Feres Bēt","Feres Bet",,10.6810,39.1543,Ethiopia,ET,ETH,Āmara,Amara,ET-AM,state,,111.0,,,4,Africa/Addis_Ababa,TRUE,1231936166
Bizet,Bizet,Tebeka,14.2816,39.2902,Ethiopia,ET,ETH,Tigray,Tigray,ET-TI,administration,,226.6,,,3,Africa/Addis_Ababa,FALSE,1231700422
Dazarīya,Dazariya,,12.1833,39.1000,Ethiopia,ET,ETH,Āmara,Amara,ET-AM,state,,96.0,,,4,Africa/Addis_Ababa,FALSE,1231334117
Tatare,Tatare,Tatarà,12.3667,39.6000,Ethiopia,ET,ETH,Tigray,Tigray,ET-TI,administration,,162.1,,,4,Africa/Addis_Ababa,FALSE,1231166569
Fīltu,Filtu,"Filta|Tappa di Filtu",5.1167,40.6500,Ethiopia,ET,ETH,Oromīya,Oromiya,ET-OR,state,,17.6,,,4,Africa/Addis_Ababa,FALSE,1231143639
Midega,Midega,"Midago|Midagalola|Mīdega|Mīdega Lola|Midagal’da",8.8690,42.1233,Ethiopia,ET,ETH,Oromīya,Oromiya,ET-OR,state,,143.8,,,4,Africa/Addis_Ababa,FALSE,1231421932
"Berē Baka","Bere Baka",,5.9500,36.7833,Ethiopia,ET,ETH,"YeDebub Bihēroch Bihēreseboch na Hizboch","YeDebub Biheroch Bihereseboch na Hizboch",ET-SN,state,,143.0,,,4,Africa/Addis_Ababa,FALSE,1231521579
Ambili,Ambili,,10.6833,36.7000,Ethiopia,ET,ETH,Āmara,Amara,ET-AM,state,,243.4,,,3,Africa/Addis_Ababa,FALSE,1231159952
"Shint Wiha","Shint Wiha",,10.0583,39.4482,Ethiopia,ET,ETH,Āmara,Amara,ET-AM,state,,59.3,,,4,Africa/Addis_Ababa,FALSE,1231929047
Yarī,Yari,,9.4000,34.8833,Ethiopia,ET,ETH,Oromīya,Oromiya,ET-OR,state,,126.2,,,4,Africa/Addis_Ababa,FALSE,1231760009
Wishaye,Wishaye,,6.9833,37.2167,Ethiopia,ET,ETH,"YeDebub Bihēroch Bihēreseboch na Hizboch","YeDebub Biheroch Bihereseboch na Hizboch",ET-SN,state,,133.0,,,4,Africa/Addis_Ababa,FALSE,1231149802
Jelīsa,Jelisa,,9.6667,38.6000,Ethiopia,ET,ETH,Oromīya,Oromiya,ET-OR,state,,202.4,,,3,Africa/Addis_Ababa,FALSE,1231069606
Jelīsa,Jelisa,,9.3167,38.5000,Ethiopia,ET,ETH,Oromīya,Oromiya,ET-OR,state,,175.0,,,4,Africa/Addis_Ababa,TRUE,1231183504
Koga,Koga,,12.1667,37.6333,Ethiopia,ET,ETH,Āmara,Amara,ET-AM,state,,180.5,,,4,Africa/Addis_Ababa,FALSE,1231172019
Galecha,Galecha,"Gede Gelcha|Galga",6.6500,37.7833,Ethiopia,ET,ETH,"YeDebub Bihēroch Bihēreseboch na Hizboch","YeDebub Biheroch Bihereseboch na Hizboch",ET-SN,state,,245.8,,,3,Africa/Addis_Ababa,FALSE,1231000005
Dobi,Dobi,,11.7833,41.5000,Ethiopia,ET,ETH,Āfar,Afar,ET-AF,state,,12.8,,,4,Africa/Addis_Ababa,FALSE,1231800030
"Mertule Maryam","Mertule Maryam","Martula Mariam|Mertule Mariam|Merto Lemariam|Mertale Mariam|Martula",10.8333,38.2667,Ethiopia,ET,ETH,Āmara,Amara,ET-AM,state,,160.8,,,4,Africa/Addis_Ababa,FALSE,1231354387
"Debre Ma’ar","Debre Ma'ar",,13.8561,39.4108,Ethiopia,ET,ETH,Tigray,Tigray,ET-TI,administration,,163.7,,,4,Africa/Addis_Ababa,FALSE,1231709808
"Genetē Maryam","Genete Maryam",,11.0167,38.1000,Ethiopia,ET,ETH,Āmara,Amara,ET-AM,state,,181.5,,,4,Africa/Addis_Ababa,FALSE,1231805079
Dugu’ā,Dugu'a,,12.8667,39.5333,Ethiopia,ET,ETH,Tigray,Tigray,ET-TI,administration,,190.9,,,4,Africa/Addis_Ababa,FALSE,1231887352
Fitci,Fitci,,8.2667,42.5000,Ethiopia,ET,ETH,Sumalē,Sumale,ET-SO,state,,48.0,,,4,Africa/Addis_Ababa,FALSE,1231462213
Āk’abēt,Ak'abet,,11.7333,38.2833,Ethiopia,ET,ETH,Āmara,Amara,ET-AM,state,,174.0,,,4,Africa/Addis_Ababa,FALSE,1231818539
T’at’ēcha,T'at'echa,,9.6000,38.3000,Ethiopia,ET,ETH,Oromīya,Oromiya,ET-OR,state,,205.7,,,3,Africa/Addis_Ababa,FALSE,1231536789
Dambasuerer,Dambasuerer,,6.9492,42.9033,Ethiopia,ET,ETH,Sumalē,Sumale,ET-SO,state,,5.7,,,5,Africa/Addis_Ababa,FALSE,1231546635
Manchaf,Manchaf,Mancifa,6.9167,41.9833,Ethiopia,ET,ETH,Oromīya,Oromiya,ET-OR,state,,12.0,,,4,Africa/Addis_Ababa,FALSE,1231888000
Birri,Birri,,13.5000,37.9667,Ethiopia,ET,ETH,Āmara,Amara,ET-AM,state,,68.9,,,4,Africa/Addis_Ababa,FALSE,1231059190
Golder,Golder,,7.1333,43.6667,Ethiopia,ET,ETH,Sumalē,Sumale,ET-SO,state,,14.1,,,4,Africa/Addis_Ababa,FALSE,1231289396
Galēsa,Galesa,,9.9000,38.5667,Ethiopia,ET,ETH,Oromīya,Oromiya,ET-OR,state,,260.9,,,3,Africa/Addis_Ababa,FALSE,1231953071
Galēsa,Galesa,,9.1833,38.0667,Ethiopia,ET,ETH,Oromīya,Oromiya,ET-OR,state,,231.8,,,3,Africa/Addis_Ababa,TRUE,1231897575
Galēsa,Galesa,,9.1000,38.1167,Ethiopia,ET,ETH,Oromīya,Oromiya,ET-OR,state,,201.4,,,3,Africa/Addis_Ababa,TRUE,1231394776
Galesa,Galesa,,9.0833,35.3333,Ethiopia,ET,ETH,Oromīya,Oromiya,ET-OR,state,,143.1,,,4,Africa/Addis_Ababa,TRUE,1231207201
"Ādī K’ala","Adi K'ala",,13.4167,39.4167,Ethiopia,ET,ETH,Tigray,Tigray,ET-TI,administration,,113.5,,,4,Africa/Addis_Ababa,FALSE,1231584317
Gubbe,Gubbe,Ciubbe,5.4167,39.7000,Ethiopia,ET,ETH,Oromīya,Oromiya,ET-OR,state,,26.6,,,4,Africa/Addis_Ababa,FALSE,1231130226
Hareho,Hareho,,9.2833,42.4333,Ethiopia,ET,ETH,Oromīya,Oromiya,ET-OR,state,,279.7,,,3,Africa/Addis_Ababa,FALSE,1231789708
Jīmala,Jimala,,6.9833,40.1167,Ethiopia,ET,ETH,Oromīya,Oromiya,ET-OR,state,,36.5,,,4,Africa/Addis_Ababa,FALSE,1231148685
Cormos,Cormos,,5.9333,39.4667,Ethiopia,ET,ETH,Oromīya,Oromiya,ET-OR,state,,17.1,,,4,Africa/Addis_Ababa,FALSE,1231429211
Gond,Gond,,12.4500,37.6833,Ethiopia,ET,ETH,Āmara,Amara,ET-AM,state,,109.7,,,4,Africa/Addis_Ababa,FALSE,1231041214
Zek’ort’,Zek'ort',,10.4833,38.4000,Ethiopia,ET,ETH,Āmara,Amara,ET-AM,state,,148.7,,,4,Africa/Addis_Ababa,FALSE,1231639885
Dīma,Dima,,10.5500,38.1667,Ethiopia,ET,ETH,Āmara,Amara,ET-AM,state,,293.6,,,3,Africa/Addis_Ababa,FALSE,1231522572
Dīma,Dima,,10.0333,38.0000,Ethiopia,ET,ETH,Āmara,Amara,ET-AM,state,,190.6,,,4,Africa/Addis_Ababa,TRUE,1231523882
Uarca,Uarca,,9.1333,42.0500,Ethiopia,ET,ETH,Oromīya,Oromiya,ET-OR,state,,143.8,,,4,Africa/Addis_Ababa,FALSE,1231468998
Hat’esa,Hat'esa,,11.5000,39.8833,Ethiopia,ET,ETH,Āmara,Amara,ET-AM,state,,172.1,,,4,Africa/Addis_Ababa,FALSE,1231401950
Ījeta,Ijeta,,9.9833,38.5667,Ethiopia,ET,ETH,Oromīya,Oromiya,ET-OR,state,,260.9,,,3,Africa/Addis_Ababa,FALSE,1231692181
Mezewele,Mezewele,,14.2035,39.6227,Ethiopia,ET,ETH,Tigray,Tigray,ET-TI,administration,,164.2,,,4,Africa/Addis_Ababa,FALSE,1231226557
Met’k’orīya,Met'k'oriya,,9.8379,39.3767,Ethiopia,ET,ETH,Āmara,Amara,ET-AM,state,,116.5,,,4,Africa/Addis_Ababa,FALSE,1231491872
Wala,Wala,,12.1833,39.3000,Ethiopia,ET,ETH,Āmara,Amara,ET-AM,state,,166.0,,,4,Africa/Addis_Ababa,FALSE,1231251146
Debu,Debu,,9.2667,40.1000,Ethiopia,ET,ETH,Āfar,Afar,ET-AF,state,,21.7,,,4,Africa/Addis_Ababa,FALSE,1231923959
Muja,Muja,"Adi Mugia",12.0667,39.4500,Ethiopia,ET,ETH,Āmara,Amara,ET-AM,state,,166.0,,,4,Africa/Addis_Ababa,FALSE,1231748020
Muja,Muja,Mugia,11.3833,38.4833,Ethiopia,ET,ETH,Āmara,Amara,ET-AM,state,,132.0,,,4,Africa/Addis_Ababa,TRUE,1231011996
"Adi Didei","Adi Didei","Addi Dideti|Addi Didei",13.9333,38.4833,Ethiopia,ET,ETH,Tigray,Tigray,ET-TI,administration,,161.9,,,4,Africa/Addis_Ababa,FALSE,1231745610
Scenhi,Scenhi,,13.2833,37.4500,Ethiopia,ET,ETH,Āmara,Amara,ET-AM,state,,48.8,,,4,Africa/Addis_Ababa,FALSE,1231204601
Gargara,Gargara,,13.3500,39.3833,Ethiopia,ET,ETH,Tigray,Tigray,ET-TI,administration,,108.6,,,4,Africa/Addis_Ababa,FALSE,1231325492
Gargara,Gargara,,13.4513,39.2847,Ethiopia,ET,ETH,Tigray,Tigray,ET-TI,administration,,103.8,,,4,Africa/Addis_Ababa,TRUE,1231486025
Cacuaha,Cacuaha,,12.1000,36.1000,Ethiopia,ET,ETH,Āmara,Amara,ET-AM,state,,14.2,,,4,Africa/Addis_Ababa,FALSE,1231198528
"Mut’a’i Mayēs","Mut'a'i Mayes",,9.2531,39.5106,Ethiopia,ET,ETH,Āmara,Amara,ET-AM,state,,120.7,,,4,Africa/Addis_Ababa,FALSE,1231659911
Ārbo,Arbo,,9.5833,38.9667,Ethiopia,ET,ETH,Oromīya,Oromiya,ET-OR,state,,213.1,,,3,Africa/Addis_Ababa,FALSE,1231099054
Lola,Lola,,7.8667,36.0167,Ethiopia,ET,ETH,Oromīya,Oromiya,ET-OR,state,,132.2,,,4,Africa/Addis_Ababa,FALSE,1231938922
"Wib Hāmer","Wib Hamer",,6.0667,36.5833,Ethiopia,ET,ETH,"YeDebub Bihēroch Bihēreseboch na Hizboch","YeDebub Biheroch Bihereseboch na Hizboch",ET-SN,state,,144.6,,,4,Africa/Addis_Ababa,FALSE,1231976662
"Wib Hāmer","Wib Hamer","Wub Hamer",5.8167,36.4167,Ethiopia,ET,ETH,"YeDebub Bihēroch Bihēreseboch na Hizboch","YeDebub Biheroch Bihereseboch na Hizboch",ET-SN,state,,144.6,,,4,Africa/Addis_Ababa,TRUE,1231428617
"Did Anan","Did Anan",,4.2179,42.5389,Ethiopia,ET,ETH,Sumalē,Sumale,ET-SO,state,,19.1,,,4,Africa/Addis_Ababa,FALSE,1231794817
Karsa,Karsa,,7.7167,37.0000,Ethiopia,ET,ETH,Oromīya,Oromiya,ET-OR,state,,247.2,,,3,Africa/Addis_Ababa,FALSE,1231802823
Borena,Borena,,10.7500,38.7667,Ethiopia,ET,ETH,Āmara,Amara,ET-AM,state,,206.1,,,3,Africa/Addis_Ababa,FALSE,1231383097
Dībīsa,Dibisa,,10.3667,38.1333,Ethiopia,ET,ETH,Āmara,Amara,ET-AM,state,,293.6,,,3,Africa/Addis_Ababa,FALSE,1231698494
Jelhalali,Jelhalali,Dzhel’khalali,6.6467,43.8356,Ethiopia,ET,ETH,Sumalē,Sumale,ET-SO,state,,14.1,,,4,Africa/Addis_Ababa,FALSE,1231407179
"Adi Ghemtela","Adi Ghemtela",,13.9500,37.4000,Ethiopia,ET,ETH,Tigray,Tigray,ET-TI,administration,,49.9,,,4,Africa/Addis_Ababa,FALSE,1231686674
"Ādam Terē","Adam Tere",Logia|Loja,8.7000,38.8167,Ethiopia,ET,ETH,Oromīya,Oromiya,ET-OR,state,,166.2,,,4,Africa/Addis_Ababa,FALSE,1231222851
Himmali,Himmali,Khimmali,14.2616,40.1105,Ethiopia,ET,ETH,Āfar,Afar,ET-AF,state,,35.1,,,4,Africa/Addis_Ababa,FALSE,1231889436
"Balla Mudana","Balla Mudana",,7.2333,41.2500,Ethiopia,ET,ETH,Oromīya,Oromiya,ET-OR,state,,12.0,,,4,Africa/Addis_Ababa,FALSE,1231860324
Wegrezīh,Wegrezih,,14.3116,39.2765,Ethiopia,ET,ETH,Tigray,Tigray,ET-TI,administration,,226.6,,,3,Africa/Addis_Ababa,FALSE,1231395709
K’urēmanyo,K'uremanyo,,9.6500,38.8833,Ethiopia,ET,ETH,Oromīya,Oromiya,ET-OR,state,,329.5,,,3,Africa/Addis_Ababa,FALSE,1231042289
Uetca,Uetca,,5.1333,42.8000,Ethiopia,ET,ETH,Sumalē,Sumale,ET-SO,state,,6.5,,,5,Africa/Addis_Ababa,FALSE,1231336342
"Derek’ Āmba","Derek' Amba",,10.7029,39.2701,Ethiopia,ET,ETH,Āmara,Amara,ET-AM,state,,224.0,,,3,Africa/Addis_Ababa,FALSE,1231352346
Telech’o,Telech'o,,9.1667,38.4667,Ethiopia,ET,ETH,Oromīya,Oromiya,ET-OR,state,,181.6,,,4,Africa/Addis_Ababa,FALSE,1231984118
Salē,Sale,,12.7000,39.5833,Ethiopia,ET,ETH,Tigray,Tigray,ET-TI,administration,,185.0,,,4,Africa/Addis_Ababa,FALSE,1231983822
Halisa,Halisa,,9.8333,43.1000,Ethiopia,ET,ETH,Sumalē,Sumale,ET-SO,state,,137.9,,,4,Africa/Addis_Ababa,FALSE,1231412506
"Āme T’īsa","Ame T'isa",,9.3455,41.4859,Ethiopia,ET,ETH,Oromīya,Oromiya,ET-OR,state,,589.5,,,3,Africa/Addis_Ababa,FALSE,1231861620
"Sceca Daab","Sceca Daab",,13.4500,37.3667,Ethiopia,ET,ETH,Tigray,Tigray,ET-TI,administration,,44.0,,,4,Africa/Addis_Ababa,FALSE,1231380554
Ch’elemo,Ch'elemo,,8.4167,38.4500,Ethiopia,ET,ETH,Oromīya,Oromiya,ET-OR,state,,161.7,,,4,Africa/Addis_Ababa,FALSE,1231797561
Toba,Toba,Tobba,8.0167,36.5167,Ethiopia,ET,ETH,Oromīya,Oromiya,ET-OR,state,,162.6,,,4,Africa/Addis_Ababa,FALSE,1231393348
Dugu,Dugu,Dugh,9.3675,42.9547,Ethiopia,ET,ETH,Sumalē,Sumale,ET-SO,state,,192.5,,,4,Africa/Addis_Ababa,FALSE,1231051049
Āsol,Asol,,11.1333,38.9833,Ethiopia,ET,ETH,Āmara,Amara,ET-AM,state,,124.7,,,4,Africa/Addis_Ababa,FALSE,1231677557
Yelen,Yelen,,10.0739,39.8957,Ethiopia,ET,ETH,Āmara,Amara,ET-AM,state,,207.4,,,3,Africa/Addis_Ababa,FALSE,1231281416
Debar,Debar,,12.8667,39.5500,Ethiopia,ET,ETH,Tigray,Tigray,ET-TI,administration,,190.8,,,4,Africa/Addis_Ababa,FALSE,1231570935
Iftoa,Iftoa,,8.4333,40.7833,Ethiopia,ET,ETH,Oromīya,Oromiya,ET-OR,state,,66.0,,,4,Africa/Addis_Ababa,FALSE,1231990345
Etifon,Etifon,,14.3093,39.9917,Ethiopia,ET,ETH,Āfar,Afar,ET-AF,state,,35.1,,,4,Africa/Addis_Ababa,FALSE,1231958988
Koyu,Koyu,,8.2377,33.8445,Ethiopia,ET,ETH,"Gambēla Hizboch","Gambela Hizboch",ET-GA,administration,,58.9,,,4,Africa/Addis_Ababa,FALSE,1231842372
Dirmo,Dirmo,,12.3500,39.1833,Ethiopia,ET,ETH,Āmara,Amara,ET-AM,state,,96.0,,,4,Africa/Addis_Ababa,FALSE,1231644276
"Bitilta Zebraro","Bitilta Zebraro",,10.7667,36.7833,Ethiopia,ET,ETH,Āmara,Amara,ET-AM,state,,243.4,,,3,Africa/Addis_Ababa,FALSE,1231558923
K’et’a,K'et'a,,11.4000,38.1667,Ethiopia,ET,ETH,Āmara,Amara,ET-AM,state,,132.0,,,4,Africa/Addis_Ababa,FALSE,1231390972
Guila,Guila,,14.0647,39.6541,Ethiopia,ET,ETH,Tigray,Tigray,ET-TI,administration,,164.2,,,4,Africa/Addis_Ababa,FALSE,1231353974
Āmbela,Ambela,,10.7316,39.2132,Ethiopia,ET,ETH,Āmara,Amara,ET-AM,state,,224.0,,,3,Africa/Addis_Ababa,FALSE,1231248667
Borgebba,Borgebba,,7.9500,33.5833,Ethiopia,ET,ETH,"Gambēla Hizboch","Gambela Hizboch",ET-GA,administration,,4.9,,,5,Africa/Addis_Ababa,FALSE,1231210868
"Ualta Hado","Ualta Hado",,12.1333,38.7000,Ethiopia,ET,ETH,Āmara,Amara,ET-AM,state,,81.5,,,4,Africa/Addis_Ababa,FALSE,1231137649
Gando,Gando,,8.4500,37.0500,Ethiopia,ET,ETH,Oromīya,Oromiya,ET-OR,state,,111.3,,,4,Africa/Addis_Ababa,FALSE,1231236867
Duber,Duber,,9.4833,38.8333,Ethiopia,ET,ETH,Oromīya,Oromiya,ET-OR,state,,213.1,,,3,Africa/Addis_Ababa,FALSE,1231836507
Dago,Dago,,11.2667,36.0667,Ethiopia,ET,ETH,"Bīnshangul Gumuz","Binshangul Gumuz",ET-BE,state,,14.0,,,4,Africa/Addis_Ababa,FALSE,1231525833
Dihol,Dihol,,12.6667,37.3833,Ethiopia,ET,ETH,Āmara,Amara,ET-AM,state,,194.9,,,4,Africa/Addis_Ababa,FALSE,1231659221
Ghiragoba,Ghiragoba,,12.6333,39.6500,Ethiopia,ET,ETH,Tigray,Tigray,ET-TI,administration,,104.2,,,4,Africa/Addis_Ababa,FALSE,1231700365
"Āderē Wama","Adere Wama",,8.7500,36.7500,Ethiopia,ET,ETH,Oromīya,Oromiya,ET-OR,state,,149.6,,,4,Africa/Addis_Ababa,FALSE,1231408527
"Āhmed Āger","Ahmed Ager","Āhimed Āger|Alame Agher",8.9500,39.6333,Ethiopia,ET,ETH,Āmara,Amara,ET-AM,state,,97.8,,,4,Africa/Addis_Ababa,FALSE,1231109482
"Balli Bulhan","Balli Bulhan",,4.9667,43.5667,Ethiopia,ET,ETH,Sumalē,Sumale,ET-SO,state,,6.5,,,5,Africa/Addis_Ababa,FALSE,1231185096
Mullu,Mullu,,8.5333,42.4000,Ethiopia,ET,ETH,Oromīya,Oromiya,ET-OR,state,,26.2,,,4,Africa/Addis_Ababa,FALSE,1231162555
Garollo,Garollo,"Corollo Uaraua",4.6500,38.8500,Ethiopia,ET,ETH,Oromīya,Oromiya,ET-OR,state,,6.6,,,5,Africa/Addis_Ababa,FALSE,1231296644
Gemē,Geme,,8.3000,38.7167,Ethiopia,ET,ETH,Oromīya,Oromiya,ET-OR,state,,216.3,,,3,Africa/Addis_Ababa,FALSE,1231131897
Sebeko,Sebeko,,11.3333,37.8333,Ethiopia,ET,ETH,Āmara,Amara,ET-AM,state,,294.4,,,3,Africa/Addis_Ababa,FALSE,1231454640
Gwanyoch,Gwanyoch,,11.6000,39.1000,Ethiopia,ET,ETH,Āmara,Amara,ET-AM,state,,156.0,,,4,Africa/Addis_Ababa,FALSE,1231615448
Bīdu,Bidu,,9.5000,38.4333,Ethiopia,ET,ETH,Oromīya,Oromiya,ET-OR,state,,175.0,,,4,Africa/Addis_Ababa,FALSE,1231119575
Bīdu,Bidu,,9.3000,38.4333,Ethiopia,ET,ETH,Oromīya,Oromiya,ET-OR,state,,175.0,,,4,Africa/Addis_Ababa,TRUE,1231000025
"Nifas T’emany","Nifas T'emany",,10.8505,39.9669,Ethiopia,ET,ETH,Āmara,Amara,ET-AM,state,,145.8,,,4,Africa/Addis_Ababa,FALSE,1231150109
Horancia,Horancia,,6.5167,38.7333,Ethiopia,ET,ETH,"YeDebub Bihēroch Bihēreseboch na Hizboch","YeDebub Biheroch Bihereseboch na Hizboch",ET-SN,state,,712.2,,,3,Africa/Addis_Ababa,FALSE,1231854251
Ribī,Ribi,,8.6414,36.2349,Ethiopia,ET,ETH,Oromīya,Oromiya,ET-OR,state,,66.1,,,4,Africa/Addis_Ababa,FALSE,1231633310
"Tach Āgerīt","Tach Agerit",,10.0667,38.9167,Ethiopia,ET,ETH,Āmara,Amara,ET-AM,state,,159.4,,,4,Africa/Addis_Ababa,FALSE,1231245678
K’īlē,K'ile,,9.2381,42.2231,Ethiopia,ET,ETH,"Hārerī Hizb","Hareri Hizb",ET-HA,administration,,689.5,,,3,Africa/Addis_Ababa,FALSE,1231940727
Maru,Maru,Mara,12.4833,39.7000,Ethiopia,ET,ETH,Tigray,Tigray,ET-TI,administration,,104.2,,,4,Africa/Addis_Ababa,FALSE,1231064945
Cabana,Cabana,,7.2167,40.5500,Ethiopia,ET,ETH,Oromīya,Oromiya,ET-OR,state,,82.2,,,4,Africa/Addis_Ababa,FALSE,1231933086
Tutī,Tuti,,9.8000,38.3000,Ethiopia,ET,ETH,Oromīya,Oromiya,ET-OR,state,,161.2,,,4,Africa/Addis_Ababa,FALSE,1231610431
Ma’o,Ma'o,,9.3000,34.7167,Ethiopia,ET,ETH,Oromīya,Oromiya,ET-OR,state,,126.2,,,4,Africa/Addis_Ababa,FALSE,1231292855
"Īlala Sodē","Ilala Sode",,8.5167,38.5333,Ethiopia,ET,ETH,Oromīya,Oromiya,ET-OR,state,,161.7,,,4,Africa/Addis_Ababa,FALSE,1231182884
Golbē,Golbe,,8.0500,38.9500,Ethiopia,ET,ETH,Oromīya,Oromiya,ET-OR,state,,152.5,,,4,Africa/Addis_Ababa,FALSE,1231774532
Gīndo,Gindo,,9.4667,38.9000,Ethiopia,ET,ETH,Oromīya,Oromiya,ET-OR,state,,209.5,,,3,Africa/Addis_Ababa,FALSE,1231078636
Gīndo,Gindo,,8.5833,37.6833,Ethiopia,ET,ETH,Oromīya,Oromiya,ET-OR,state,,184.4,,,4,Africa/Addis_Ababa,TRUE,1231072223
"Ihud Gebeya","Ihud Gebeya",,9.0167,38.3000,Ethiopia,ET,ETH,Oromīya,Oromiya,ET-OR,state,,201.4,,,3,Africa/Addis_Ababa,FALSE,1231201259
"Ihud Gebeya","Ihud Gebeya",,9.2000,36.4500,Ethiopia,ET,ETH,Oromīya,Oromiya,ET-OR,state,,142.2,,,4,Africa/Addis_Ababa,TRUE,1231369328
"Ihud Gebeya","Ihud Gebeya","Ihud Gebeya (2)",9.0833,35.9000,Ethiopia,ET,ETH,Oromīya,Oromiya,ET-OR,state,,113.9,,,4,Africa/Addis_Ababa,TRUE,1231123209
"Ihud Gebeya","Ihud Gebeya","Haru|Ihud Gebeya (1)",9.0167,34.5333,Ethiopia,ET,ETH,Oromīya,Oromiya,ET-OR,state,,65.6,,,4,Africa/Addis_Ababa,TRUE,1231718503
Fēdē,Fede,,7.2333,35.4833,Ethiopia,ET,ETH,"YeDebub Bihēroch Bihēreseboch na Hizboch","YeDebub Biheroch Bihereseboch na Hizboch",ET-SN,state,,375.2,,,3,Africa/Addis_Ababa,FALSE,1231464554
K’ut’ī,K'ut'i,,7.4500,36.2167,Ethiopia,ET,ETH,"YeDebub Bihēroch Bihēreseboch na Hizboch","YeDebub Biheroch Bihereseboch na Hizboch",ET-SN,state,,165.8,,,4,Africa/Addis_Ababa,FALSE,1231683042
Mesfa,Mesfa,,11.6167,39.4000,Ethiopia,ET,ETH,Āmara,Amara,ET-AM,state,,179.4,,,4,Africa/Addis_Ababa,FALSE,1231348981
Kabī,Kabi,Cabi,9.8333,38.9167,Ethiopia,ET,ETH,Āmara,Amara,ET-AM,state,,188.3,,,4,Africa/Addis_Ababa,FALSE,1231684051
Kabī,Kabi,Kabie|Kabē,10.8278,39.4687,Ethiopia,ET,ETH,Āmara,Amara,ET-AM,state,,184.0,,,4,Africa/Addis_Ababa,TRUE,1231435200
Godenē,Godene,,9.5247,42.4964,Ethiopia,ET,ETH,Sumalē,Sumale,ET-SO,state,,84.8,,,4,Africa/Addis_Ababa,FALSE,1231856732
"Giram Berom","Giram Berom",,13.1392,39.6820,Ethiopia,ET,ETH,Tigray,Tigray,ET-TI,administration,,108.6,,,4,Africa/Addis_Ababa,FALSE,1231071271
Muscera,Muscera,,12.9000,38.7500,Ethiopia,ET,ETH,Āmara,Amara,ET-AM,state,,33.5,,,4,Africa/Addis_Ababa,FALSE,1231268680
Juba,Juba,,9.7333,38.7000,Ethiopia,ET,ETH,Oromīya,Oromiya,ET-OR,state,,227.9,,,3,Africa/Addis_Ababa,FALSE,1231232068
"Uare Uaio","Uare Uaio","Uarè Uajo",12.9500,39.8500,Ethiopia,ET,ETH,Āfar,Afar,ET-AF,state,,108.6,,,4,Africa/Addis_Ababa,FALSE,1231870939
Cocaieca,Cocaieca,,7.6000,34.9833,Ethiopia,ET,ETH,"Gambēla Hizboch","Gambela Hizboch",ET-GA,administration,,22.1,,,4,Africa/Addis_Ababa,FALSE,1231458143
Deragon,Deragon,,11.7333,37.5833,Ethiopia,ET,ETH,Āmara,Amara,ET-AM,state,,204.6,,,3,Africa/Addis_Ababa,FALSE,1231992642
"Nya’ā Da’o","Nya'a Da'o",,9.3500,38.8833,Ethiopia,ET,ETH,Oromīya,Oromiya,ET-OR,state,,179.0,,,4,Africa/Addis_Ababa,FALSE,1231063127
Afder,Afder,,5.2167,42.1833,Ethiopia,ET,ETH,Sumalē,Sumale,ET-SO,state,,17.7,,,4,Africa/Addis_Ababa,FALSE,1231279588
Afder,Afder,,4.9833,42.2500,Ethiopia,ET,ETH,Sumalē,Sumale,ET-SO,state,,17.7,,,4,Africa/Addis_Ababa,TRUE,1231141461
Birbir,Birbir,,12.6000,39.0667,Ethiopia,ET,ETH,Āmara,Amara,ET-AM,state,,285.4,,,3,Africa/Addis_Ababa,FALSE,1231571865
Momingot,Momingot,,5.2303,43.3388,Ethiopia,ET,ETH,Sumalē,Sumale,ET-SO,state,,6.5,,,5,Africa/Addis_Ababa,FALSE,1231707178
"Addi Colo","Addi Colo","Adi Colò",13.6833,38.3833,Ethiopia,ET,ETH,Tigray,Tigray,ET-TI,administration,,68.9,,,4,Africa/Addis_Ababa,FALSE,1231421837
Ara-Gulube,Ara-Gulube,,7.4077,41.4588,Ethiopia,ET,ETH,Oromīya,Oromiya,ET-OR,state,,12.0,,,4,Africa/Addis_Ababa,FALSE,1231857007
Boholle,Boholle,,11.5667,41.5333,Ethiopia,ET,ETH,Āfar,Afar,ET-AF,state,,50.5,,,4,Africa/Addis_Ababa,FALSE,1231638720
Gieleh,Gieleh,Geleh,8.6667,43.2333,Ethiopia,ET,ETH,Sumalē,Sumale,ET-SO,state,,11.1,,,4,Africa/Addis_Ababa,FALSE,1231980471
Boreka,Boreka,,8.5167,36.5667,Ethiopia,ET,ETH,Oromīya,Oromiya,ET-OR,state,,140.6,,,4,Africa/Addis_Ababa,FALSE,1231711135
Boreka,Boreka,,8.2500,36.6333,Ethiopia,ET,ETH,Oromīya,Oromiya,ET-OR,state,,140.6,,,4,Africa/Addis_Ababa,TRUE,1231645033
Bolla,Bolla,,7.2500,36.5000,Ethiopia,ET,ETH,"YeDebub Bihēroch Bihēreseboch na Hizboch","YeDebub Biheroch Bihereseboch na Hizboch",ET-SN,state,,154.3,,,4,Africa/Addis_Ababa,FALSE,1231298925
Gwal,Gwal,,12.4333,39.3500,Ethiopia,ET,ETH,Tigray,Tigray,ET-TI,administration,,160.6,,,4,Africa/Addis_Ababa,FALSE,1231555433
K’erbo,K'erbo,,9.1000,38.4333,Ethiopia,ET,ETH,Oromīya,Oromiya,ET-OR,state,,217.7,,,3,Africa/Addis_Ababa,FALSE,1231997149
Sabra,Sabra,,12.9333,38.0833,Ethiopia,ET,ETH,Āmara,Amara,ET-AM,state,,120.4,,,4,Africa/Addis_Ababa,FALSE,1231035713
Sabra,Sabra,,12.7833,38.9833,Ethiopia,ET,ETH,Āmara,Amara,ET-AM,state,,78.6,,,4,Africa/Addis_Ababa,TRUE,1231707918
Ādīdo,Adido,,6.1333,38.3000,Ethiopia,ET,ETH,"YeDebub Bihēroch Bihēreseboch na Hizboch","YeDebub Biheroch Bihereseboch na Hizboch",ET-SN,state,,866.1,,,3,Africa/Addis_Ababa,FALSE,1231009189
Trena,Trena,Tareina,10.7833,40.6667,Ethiopia,ET,ETH,Āfar,Afar,ET-AF,state,,4.8,,,5,Africa/Addis_Ababa,FALSE,1231684472
Measake,Measake,,14.3692,38.4766,Ethiopia,ET,ETH,Tigray,Tigray,ET-TI,administration,,114.4,,,4,Africa/Addis_Ababa,FALSE,1231925293
Ghiroffo,Ghiroffo,Ghiriffò,13.2167,41.5167,Ethiopia,ET,ETH,Āfar,Afar,ET-AF,state,,3.6,,,5,Africa/Addis_Ababa,FALSE,1231057821
Borey,Borey,,9.5000,38.9833,Ethiopia,ET,ETH,Oromīya,Oromiya,ET-OR,state,,213.1,,,3,Africa/Addis_Ababa,FALSE,1231435692
K’elk’esha,K'elk'esha,,11.5167,39.9500,Ethiopia,ET,ETH,Āmara,Amara,ET-AM,state,,172.1,,,4,Africa/Addis_Ababa,FALSE,1231320709
Marta,Marta,,9.8667,37.8500,Ethiopia,ET,ETH,Oromīya,Oromiya,ET-OR,state,,154.8,,,4,Africa/Addis_Ababa,FALSE,1231905348
Weteye,Weteye,,11.5167,39.0000,Ethiopia,ET,ETH,Āmara,Amara,ET-AM,state,,156.0,,,4,Africa/Addis_Ababa,FALSE,1231280329
Chidi,Chidi,,7.5000,34.5333,Ethiopia,ET,ETH,"Gambēla Hizboch","Gambela Hizboch",ET-GA,administration,,9.8,,,5,Africa/Addis_Ababa,FALSE,1231946744
T’arak’o,T'arak'o,,12.3167,38.7667,Ethiopia,ET,ETH,Āmara,Amara,ET-AM,state,,83.7,,,4,Africa/Addis_Ababa,FALSE,1231700732
Ābolē,Abole,,10.9509,39.5094,Ethiopia,ET,ETH,Āmara,Amara,ET-AM,state,,169.8,,,4,Africa/Addis_Ababa,FALSE,1231203455
Kamtato,Kamtato,,6.8282,35.8751,Ethiopia,ET,ETH,"YeDebub Bihēroch Bihēreseboch na Hizboch","YeDebub Biheroch Bihereseboch na Hizboch",ET-SN,state,,74.7,,,4,Africa/Addis_Ababa,FALSE,1231716943
"Gind Berberē","Gind Berbere",,10.2167,38.8000,Ethiopia,ET,ETH,Oromīya,Oromiya,ET-OR,state,,171.3,,,4,Africa/Addis_Ababa,FALSE,1231496026
