city,city_ascii,city_alt,lat,lng,country,iso2,iso3,admin_name,admin_name_ascii,admin_code,admin_type,capital,density,population,population_proper,ranking,timezone,same_name,id
Suva,Suva,"Suva City",-18.1416,178.4419,Fiji,FJ,FJI,Rewa,Rewa,FJ-12,province,primary,43.1,185913,88271,1,Pacific/Fiji,FALSE,1242615095
Nadi,Nadi,Nandi,-17.8000,177.4167,Fiji,FJ,FJI,Ba,Ba,FJ-01,province,,951.6,71048,71048,3,Pacific/Fiji,FALSE,1242357822
Nausori,Nausori,,-18.0244,178.5454,Fiji,FJ,FJI,Tailevu,Tailevu,FJ-14,province,,2428.0,57882,57882,2,Pacific/Fiji,FALSE,1242640119
Lautoka,Lautoka,,-17.6242,177.4528,Fiji,FJ,FJI,Ba,Ba,FJ-01,province,,3263.7,52220,52220,2,Pacific/Fiji,FALSE,1242457077
Labasa,Labasa,"Lambasa Mill|Lambasa|Lambassa|Lambase",-16.4311,179.3703,Fiji,FJ,FJI,Macuata,Macuata,FJ-07,province,,1807.7,27949,27949,3,Pacific/Fiji,FALSE,1242740801
Lami,Lami,,-18.1167,178.4167,Fiji,FJ,FJI,Rewa,Rewa,FJ-12,province,,2471.7,20529,20529,2,Pacific/Fiji,FALSE,1242263735
Nakasi,Nakasi,,-18.0667,178.5167,Fiji,FJ,FJI,Naitasiri,Naitasiri,FJ-09,province,,4759.2,18919,18919,2,Pacific/Fiji,FALSE,1242908509
Ba,Ba,Mba,-17.5333,177.6833,Fiji,FJ,FJI,Ba,Ba,FJ-01,province,,1406.4,18526,18526,3,Pacific/Fiji,FALSE,1242193764
Sigatoka,Sigatoka,"Singatoke|Na Singatoka|Nasigatoka|Singatoka",-18.1414,177.5069,Fiji,FJ,FJI,"Nadroga and Navosa","Nadroga and Navosa",FJ-08,province,,1497.6,9622,9622,3,Pacific/Fiji,FALSE,1242813237
Navua,Navua,,-18.2200,178.1800,Fiji,FJ,FJI,Serua,Serua,FJ-13,province,,1005.9,5812,5812,3,Pacific/Fiji,FALSE,1242352730
Vaileka,Vaileka,Vailaka,-17.3667,178.1500,Fiji,FJ,FJI,Ra,Ra,FJ-11,province,,396.5,5078,5078,3,Pacific/Fiji,FALSE,1242804107
Savusavu,Savusavu,,-16.7808,179.3331,Fiji,FJ,FJI,Cakaudrove,Cakaudrove,FJ-03,province,,1133.3,5000,5000,3,Pacific/Fiji,FALSE,1242059998
Levuka,Levuka,,-17.6840,178.8401,Fiji,FJ,FJI,Lomaiviti,Lomaiviti,FJ-06,province,,1004.8,4397,1131,3,Pacific/Fiji,FALSE,1242059078
Namatakula,Namatakula,Matakula,-18.2292,177.7831,Fiji,FJ,FJI,"Nadroga and Navosa","Nadroga and Navosa",FJ-08,province,,30.6,2522,2522,3,Pacific/Fiji,FALSE,1242531774
Tavua,Tavua,Tarua,-17.4419,177.8631,Fiji,FJ,FJI,Ba,Ba,FJ-01,province,,23.9,2388,2388,3,Pacific/Fiji,FALSE,1242011528
"Pacific Harbour","Pacific Harbour",,-18.2400,178.0600,Fiji,FJ,FJI,Serua,Serua,FJ-13,province,,65.2,1874,1874,4,Pacific/Fiji,FALSE,1242346588
Naroi,Naroi,,-18.6000,179.8833,Fiji,FJ,FJI,,,,,,13.8,550,550,3,Pacific/Fiji,FALSE,1242090483
"Vatawai Settlement","Vatawai Settlement",,-17.6534,177.7073,Fiji,FJ,FJI,Ba,Ba,FJ-01,province,,6.7,,,5,Pacific/Fiji,FALSE,1242293070
"Ruaruavesi Settlement","Ruaruavesi Settlement",,-16.4894,178.9293,Fiji,FJ,FJI,Macuata,Macuata,FJ-07,province,,6.5,,,5,Pacific/Fiji,FALSE,1242000085
"Nagasau Settlement","Nagasau Settlement",,-18.2030,177.6764,Fiji,FJ,FJI,"Nadroga and Navosa","Nadroga and Navosa",FJ-08,province,,23.6,,,4,Pacific/Fiji,FALSE,1242875421
Sorokoba,Sorokoba,Sorokomba,-17.4903,177.7042,Fiji,FJ,FJI,Ba,Ba,FJ-01,province,,346.2,,,3,Pacific/Fiji,FALSE,1242583191
"Yarolevu Settlement","Yarolevu Settlement",,-17.6754,177.1096,Fiji,FJ,FJI,"Nadroga and Navosa","Nadroga and Navosa",FJ-08,province,,349.6,,,3,Pacific/Fiji,FALSE,1242000027
Biaugunu,Biaugunu,Biagunu|Mbiaungunu|Vunivundi,-16.4433,179.7411,Fiji,FJ,FJI,Cakaudrove,Cakaudrove,FJ-03,province,,6.1,,,4,Pacific/Fiji,FALSE,1242818567
Biaugunu,Biaugunu,Mbiaungunu,-16.6627,179.3524,Fiji,FJ,FJI,Cakaudrove,Cakaudrove,FJ-03,province,,4.2,,,5,Pacific/Fiji,TRUE,1242852520
"Lomanibai Settlement","Lomanibai Settlement",,-16.7569,179.3619,Fiji,FJ,FJI,Cakaudrove,Cakaudrove,FJ-03,province,,112.0,,,4,Pacific/Fiji,FALSE,1242000249
Burelevu,Burelevu,Mburelevu,-17.5468,178.1476,Fiji,FJ,FJI,Ra,Ra,FJ-11,province,,12.2,,,4,Pacific/Fiji,FALSE,1242635006
"Vola Settlement","Vola Settlement",,-16.3290,179.8129,Fiji,FJ,FJI,Cakaudrove,Cakaudrove,FJ-03,province,,13.4,,,4,Pacific/Fiji,FALSE,1242000141
Viani,Viani,,-16.7425,179.5817,Fiji,FJ,FJI,Cakaudrove,Cakaudrove,FJ-03,province,,11.0,,,4,Pacific/Fiji,FALSE,1242794187
Vusasivo,Vusasivo,Muaniseva,-16.5667,179.7667,Fiji,FJ,FJI,,,,,,31.5,,,4,Pacific/Fiji,FALSE,1242197845
Narara,Narara,,-17.4236,178.1414,Fiji,FJ,FJI,Ra,Ra,FJ-11,province,,17.7,,,4,Pacific/Fiji,FALSE,1242235636
"Namoka Settlement","Namoka Settlement",,-17.9900,178.3180,Fiji,FJ,FJI,Naitasiri,Naitasiri,FJ-09,province,,21.5,,,4,Pacific/Fiji,FALSE,1242833185
"Iteni Settlement","Iteni Settlement",,-16.3423,179.5425,Fiji,FJ,FJI,Macuata,Macuata,FJ-07,province,,33.2,,,4,Pacific/Fiji,FALSE,1242000197
"Iteni Settlement","Iteni Settlement",,-16.2845,179.7768,Fiji,FJ,FJI,Macuata,Macuata,FJ-07,province,,4.0,,,5,Pacific/Fiji,TRUE,1242000167
Naseyani,Naseyani,Nasaiyani,-17.4966,178.0015,Fiji,FJ,FJI,Ra,Ra,FJ-11,province,,5.6,,,5,Pacific/Fiji,FALSE,1242036640
Tuapona,Tuapona,,-12.5167,177.1167,Fiji,FJ,FJI,Rotuma,Rotuma,FJ-R,dependency,,28.6,,,4,Pacific/Fiji,FALSE,1242983955
"Old Lololo Village","Old Lololo Village",,-17.5698,177.5807,Fiji,FJ,FJI,Ba,Ba,FJ-01,province,,26.5,,,4,Pacific/Fiji,FALSE,1242000039
Nalele,Nalele,,-15.7530,-179.8870,Fiji,FJ,FJI,Macuata,Macuata,FJ-07,province,,6.4,,,5,Pacific/Fiji,FALSE,1242234305
"Vatumaro Settlement","Vatumaro Settlement",,-17.7944,177.6598,Fiji,FJ,FJI,Ba,Ba,FJ-01,province,,4.8,,,5,Pacific/Fiji,FALSE,1242841557
Nalele,Nalele,,-18.0867,177.3452,Fiji,FJ,FJI,"Nadroga and Navosa","Nadroga and Navosa",FJ-08,province,,66.0,,,4,Pacific/Fiji,FALSE,1242438818
Naividamu,Naividamu,Navindom|Naivindamu|Navindamu,-19.1230,-178.6009,Fiji,FJ,FJI,Lau,Lau,FJ-05,province,,11.7,,,4,Pacific/Fiji,FALSE,1242689136
Eritabeta,Eritabeta,,-16.4703,-179.9704,Fiji,FJ,FJI,Cakaudrove,Cakaudrove,FJ-03,province,,123.0,,,4,Pacific/Fiji,FALSE,1242000236
"Waidra Settlement","Waidra Settlement",,-17.7251,178.8011,Fiji,FJ,FJI,Lomaiviti,Lomaiviti,FJ-06,province,,127.2,,,4,Pacific/Fiji,FALSE,1242884443
Vitogo,Vitogo,Vitongo,-17.5922,177.4956,Fiji,FJ,FJI,Ba,Ba,FJ-01,province,,795.7,,,3,Pacific/Fiji,FALSE,1242149978
"Naibalebale Settlement","Naibalebale Settlement",,-17.7930,179.1608,Fiji,FJ,FJI,Lomaiviti,Lomaiviti,FJ-06,province,,24.9,,,4,Pacific/Fiji,FALSE,1242429498
"Dodosi Settlement","Dodosi Settlement",,-17.5859,178.2227,Fiji,FJ,FJI,Ra,Ra,FJ-11,province,,22.7,,,4,Pacific/Fiji,FALSE,1242543088
"Tobulevu Settlement","Tobulevu Settlement",,-17.5312,178.2164,Fiji,FJ,FJI,Ra,Ra,FJ-11,province,,22.7,,,4,Pacific/Fiji,FALSE,1242223592
Nabouciwa,Nabouciwa,Nambouthiwa|Nambothiwa,-18.0601,178.6214,Fiji,FJ,FJI,Tailevu,Tailevu,FJ-14,province,,56.0,,,4,Pacific/Fiji,FALSE,1242697104
Sawakasa,Sawakasa,,-17.7507,178.5471,Fiji,FJ,FJI,Tailevu,Tailevu,FJ-14,province,,81.9,,,4,Pacific/Fiji,FALSE,1242323660
"Nawada Settlement","Nawada Settlement",,-17.6226,178.2778,Fiji,FJ,FJI,Ra,Ra,FJ-11,province,,11.4,,,4,Pacific/Fiji,FALSE,1242572870
Tiburaro,Tiburaro,,-16.4551,-179.9610,Fiji,FJ,FJI,Cakaudrove,Cakaudrove,FJ-03,province,,12.1,,,4,Pacific/Fiji,FALSE,1242000233
"Kabulu Settlement","Kabulu Settlement",,-16.9651,178.6876,Fiji,FJ,FJI,Bua,Bua,FJ-02,province,,14.1,,,4,Pacific/Fiji,FALSE,1242000057
"Dogotuki Settlement","Dogotuki Settlement",Ndongotuki|Ndongobuki,-16.2346,179.7674,Fiji,FJ,FJI,Macuata,Macuata,FJ-07,province,,2.8,,,5,Pacific/Fiji,FALSE,1242835376
"Vatumisini Settlement","Vatumisini Settlement",,-17.7776,177.7374,Fiji,FJ,FJI,Ba,Ba,FJ-01,province,,11.7,,,4,Pacific/Fiji,FALSE,1242022171
Nalotu,Nalotu,Naloto,-19.0713,178.0504,Fiji,FJ,FJI,Kadavu,Kadavu,FJ-04,province,,29.7,,,4,Pacific/Fiji,FALSE,1242725921
"Naduatoka Settlement","Naduatoka Settlement",,-17.7351,178.4149,Fiji,FJ,FJI,Tailevu,Tailevu,FJ-14,province,,17.4,,,4,Pacific/Fiji,FALSE,1242532103
Namulomulo,Namulomulo,,-17.9256,178.5570,Fiji,FJ,FJI,Tailevu,Tailevu,FJ-14,province,,49.6,,,4,Pacific/Fiji,FALSE,1242547632
Nacekoro,Nacekoro,Naithekoro|Nathekoro,-16.8029,179.3368,Fiji,FJ,FJI,Cakaudrove,Cakaudrove,FJ-03,province,,214.1,,,3,Pacific/Fiji,FALSE,1242465578
"Naba Settlement","Naba Settlement",,-16.8704,-179.8959,Fiji,FJ,FJI,Cakaudrove,Cakaudrove,FJ-03,province,,10.2,,,4,Pacific/Fiji,FALSE,1242000222
Nakavu,Nakavu,Nakwava,-18.1907,178.1052,Fiji,FJ,FJI,Namosi,Namosi,FJ-10,province,,10.2,,,4,Pacific/Fiji,FALSE,1242240209
Nakama,Nakama,,-16.4793,179.3527,Fiji,FJ,FJI,Macuata,Macuata,FJ-07,province,,111.4,,,4,Pacific/Fiji,FALSE,1242271217
Nandiondio,Nandiondio,Ndiondio,-16.7500,-179.7167,Fiji,FJ,FJI,,,,,,27.2,,,4,Pacific/Fiji,FALSE,1242804980
Tovulailai,Tovulailai,,-17.8074,179.4047,Fiji,FJ,FJI,Lomaiviti,Lomaiviti,FJ-06,province,,24.7,,,4,Pacific/Fiji,FALSE,1242610672
Namanusa,Namanusa,Ravitaki,-19.1327,178.1293,Fiji,FJ,FJI,Kadavu,Kadavu,FJ-04,province,,24.2,,,4,Pacific/Fiji,FALSE,1242529232
"Nasalia Settlement","Nasalia Settlement",,-16.4927,179.2409,Fiji,FJ,FJI,Macuata,Macuata,FJ-07,province,,11.6,,,4,Pacific/Fiji,FALSE,1242000347
Naisogovau,Naisogovau,Naisongovau,-18.0189,178.6211,Fiji,FJ,FJI,Tailevu,Tailevu,FJ-14,province,,141.9,,,4,Pacific/Fiji,FALSE,1242743883
Vione,Vione,,-17.9413,179.2923,Fiji,FJ,FJI,Lomaiviti,Lomaiviti,FJ-06,province,,19.5,,,4,Pacific/Fiji,FALSE,1242638240
"Nalucu Settlement","Nalucu Settlement",,-16.6019,178.8902,Fiji,FJ,FJI,Macuata,Macuata,FJ-07,province,,13.8,,,4,Pacific/Fiji,FALSE,1242000102
Nailou,Nailou,,-16.4833,179.9000,Fiji,FJ,FJI,,,,,,17.7,,,4,Pacific/Fiji,FALSE,1242031531
Tamura,Tamura,,-12.4921,177.0536,Fiji,FJ,FJI,Rotuma,Rotuma,FJ-R,dependency,,42.3,,,4,Pacific/Fiji,FALSE,1242985595
Tamura,Tamura,,-12.4821,177.0672,Fiji,FJ,FJI,Rotuma,Rotuma,FJ-R,dependency,,19.4,,,4,Pacific/Fiji,TRUE,1242835698
"Vunato Settlement","Vunato Settlement",,-17.6139,177.4724,Fiji,FJ,FJI,Ba,Ba,FJ-01,province,,1145.6,,,3,Pacific/Fiji,FALSE,1242460277
"Naqai Settlement","Naqai Settlement",,-16.4402,179.3750,Fiji,FJ,FJI,Macuata,Macuata,FJ-07,province,,759.0,,,3,Pacific/Fiji,FALSE,1242000352
Wainisikia,Wainisikia,,-17.9333,178.5667,Fiji,FJ,FJI,,,,,,57.5,,,4,Pacific/Fiji,FALSE,1242856205
Daliconi,Daliconi,Ndatithoni,-17.2221,-178.9637,Fiji,FJ,FJI,Lau,Lau,FJ-05,province,,11.6,,,4,Pacific/Fiji,FALSE,1242284373
"Nukuterea Settlement","Nukuterea Settlement",,-17.7216,178.3787,Fiji,FJ,FJI,Tailevu,Tailevu,FJ-14,province,,10.7,,,4,Pacific/Fiji,FALSE,1242458237
Nasava,Nasava,,-17.8845,178.0810,Fiji,FJ,FJI,Naitasiri,Naitasiri,FJ-09,province,,9.0,,,5,Pacific/Fiji,FALSE,1242509781
Vatusekiyasawa,Vatusekiyasawa,Vatuseikiyasawa,-17.3941,178.1322,Fiji,FJ,FJI,Ra,Ra,FJ-11,province,,40.4,,,4,Pacific/Fiji,FALSE,1242780366
Naivibita,Naivibita,,-18.1370,178.5529,Fiji,FJ,FJI,Rewa,Rewa,FJ-12,province,,33.2,,,4,Pacific/Fiji,FALSE,1242692051
Nakanakana,Nakanakana,Kanakana,-16.6167,179.8667,Fiji,FJ,FJI,,,,,,12.7,,,4,Pacific/Fiji,FALSE,1242962202
Sawani,Sawani,,-18.0234,178.4715,Fiji,FJ,FJI,Naitasiri,Naitasiri,FJ-09,province,,134.5,,,4,Pacific/Fiji,FALSE,1242586798
Muanaicake,Muanaicake,Muanaithake|Muanaira,-18.1276,178.5391,Fiji,FJ,FJI,Rewa,Rewa,FJ-12,province,,39.6,,,4,Pacific/Fiji,FALSE,1242623796
Kibeuri,Kibeuri,,-16.4603,-179.9630,Fiji,FJ,FJI,Cakaudrove,Cakaudrove,FJ-03,province,,12.1,,,4,Pacific/Fiji,FALSE,1242000234
Sawani,Sawani,,-16.9109,178.8144,Fiji,FJ,FJI,Bua,Bua,FJ-02,province,,15.6,,,4,Pacific/Fiji,FALSE,1242040705
"Tubitubi Settlement","Tubitubi Settlement",,-16.4302,179.7407,Fiji,FJ,FJI,Cakaudrove,Cakaudrove,FJ-03,province,,15.3,,,4,Pacific/Fiji,FALSE,1242000038
Nanoko,Nanoko,,-17.7556,177.8424,Fiji,FJ,FJI,"Nadroga and Navosa","Nadroga and Navosa",FJ-08,province,,6.5,,,5,Pacific/Fiji,FALSE,1242794537
"Dakuni Settlement","Dakuni Settlement",,-18.9506,178.2896,Fiji,FJ,FJI,Kadavu,Kadavu,FJ-04,province,,11.9,,,4,Pacific/Fiji,FALSE,1242757694
"Wainivula Settlement","Wainivula Settlement",,-16.7470,179.4801,Fiji,FJ,FJI,Cakaudrove,Cakaudrove,FJ-03,province,,9.3,,,5,Pacific/Fiji,FALSE,1242000064
"Qeleni Settlement","Qeleni Settlement",,-16.7473,-179.8890,Fiji,FJ,FJI,Cakaudrove,Cakaudrove,FJ-03,province,,23.7,,,4,Pacific/Fiji,FALSE,1242000224
"Delaidogo Settlement","Delaidogo Settlement",,-18.0501,178.4848,Fiji,FJ,FJI,Tailevu,Tailevu,FJ-14,province,,529.8,,,3,Pacific/Fiji,FALSE,1242281488
"Bilalevu Settlement","Bilalevu Settlement",,-18.0052,177.5371,Fiji,FJ,FJI,"Nadroga and Navosa","Nadroga and Navosa",FJ-08,province,,29.7,,,4,Pacific/Fiji,FALSE,1242809319
Matacaucau,Matacaucau,"Na Ivisaro|Matathauthau",-17.7872,178.5786,Fiji,FJ,FJI,Tailevu,Tailevu,FJ-14,province,,46.1,,,4,Pacific/Fiji,FALSE,1242356949
Taviya,Taviya,Tavia,-17.6296,178.7680,Fiji,FJ,FJI,Lomaiviti,Lomaiviti,FJ-06,province,,54.5,,,4,Pacific/Fiji,FALSE,1242831019
Muana,Muana,,-18.0454,178.5838,Fiji,FJ,FJI,Tailevu,Tailevu,FJ-14,province,,265.2,,,3,Pacific/Fiji,FALSE,1242546576
"Nawainiyako Settlement","Nawainiyako Settlement",,-16.9433,179.8987,Fiji,FJ,FJI,Cakaudrove,Cakaudrove,FJ-03,province,,114.7,,,4,Pacific/Fiji,FALSE,1242000128
Vunievuevu,Vunievuevu,Solevu,-18.1420,178.5358,Fiji,FJ,FJI,Rewa,Rewa,FJ-12,province,,33.2,,,4,Pacific/Fiji,FALSE,1242448869
Tonuve,Tonuve,Tonuva,-17.9624,177.7115,Fiji,FJ,FJI,"Nadroga and Navosa","Nadroga and Navosa",FJ-08,province,,5.7,,,5,Pacific/Fiji,FALSE,1242732134
Naisonggo,Naisonggo,,-17.9500,178.4000,Fiji,FJ,FJI,,,,,,55.0,,,4,Pacific/Fiji,FALSE,1242362779
"Ucuicawaqai Settlement","Ucuicawaqai Settlement",,-17.6929,178.8364,Fiji,FJ,FJI,Lomaiviti,Lomaiviti,FJ-06,province,,260.5,,,3,Pacific/Fiji,FALSE,1242519008
Keteira,Keteira,Kiti-i-ra,-18.6167,179.9000,Fiji,FJ,FJI,,,,,,21.1,,,4,Pacific/Fiji,FALSE,1242333266
Waibasaga,Waibasaga,Waimbasanga,-17.8067,178.1090,Fiji,FJ,FJI,Naitasiri,Naitasiri,FJ-09,province,,35.6,,,4,Pacific/Fiji,FALSE,1242580373
Aibong,Aibong,,-16.5251,-179.9962,Fiji,FJ,FJI,Cakaudrove,Cakaudrove,FJ-03,province,,56.1,,,4,Pacific/Fiji,FALSE,1242000244
"Kanacea Settlement","Kanacea Settlement","Nayavu Settlement",-17.2503,-179.1445,Fiji,FJ,FJI,Lau,Lau,FJ-05,province,,3.9,,,5,Pacific/Fiji,FALSE,1242000321
Pa’olo,Pa'olo,,-12.4900,177.1102,Fiji,FJ,FJI,Rotuma,Rotuma,FJ-R,dependency,,20.2,,,4,Pacific/Fiji,FALSE,1242898094
"Vunibuka Settlement","Vunibuka Settlement",,-16.8826,178.6999,Fiji,FJ,FJI,Bua,Bua,FJ-02,province,,11.3,,,4,Pacific/Fiji,FALSE,1242000058
Waito,Waito,,-17.8000,178.4667,Fiji,FJ,FJI,,,,,,5.6,,,5,Pacific/Fiji,FALSE,1242073432
Cawaro,Cawaro,Thawaro|Thawara,-16.2254,179.8491,Fiji,FJ,FJI,Macuata,Macuata,FJ-07,province,,9.1,,,5,Pacific/Fiji,FALSE,1242740446
"Nakasayaga Settlement","Nakasayaga Settlement",,-17.9179,177.8456,Fiji,FJ,FJI,"Nadroga and Navosa","Nadroga and Navosa",FJ-08,province,,5.7,,,5,Pacific/Fiji,FALSE,1242153210
Dogoru,Dogoru,,-16.5574,179.2898,Fiji,FJ,FJI,Macuata,Macuata,FJ-07,province,,11.8,,,4,Pacific/Fiji,FALSE,1242000269
Burelevu,Burelevu,Mburelevu,-17.6669,178.5849,Fiji,FJ,FJI,Tailevu,Tailevu,FJ-14,province,,77.8,,,4,Pacific/Fiji,FALSE,1242234801
"Vunitarawau Settlement","Vunitarawau Settlement",,-16.7979,-179.9916,Fiji,FJ,FJI,Cakaudrove,Cakaudrove,FJ-03,province,,77.9,,,4,Pacific/Fiji,FALSE,1242000261
Naiviivi,Naiviivi,Naiiviivi,-16.7700,-179.7884,Fiji,FJ,FJI,Cakaudrove,Cakaudrove,FJ-03,province,,67.4,,,4,Pacific/Fiji,FALSE,1242517905
Nggalikarua,Nggalikarua,Galligarua,-19.1667,179.7833,Fiji,FJ,FJI,Lau,Lau,FJ-05,province,,21.3,,,4,Pacific/Fiji,FALSE,1242500018
"Waibogi Settlement","Waibogi Settlement",,-18.1445,177.4739,Fiji,FJ,FJI,"Nadroga and Navosa","Nadroga and Navosa",FJ-08,province,,40.5,,,4,Pacific/Fiji,FALSE,1242530462
Burerua,Burerua,Mburerua,-17.7673,178.5319,Fiji,FJ,FJI,Tailevu,Tailevu,FJ-14,province,,28.2,,,4,Pacific/Fiji,FALSE,1242610145
Namada,Namada,Namanda|Vunanitu,-18.1890,177.6214,Fiji,FJ,FJI,"Nadroga and Navosa","Nadroga and Navosa",FJ-08,province,,3.3,,,5,Pacific/Fiji,FALSE,1242411243
"Naivilacalaca Settlement","Naivilacalaca Settlement",Naivilathalatha,-16.7590,179.5196,Fiji,FJ,FJI,Cakaudrove,Cakaudrove,FJ-03,province,,20.5,,,4,Pacific/Fiji,FALSE,1242261229
Naqaidamu,Naqaidamu,Nangaindamu|Nanggaindamu|Nagaidamu,-17.3222,179.4347,Fiji,FJ,FJI,Lomaiviti,Lomaiviti,FJ-06,province,,25.9,,,4,Pacific/Fiji,FALSE,1242174719
Vuo,Vuo,,-16.3712,179.3756,Fiji,FJ,FJI,Macuata,Macuata,FJ-07,province,,48.9,,,4,Pacific/Fiji,FALSE,1242530891
Yanuca,Yanuca,Yanutha,-18.3841,177.9948,Fiji,FJ,FJI,Serua,Serua,FJ-13,province,,91.4,,,4,Pacific/Fiji,FALSE,1242228494
Pephaua,Pephaua,Pephahua,-12.4827,177.0821,Fiji,FJ,FJI,Rotuma,Rotuma,FJ-R,dependency,,19.4,,,4,Pacific/Fiji,FALSE,1242416069
"Bualailai Settlement","Bualailai Settlement",,-16.6723,178.6386,Fiji,FJ,FJI,Bua,Bua,FJ-02,province,,6.7,,,5,Pacific/Fiji,FALSE,1242000016
"Wainakaile Settlement","Wainakaile Settlement",,-18.0314,178.2327,Fiji,FJ,FJI,Naitasiri,Naitasiri,FJ-09,province,,3.0,,,5,Pacific/Fiji,FALSE,1242735641
Waivaka,Waivaka,,-18.0332,178.1783,Fiji,FJ,FJI,Namosi,Namosi,FJ-10,province,,7.8,,,5,Pacific/Fiji,FALSE,1242842282
"Keka Settlement","Keka Settlement",,-16.7655,179.0694,Fiji,FJ,FJI,Cakaudrove,Cakaudrove,FJ-03,province,,3.4,,,5,Pacific/Fiji,FALSE,1242000093
Vatukarasa,Vatukarasa,"Vatau Karasa",-18.1820,177.6045,Fiji,FJ,FJI,"Nadroga and Navosa","Nadroga and Navosa",FJ-08,province,,3.3,,,5,Pacific/Fiji,FALSE,1242312078
Navetau,Navetau,,-16.5167,179.8333,Fiji,FJ,FJI,,,,,,17.7,,,4,Pacific/Fiji,FALSE,1242311408
Navetau,Navetau,Vatuloa,-16.4833,179.6833,Fiji,FJ,FJI,,,,,,4.3,,,5,Pacific/Fiji,TRUE,1242695105
Nubunikavula,Nubunikavula,Numbuniyavula|Numbunikavula,-16.5118,179.4329,Fiji,FJ,FJI,Macuata,Macuata,FJ-07,province,,34.9,,,4,Pacific/Fiji,FALSE,1242187193
Delaiwaimale,Delaiwaimale,,-17.8843,178.3508,Fiji,FJ,FJI,Naitasiri,Naitasiri,FJ-09,province,,26.8,,,4,Pacific/Fiji,FALSE,1242774030
"Nukuloaloa Settlement","Nukuloaloa Settlement",,-17.7029,178.8330,Fiji,FJ,FJI,Lomaiviti,Lomaiviti,FJ-06,province,,194.4,,,4,Pacific/Fiji,FALSE,1242950366
Dogoloa,Dogoloa,Namuamua|Ndongoloa,-17.5621,178.4312,Fiji,FJ,FJI,Ra,Ra,FJ-11,province,,12.5,,,4,Pacific/Fiji,FALSE,1242894475
Numbuyani,Numbuyani,,-16.6667,178.7333,Fiji,FJ,FJI,,,,,,12.8,,,4,Pacific/Fiji,FALSE,1242753061
"Rewa Settlement","Rewa Settlement",,-16.4948,178.9063,Fiji,FJ,FJI,Macuata,Macuata,FJ-07,province,,6.5,,,5,Pacific/Fiji,FALSE,1242000219
Naivutu,Naivutu,,-17.5263,178.1039,Fiji,FJ,FJI,Ra,Ra,FJ-11,province,,4.9,,,5,Pacific/Fiji,FALSE,1242012026
Vunisinu,Vunisinu,Vunisimu,-18.1128,178.5772,Fiji,FJ,FJI,Tailevu,Tailevu,FJ-14,province,,193.2,,,4,Pacific/Fiji,FALSE,1242193780
Nasirotu,Nasirotu,,-18.0230,178.2434,Fiji,FJ,FJI,Naitasiri,Naitasiri,FJ-09,province,,3.0,,,5,Pacific/Fiji,FALSE,1242816717
Navuatu,Navuatu,,-19.0057,178.1623,Fiji,FJ,FJI,Kadavu,Kadavu,FJ-04,province,,14.1,,,4,Pacific/Fiji,FALSE,1242532939
Raviravi,Raviravi,,-17.5333,178.1000,Fiji,FJ,FJI,,,,,,4.9,,,5,Pacific/Fiji,FALSE,1242151482
Yavuna,Yavuna,,-17.8258,177.5365,Fiji,FJ,FJI,Ba,Ba,FJ-01,province,,4.0,,,5,Pacific/Fiji,FALSE,1242504606
"Kabara Settlement","Kabara Settlement",,-17.8307,178.3627,Fiji,FJ,FJI,Tailevu,Tailevu,FJ-14,province,,24.2,,,4,Pacific/Fiji,FALSE,1242356818
Nabalebale,Nabalebale,Naimbalembale,-16.7751,179.5510,Fiji,FJ,FJI,Cakaudrove,Cakaudrove,FJ-03,province,,44.7,,,4,Pacific/Fiji,FALSE,1242678429
Nabalebale,Nabalebale,Nambalembale,-16.6638,179.2557,Fiji,FJ,FJI,Cakaudrove,Cakaudrove,FJ-03,province,,16.2,,,4,Pacific/Fiji,TRUE,1242725278
Feavai,Feavai,,-12.5100,177.0512,Fiji,FJ,FJI,Rotuma,Rotuma,FJ-R,dependency,,42.3,,,4,Pacific/Fiji,FALSE,1242952542
"Vunimaqo Settlement","Vunimaqo Settlement",Vunimanggo,-18.2662,178.0150,Fiji,FJ,FJI,Serua,Serua,FJ-13,province,,17.5,,,4,Pacific/Fiji,FALSE,1242602380
"Matadradra Settlement","Matadradra Settlement",,-18.2613,177.8510,Fiji,FJ,FJI,Serua,Serua,FJ-13,province,,4.1,,,5,Pacific/Fiji,FALSE,1242935688
Malsa’a,Malsa'a,,-12.4921,177.0543,Fiji,FJ,FJI,Rotuma,Rotuma,FJ-R,dependency,,42.3,,,4,Pacific/Fiji,FALSE,1242340130
Batiri,Batiri,Mbatiri,-16.6059,179.0354,Fiji,FJ,FJI,Cakaudrove,Cakaudrove,FJ-03,province,,25.0,,,4,Pacific/Fiji,FALSE,1242413508
Matainadoi,Matainadoi,,-16.2195,179.6777,Fiji,FJ,FJI,Macuata,Macuata,FJ-07,province,,8.4,,,5,Pacific/Fiji,FALSE,1242000203
"Navunidrala Settlement","Navunidrala Settlement",,-17.7858,178.4115,Fiji,FJ,FJI,Tailevu,Tailevu,FJ-14,province,,18.3,,,4,Pacific/Fiji,FALSE,1242474413
"Vuniyarakuka Settlement","Vuniyarakuka Settlement",,-17.8061,178.4457,Fiji,FJ,FJI,Tailevu,Tailevu,FJ-14,province,,7.1,,,5,Pacific/Fiji,FALSE,1242809172
"Bucalevu Settlement","Bucalevu Settlement",Mbuthalevu,-16.7804,-179.9839,Fiji,FJ,FJI,Cakaudrove,Cakaudrove,FJ-03,province,,79.0,,,4,Pacific/Fiji,FALSE,1242000191
"Buitua Settlement","Buitua Settlement",,-17.7342,178.4232,Fiji,FJ,FJI,Tailevu,Tailevu,FJ-14,province,,17.4,,,4,Pacific/Fiji,FALSE,1242161849
"Potu Settlement","Potu Settlement",,-18.2246,-178.7559,Fiji,FJ,FJI,Lau,Lau,FJ-05,province,,9.6,,,5,Pacific/Fiji,FALSE,1242000262
Komave,Komave,Komari,-18.2203,177.7584,Fiji,FJ,FJI,"Nadroga and Navosa","Nadroga and Navosa",FJ-08,province,,30.6,,,4,Pacific/Fiji,FALSE,1242839487
Nayarambale,Nayarambale,,-16.4667,179.5333,Fiji,FJ,FJI,,,,,,5.2,,,5,Pacific/Fiji,FALSE,1242756301
"Nabituleka Settlement","Nabituleka Settlement",,-17.7504,178.3916,Fiji,FJ,FJI,Tailevu,Tailevu,FJ-14,province,,23.4,,,4,Pacific/Fiji,FALSE,1242143413
"Wainaloka Anglican Settlement","Wainaloka Anglican Settlement",,-17.7337,178.7748,Fiji,FJ,FJI,Lomaiviti,Lomaiviti,FJ-06,province,,29.1,,,4,Pacific/Fiji,FALSE,1242351796
"Colasi Settlement","Colasi Settlement",,-17.3672,178.1698,Fiji,FJ,FJI,Ra,Ra,FJ-11,province,,232.0,,,3,Pacific/Fiji,FALSE,1242896240
Jumjumi,Jumjumi,,-12.5058,177.0462,Fiji,FJ,FJI,Rotuma,Rotuma,FJ-R,dependency,,42.3,,,4,Pacific/Fiji,FALSE,1242723831
Vatoa,Vatoa,,-16.4557,179.0935,Fiji,FJ,FJI,Macuata,Macuata,FJ-07,province,,17.5,,,4,Pacific/Fiji,FALSE,1242406678
Vatoa,Vatoa,,-19.8221,-178.2514,Fiji,FJ,FJI,Lau,Lau,FJ-05,province,,47.0,,,4,Pacific/Fiji,FALSE,1242201820
"Nagadro Settlement","Nagadro Settlement",,-17.2644,179.3899,Fiji,FJ,FJI,Lomaiviti,Lomaiviti,FJ-06,province,,28.1,,,4,Pacific/Fiji,FALSE,1242467751
"Halibu Settlement","Halibu Settlement",,-18.0689,177.5657,Fiji,FJ,FJI,"Nadroga and Navosa","Nadroga and Navosa",FJ-08,province,,38.6,,,4,Pacific/Fiji,FALSE,1242103656
Abaca,Abaca,Ambatha|Yambatha,-17.6685,177.5474,Fiji,FJ,FJI,Ba,Ba,FJ-01,province,,11.3,,,4,Pacific/Fiji,FALSE,1242699912
Vitina,Vitina,,-16.3141,179.7100,Fiji,FJ,FJI,Macuata,Macuata,FJ-07,province,,2.8,,,5,Pacific/Fiji,FALSE,1242600149
"Wailotua 2","Wailotua 2",,-17.7591,178.3953,Fiji,FJ,FJI,Tailevu,Tailevu,FJ-14,province,,31.3,,,4,Pacific/Fiji,FALSE,1242805614
Nukuvou,Nukuvou,,-19.0194,178.4617,Fiji,FJ,FJI,Kadavu,Kadavu,FJ-04,province,,14.9,,,4,Pacific/Fiji,FALSE,1242048927
Botenaulu,Botenaulu,Mbotenaulu,-17.8155,178.1082,Fiji,FJ,FJI,Naitasiri,Naitasiri,FJ-09,province,,18.8,,,4,Pacific/Fiji,FALSE,1242120354
Tabuya,Tabuya,Tambuya,-19.1542,178.0550,Fiji,FJ,FJI,Kadavu,Kadavu,FJ-04,province,,25.5,,,4,Pacific/Fiji,FALSE,1242338335
"Muka Settlement","Muka Settlement",,-18.1199,177.3971,Fiji,FJ,FJI,"Nadroga and Navosa","Nadroga and Navosa",FJ-08,province,,39.5,,,4,Pacific/Fiji,FALSE,1242543994
"Nakoroyaqona Settlement","Nakoroyaqona Settlement",,-17.5877,178.1234,Fiji,FJ,FJI,Ra,Ra,FJ-11,province,,13.5,,,4,Pacific/Fiji,FALSE,1242700520
"Naqeledamudamu Settlement","Naqeledamudamu Settlement",,-17.7436,178.7751,Fiji,FJ,FJI,Lomaiviti,Lomaiviti,FJ-06,province,,29.1,,,4,Pacific/Fiji,FALSE,1242730435
"Namosi Settlement","Namosi Settlement",,-16.7682,179.8519,Fiji,FJ,FJI,Cakaudrove,Cakaudrove,FJ-03,province,,5.8,,,5,Pacific/Fiji,FALSE,1242000013
Susui,Susui,,-17.3433,-178.9496,Fiji,FJ,FJI,Lau,Lau,FJ-05,province,,15.3,,,4,Pacific/Fiji,FALSE,1242000345
Namatalylevu,Namatalylevu,Yaqeta|Matayalevu,-16.9972,177.3394,Fiji,FJ,FJI,Ba,Ba,FJ-01,province,,57.1,,,4,Pacific/Fiji,FALSE,1242160568
"Navateqe Settlement","Navateqe Settlement",,-16.2973,179.8149,Fiji,FJ,FJI,Cakaudrove,Cakaudrove,FJ-03,province,,13.4,,,4,Pacific/Fiji,FALSE,1242000143
"Nabuniika Settlement","Nabuniika Settlement",,-17.7086,178.8323,Fiji,FJ,FJI,Lomaiviti,Lomaiviti,FJ-06,province,,87.0,,,4,Pacific/Fiji,FALSE,1242363448
"Marou Settlement","Marou Settlement",,-17.6542,177.9206,Fiji,FJ,FJI,Ba,Ba,FJ-01,province,,7.7,,,5,Pacific/Fiji,FALSE,1242594977
Navatuyaba,Navatuyaba,Vatuyamba|Navatuyamba|Veindik,-18.0657,178.5544,Fiji,FJ,FJI,Rewa,Rewa,FJ-12,province,,757.7,,,3,Pacific/Fiji,FALSE,1242900089
Momi,Momi,,-17.9120,177.2842,Fiji,FJ,FJI,"Nadroga and Navosa","Nadroga and Navosa",FJ-08,province,,34.8,,,4,Pacific/Fiji,FALSE,1242195163
"Nacobo Settlement","Nacobo Settlement",Nathombo,-17.7232,178.8042,Fiji,FJ,FJI,Lomaiviti,Lomaiviti,FJ-06,province,,104.1,,,4,Pacific/Fiji,FALSE,1242571195
Nautovatu,Nautovatu,Natovutovu,-15.7459,-179.9131,Fiji,FJ,FJI,Macuata,Macuata,FJ-07,province,,6.4,,,5,Pacific/Fiji,FALSE,1242635794
Nabouwalu,Nabouwalu,Nambouwalu|Kamba,-18.0046,178.6857,Fiji,FJ,FJI,Tailevu,Tailevu,FJ-14,province,,61.7,,,4,Pacific/Fiji,FALSE,1242556915
Ndiloi,Ndiloi,,-16.6333,179.8667,Fiji,FJ,FJI,,,,,,12.7,,,4,Pacific/Fiji,FALSE,1242168438
Naduruloulou,Naduruloulou,,-17.9745,178.5117,Fiji,FJ,FJI,Naitasiri,Naitasiri,FJ-09,province,,92.4,,,4,Pacific/Fiji,FALSE,1242308463
Natuva,Natuva,,-17.8515,178.3945,Fiji,FJ,FJI,Naitasiri,Naitasiri,FJ-09,province,,20.8,,,4,Pacific/Fiji,FALSE,1242307923
"Dranayavutia Settlement","Dranayavutia Settlement",,-17.3912,178.1687,Fiji,FJ,FJI,Ra,Ra,FJ-11,province,,74.9,,,4,Pacific/Fiji,FALSE,1242720675
Navuniyaro,Navuniyaro,,-17.7874,178.3665,Fiji,FJ,FJI,Naitasiri,Naitasiri,FJ-09,province,,21.5,,,4,Pacific/Fiji,FALSE,1242135513
Naikawaga,Naikawaga,Naikawangga,-17.9235,178.5811,Fiji,FJ,FJI,Tailevu,Tailevu,FJ-14,province,,81.8,,,4,Pacific/Fiji,FALSE,1242550442
Nakarambo,Nakarambo,Nakarabo,-16.5500,179.5667,Fiji,FJ,FJI,,,,,,7.9,,,5,Pacific/Fiji,FALSE,1242087018
"Nukudu Settlement","Nukudu Settlement",,-18.9697,178.2733,Fiji,FJ,FJI,Kadavu,Kadavu,FJ-04,province,,18.7,,,4,Pacific/Fiji,FALSE,1242547192
Tarakua,Tarakua,"Tarokua Village|Tarukua|Tarokua",-17.7243,-179.3292,Fiji,FJ,FJI,Lau,Lau,FJ-05,province,,26.1,,,4,Pacific/Fiji,FALSE,1242385921
Daku,Daku,Ndaku,-18.9622,178.2777,Fiji,FJ,FJI,Kadavu,Kadavu,FJ-04,province,,20.2,,,4,Pacific/Fiji,FALSE,1242514149
"Buresala Settlement","Buresala Settlement",,-17.6804,178.7468,Fiji,FJ,FJI,Lomaiviti,Lomaiviti,FJ-06,province,,19.9,,,4,Pacific/Fiji,FALSE,1242032074
"Navisarata Settlement","Navisarata Settlement",,-17.6789,178.5762,Fiji,FJ,FJI,Tailevu,Tailevu,FJ-14,province,,64.9,,,4,Pacific/Fiji,FALSE,1242662499
Naqumu,Naqumu,Nanggumu|Nangumu,-16.4766,179.0185,Fiji,FJ,FJI,Macuata,Macuata,FJ-07,province,,6.5,,,5,Pacific/Fiji,FALSE,1242521105
"Lomolomo Settlement","Lomolomo Settlement",,-17.9909,177.7279,Fiji,FJ,FJI,"Nadroga and Navosa","Nadroga and Navosa",FJ-08,province,,5.7,,,5,Pacific/Fiji,FALSE,1242764193
"Naba Settlement","Naba Settlement",,-17.3170,178.1553,Fiji,FJ,FJI,Ra,Ra,FJ-11,province,,74.4,,,4,Pacific/Fiji,FALSE,1242537120
Togalevu,Togalevu,,-18.1245,178.3191,Fiji,FJ,FJI,Rewa,Rewa,FJ-12,province,,72.0,,,4,Pacific/Fiji,FALSE,1242215590
Tavakubu,Tavakubu,,-17.6358,177.4607,Fiji,FJ,FJI,Ba,Ba,FJ-01,province,,1009.5,,,3,Pacific/Fiji,FALSE,1242001760
"Nacara Settlement","Nacara Settlement",,-16.8980,178.8162,Fiji,FJ,FJI,Bua,Bua,FJ-02,province,,15.4,,,4,Pacific/Fiji,FALSE,1242000100
"Nawaqarua Set","Nawaqarua Set","Nawanggarua|Na Wangarua",-17.4800,177.6631,Fiji,FJ,FJI,Ba,Ba,FJ-01,province,,114.0,,,4,Pacific/Fiji,FALSE,1242666428
"Nalewale Settlement","Nalewale Settlement",,-16.8759,178.6833,Fiji,FJ,FJI,Bua,Bua,FJ-02,province,,11.3,,,4,Pacific/Fiji,FALSE,1242000053
"Vula Settlement","Vula Settlement",Tavua,-17.6149,177.0871,Fiji,FJ,FJI,"Nadroga and Navosa","Nadroga and Navosa",FJ-08,province,,148.8,,,4,Pacific/Fiji,FALSE,1242051945
"Nabobobo Settlement","Nabobobo Settlement",,-17.9108,177.7850,Fiji,FJ,FJI,"Nadroga and Navosa","Nadroga and Navosa",FJ-08,province,,14.5,,,4,Pacific/Fiji,FALSE,1242154228
Rarama,Rarama,,-18.9500,178.4000,Fiji,FJ,FJI,,,,,,14.8,,,4,Pacific/Fiji,FALSE,1242817856
Wailevu,Wailevu,,-16.6978,179.2435,Fiji,FJ,FJI,Cakaudrove,Cakaudrove,FJ-03,province,,20.6,,,4,Pacific/Fiji,FALSE,1242987789
"Vadraulailai Settlement","Vadraulailai Settlement",,-17.5348,177.6681,Fiji,FJ,FJI,Ba,Ba,FJ-01,province,,1454.5,,,3,Pacific/Fiji,FALSE,1242207696
"Lele Seventh Day Adventist Settlement","Lele Seventh Day Adventist Settlement",,-18.0500,179.2955,Fiji,FJ,FJI,Lomaiviti,Lomaiviti,FJ-06,province,,17.7,,,4,Pacific/Fiji,FALSE,1242198870
Wailevu,Wailevu,,-16.4322,179.3275,Fiji,FJ,FJI,Macuata,Macuata,FJ-07,province,,35.5,,,4,Pacific/Fiji,FALSE,1242479059
Wailevu,Wailevu,,-19.0910,178.1617,Fiji,FJ,FJI,Kadavu,Kadavu,FJ-04,province,,24.1,,,4,Pacific/Fiji,FALSE,1242890139
"Naileqavatu Settlement","Naileqavatu Settlement",,-17.6971,178.3791,Fiji,FJ,FJI,Tailevu,Tailevu,FJ-14,province,,10.1,,,4,Pacific/Fiji,FALSE,1242705314
"Nahou Settlement","Nahou Settlement",,-17.9765,177.5965,Fiji,FJ,FJI,"Nadroga and Navosa","Nadroga and Navosa",FJ-08,province,,35.2,,,4,Pacific/Fiji,FALSE,1242929487
"Vunivasa Settlement","Vunivasa Settlement",,-16.7758,-179.8338,Fiji,FJ,FJI,Cakaudrove,Cakaudrove,FJ-03,province,,23.3,,,4,Pacific/Fiji,FALSE,1242000218
"Wainikaculoa Settlement","Wainikaculoa Settlement",,-18.9778,178.4309,Fiji,FJ,FJI,Kadavu,Kadavu,FJ-04,province,,21.3,,,4,Pacific/Fiji,FALSE,1242820833
"Mataso Settlement","Mataso Settlement",Mataso,-19.0119,178.2489,Fiji,FJ,FJI,Kadavu,Kadavu,FJ-04,province,,14.3,,,4,Pacific/Fiji,FALSE,1242540038
Vacaleya,Vacaleya,Yathalea|Vathaleya,-19.0244,178.4295,Fiji,FJ,FJI,Kadavu,Kadavu,FJ-04,province,,14.9,,,4,Pacific/Fiji,FALSE,1242488854
Colo-i-Suva,Colo-i-Suva,Tholoisuva,-18.0479,178.4455,Fiji,FJ,FJI,Naitasiri,Naitasiri,FJ-09,province,,132.0,,,4,Pacific/Fiji,FALSE,1242871258
Mavua,Mavua,"Koro Kula",-18.0185,177.5498,Fiji,FJ,FJI,"Nadroga and Navosa","Nadroga and Navosa",FJ-08,province,,53.1,,,4,Pacific/Fiji,FALSE,1242080465
Savudrodro,Savudrodro,,-16.7687,179.3768,Fiji,FJ,FJI,Cakaudrove,Cakaudrove,FJ-03,province,,36.7,,,4,Pacific/Fiji,FALSE,1242000361
Tubalevu,Tubalevu,,-17.9380,178.5826,Fiji,FJ,FJI,Tailevu,Tailevu,FJ-14,province,,81.8,,,4,Pacific/Fiji,FALSE,1242113581
Tau,Tau,,-17.9701,177.2808,Fiji,FJ,FJI,"Nadroga and Navosa","Nadroga and Navosa",FJ-08,province,,34.3,,,4,Pacific/Fiji,FALSE,1242736887
"Natovi Settlement","Natovi Settlement",,-17.6754,178.5814,Fiji,FJ,FJI,Tailevu,Tailevu,FJ-14,province,,64.9,,,4,Pacific/Fiji,FALSE,1242577978
Saru,Saru,Naivibuli,-18.1254,177.6459,Fiji,FJ,FJI,"Nadroga and Navosa","Nadroga and Navosa",FJ-08,province,,3.3,,,5,Pacific/Fiji,FALSE,1242968260
"Pagai Settlement","Pagai Settlement",Pangai,-16.7713,-179.8399,Fiji,FJ,FJI,Cakaudrove,Cakaudrove,FJ-03,province,,21.9,,,4,Pacific/Fiji,FALSE,1242830389
"Vatuvanai Settlement","Vatuvanai Settlement",,-16.2895,179.7755,Fiji,FJ,FJI,Macuata,Macuata,FJ-07,province,,4.0,,,5,Pacific/Fiji,FALSE,1242000168
Nawau,Nawau,,-17.9333,177.3333,Fiji,FJ,FJI,,,,,,16.7,,,4,Pacific/Fiji,FALSE,1242932540
Tamavua-i-wai,Tamavua-i-wai,,-18.1040,178.4411,Fiji,FJ,FJI,Rewa,Rewa,FJ-12,province,,1155.4,,,3,Pacific/Fiji,FALSE,1242285847
Lovonivonu,Lovonivonu,,-16.7824,-179.9811,Fiji,FJ,FJI,Cakaudrove,Cakaudrove,FJ-03,province,,80.9,,,4,Pacific/Fiji,FALSE,1242684797
"Naqaributa Settlement","Naqaributa Settlement",,-18.2020,178.1996,Fiji,FJ,FJI,Namosi,Namosi,FJ-10,province,,10.3,,,4,Pacific/Fiji,FALSE,1242820837
Nauouo,Nauouo,Mbutha,-17.6254,178.8089,Fiji,FJ,FJI,Lomaiviti,Lomaiviti,FJ-06,province,,127.1,,,4,Pacific/Fiji,FALSE,1242633098
Serea,Serea,,-17.8492,178.3007,Fiji,FJ,FJI,Naitasiri,Naitasiri,FJ-09,province,,69.3,,,4,Pacific/Fiji,FALSE,1242088254
Navatu,Navatu,,-18.6000,179.9000,Fiji,FJ,FJI,,,,,,21.1,,,4,Pacific/Fiji,FALSE,1242982461
Nukubalavu,Nukubalavu,Nukumbalavu,-16.8153,179.3148,Fiji,FJ,FJI,Cakaudrove,Cakaudrove,FJ-03,province,,144.3,,,4,Pacific/Fiji,FALSE,1242030692
"Soso Settlement","Soso Settlement",,-17.6374,178.5470,Fiji,FJ,FJI,Tailevu,Tailevu,FJ-14,province,,18.7,,,4,Pacific/Fiji,FALSE,1242066434
"Wakanivutu Settlement","Wakanivutu Settlement",,-19.0239,178.4381,Fiji,FJ,FJI,Kadavu,Kadavu,FJ-04,province,,14.9,,,4,Pacific/Fiji,FALSE,1242425251
Wairuarua,Wairuarua,,-17.7136,178.1994,Fiji,FJ,FJI,Naitasiri,Naitasiri,FJ-09,province,,8.7,,,5,Pacific/Fiji,FALSE,1242052218
Naceva,Naceva,Natheva,-18.4192,178.1058,Fiji,FJ,FJI,Serua,Serua,FJ-13,province,,28.3,,,4,Pacific/Fiji,FALSE,1242347460
Nakalavo,Nakalavo,Nakalava,-18.0800,177.5377,Fiji,FJ,FJI,"Nadroga and Navosa","Nadroga and Navosa",FJ-08,province,,23.7,,,4,Pacific/Fiji,FALSE,1242619880
"Navutu Settlement","Navutu Settlement",,-17.6614,178.5756,Fiji,FJ,FJI,Tailevu,Tailevu,FJ-14,province,,77.8,,,4,Pacific/Fiji,FALSE,1242036514
"Naciri Settlement","Naciri Settlement",,-17.9521,178.5737,Fiji,FJ,FJI,Tailevu,Tailevu,FJ-14,province,,124.6,,,4,Pacific/Fiji,FALSE,1242018518
Naraviravi,Naraviravi,,-17.5267,178.1046,Fiji,FJ,FJI,Ra,Ra,FJ-11,province,,4.9,,,5,Pacific/Fiji,FALSE,1242914370
Nasautoka,Nasautoka,,-17.7262,178.3797,Fiji,FJ,FJI,Tailevu,Tailevu,FJ-14,province,,17.4,,,4,Pacific/Fiji,FALSE,1242684298
Driti,Driti,Ndriti,-16.8847,178.7212,Fiji,FJ,FJI,Bua,Bua,FJ-02,province,,11.3,,,4,Pacific/Fiji,FALSE,1242059833
Lomai,Lomai,,-17.9671,178.3375,Fiji,FJ,FJI,Naitasiri,Naitasiri,FJ-09,province,,13.0,,,4,Pacific/Fiji,FALSE,1242127332
Mathuata-i-Wai,Mathuata-i-Wai,Mataithang|Mataithangi,-16.4179,179.0733,Fiji,FJ,FJI,Macuata,Macuata,FJ-07,province,,17.5,,,4,Pacific/Fiji,FALSE,1242687291
Nukuloa,Nukuloa,,-17.7775,178.3692,Fiji,FJ,FJI,Naitasiri,Naitasiri,FJ-09,province,,21.5,,,4,Pacific/Fiji,FALSE,1242906698
Nukuloa,Nukuloa,,-18.0529,179.3000,Fiji,FJ,FJI,Lomaiviti,Lomaiviti,FJ-06,province,,17.7,,,4,Pacific/Fiji,FALSE,1242390230
"Waidaladalau Settlement","Waidaladalau Settlement",,-17.7385,178.5216,Fiji,FJ,FJI,Tailevu,Tailevu,FJ-14,province,,34.3,,,4,Pacific/Fiji,FALSE,1242158981
"Waiwaqa Settlement","Waiwaqa Settlement",,-16.5051,179.2041,Fiji,FJ,FJI,Macuata,Macuata,FJ-07,province,,7.8,,,5,Pacific/Fiji,FALSE,1242000270
Naiqaqi,Naiqaqi,Naingganggi,-16.7489,179.1181,Fiji,FJ,FJI,Cakaudrove,Cakaudrove,FJ-03,province,,11.1,,,4,Pacific/Fiji,FALSE,1242958923
"Vuniqalulu Settlement","Vuniqalulu Settlement",,-16.6760,179.4609,Fiji,FJ,FJI,Cakaudrove,Cakaudrove,FJ-03,province,,4.2,,,5,Pacific/Fiji,FALSE,1242000336
"Naveimavu Settlement","Naveimavu Settlement",Naveimavu,-17.9537,178.3126,Fiji,FJ,FJI,Naitasiri,Naitasiri,FJ-09,province,,13.0,,,4,Pacific/Fiji,FALSE,1242556601
Kumi,Kumi,,-17.8874,178.5992,Fiji,FJ,FJI,Tailevu,Tailevu,FJ-14,province,,39.2,,,4,Pacific/Fiji,FALSE,1242765399
Mbavu,Mbavu,,-17.9500,177.2833,Fiji,FJ,FJI,,,,,,42.0,,,4,Pacific/Fiji,FALSE,1242563253
"Bagaraki Settlement","Bagaraki Settlement",,-16.7096,179.3266,Fiji,FJ,FJI,Cakaudrove,Cakaudrove,FJ-03,province,,17.2,,,4,Pacific/Fiji,FALSE,1242000316
Nanuku,Nanuku,,-17.6415,177.6383,Fiji,FJ,FJI,Ba,Ba,FJ-01,province,,6.1,,,5,Pacific/Fiji,FALSE,1242196765
"Ketei Settlement","Ketei Settlement",,-16.7614,179.3834,Fiji,FJ,FJI,Cakaudrove,Cakaudrove,FJ-03,province,,36.7,,,4,Pacific/Fiji,FALSE,1242000277
Yako,Yako,,-17.8625,177.3352,Fiji,FJ,FJI,"Nadroga and Navosa","Nadroga and Navosa",FJ-08,province,,163.3,,,4,Pacific/Fiji,FALSE,1242194006
Suvavou,Suvavou,,-18.1155,178.4139,Fiji,FJ,FJI,Rewa,Rewa,FJ-12,province,,2471.7,,,2,Pacific/Fiji,FALSE,1242164945
"Wouosi Settlement","Wouosi Settlement",Wanosi,-17.8403,177.7139,Fiji,FJ,FJI,"Nadroga and Navosa","Nadroga and Navosa",FJ-08,province,,4.7,,,5,Pacific/Fiji,FALSE,1242259725
"Nakubuwai Settlement","Nakubuwai Settlement",,-17.7900,177.7568,Fiji,FJ,FJI,Ba,Ba,FJ-01,province,,11.1,,,4,Pacific/Fiji,FALSE,1242513746
Narata,Narata,,-17.9684,177.5459,Fiji,FJ,FJI,Ba,Ba,FJ-01,province,,12.7,,,4,Pacific/Fiji,FALSE,1242048966
Vunisea,Vunisea,,-17.4891,178.1385,Fiji,FJ,FJI,Ra,Ra,FJ-11,province,,7.5,,,5,Pacific/Fiji,FALSE,1242652013
Nadonumai,Nadonumai,,-18.1073,178.4272,Fiji,FJ,FJI,Rewa,Rewa,FJ-12,province,,1987.5,,,3,Pacific/Fiji,FALSE,1242220702
Nagadoa,Nagadoa,Nangandoa|Nangandua,-16.8778,178.6724,Fiji,FJ,FJI,Bua,Bua,FJ-02,province,,12.0,,,4,Pacific/Fiji,FALSE,1242507280
Narata,Narata,,-18.0941,177.5624,Fiji,FJ,FJI,"Nadroga and Navosa","Nadroga and Navosa",FJ-08,province,,170.9,,,4,Pacific/Fiji,FALSE,1242268991
"Newtown Settlement","Newtown Settlement",,-18.1279,177.4194,Fiji,FJ,FJI,"Nadroga and Navosa","Nadroga and Navosa",FJ-08,province,,1488.3,,,3,Pacific/Fiji,FALSE,1242282436
Nawailevu,Nawailevu,,-16.7385,178.6807,Fiji,FJ,FJI,Bua,Bua,FJ-02,province,,3.1,,,5,Pacific/Fiji,FALSE,1242000416
Narewa,Narewa,Navatu,-17.3718,178.1000,Fiji,FJ,FJI,Ra,Ra,FJ-11,province,,79.8,,,4,Pacific/Fiji,FALSE,1242078031
"Naikorokoro Settlement","Naikorokoro Settlement",,-18.1041,178.3109,Fiji,FJ,FJI,Rewa,Rewa,FJ-12,province,,3.5,,,5,Pacific/Fiji,FALSE,1242933652
"Vunivesi Settlement","Vunivesi Settlement",,-17.6834,178.5629,Fiji,FJ,FJI,Tailevu,Tailevu,FJ-14,province,,33.2,,,4,Pacific/Fiji,FALSE,1242508681
"Vunivesi Settlement","Vunivesi Settlement",,-17.7003,178.3851,Fiji,FJ,FJI,Tailevu,Tailevu,FJ-14,province,,10.1,,,4,Pacific/Fiji,TRUE,1242309938
"Kadavu Settlement","Kadavu Settlement",,-16.4721,178.9925,Fiji,FJ,FJI,Macuata,Macuata,FJ-07,province,,6.5,,,5,Pacific/Fiji,FALSE,1242000086
Vugavugawa,Vugavugawa,,-17.7713,177.9025,Fiji,FJ,FJI,"Nadroga and Navosa","Nadroga and Navosa",FJ-08,province,,7.1,,,5,Pacific/Fiji,FALSE,1242941412
Lomainasau,Lomainasau,,-18.0695,178.5936,Fiji,FJ,FJI,Tailevu,Tailevu,FJ-14,province,,286.9,,,3,Pacific/Fiji,FALSE,1242389733
Draubuta,Draubuta,Ndraumbuta,-18.0716,178.5804,Fiji,FJ,FJI,Tailevu,Tailevu,FJ-14,province,,383.6,,,3,Pacific/Fiji,FALSE,1242924519
"Loqi Settlement","Loqi Settlement",,-17.9188,177.4033,Fiji,FJ,FJI,Ba,Ba,FJ-01,province,,5.8,,,5,Pacific/Fiji,FALSE,1242954800
"Sava Settlement","Sava Settlement",,-19.1470,178.0501,Fiji,FJ,FJI,Kadavu,Kadavu,FJ-04,province,,25.6,,,4,Pacific/Fiji,FALSE,1242356933
Matamaivere,Matamaivere,Matameivere,-17.9506,178.5865,Fiji,FJ,FJI,Tailevu,Tailevu,FJ-14,province,,110.8,,,4,Pacific/Fiji,FALSE,1242530914
"Dreketi Settlement","Dreketi Settlement",,-16.7725,-179.9719,Fiji,FJ,FJI,Cakaudrove,Cakaudrove,FJ-03,province,,137.5,,,4,Pacific/Fiji,FALSE,1242000215
"Waisili Settlement","Waisili Settlement",,-16.6687,178.6243,Fiji,FJ,FJI,Bua,Bua,FJ-02,province,,6.7,,,5,Pacific/Fiji,FALSE,1242000017
"Visa Settlement","Visa Settlement",Visa,-17.9552,178.5419,Fiji,FJ,FJI,Naitasiri,Naitasiri,FJ-09,province,,51.4,,,4,Pacific/Fiji,FALSE,1242313540
"Natolevu Settlement","Natolevu Settlement",,-17.5076,177.8947,Fiji,FJ,FJI,Ba,Ba,FJ-01,province,,86.2,,,4,Pacific/Fiji,FALSE,1242608371
Mala,Mala,,-17.7333,177.5833,Fiji,FJ,FJI,Ba,Ba,FJ-01,province,,14.6,,,4,Pacific/Fiji,FALSE,1242393137
Vunimono,Vunimono,Vuinmono,-18.0333,178.5333,Fiji,FJ,FJI,,,,,,2428.0,,,2,Pacific/Fiji,FALSE,1242598907
"Sogosevou Settlement","Sogosevou Settlement",,-19.0121,178.4436,Fiji,FJ,FJI,Kadavu,Kadavu,FJ-04,province,,14.9,,,4,Pacific/Fiji,FALSE,1242041535
Nadrugu,Nadrugu,Nandrunga|Nandrungu,-17.7108,177.7460,Fiji,FJ,FJI,Ba,Ba,FJ-01,province,,11.7,,,4,Pacific/Fiji,FALSE,1242365525
"Veisari Settlement","Veisari Settlement",,-18.1129,178.3646,Fiji,FJ,FJI,Rewa,Rewa,FJ-12,province,,237.1,,,3,Pacific/Fiji,FALSE,1242274160
"Navatuosooso Settlement","Navatuosooso Settlement",,-16.9808,179.9135,Fiji,FJ,FJI,Cakaudrove,Cakaudrove,FJ-03,province,,112.0,,,4,Pacific/Fiji,FALSE,1242000131
Narokorokoyawa,Narokorokoyawa,,-17.8514,178.1042,Fiji,FJ,FJI,Naitasiri,Naitasiri,FJ-09,province,,9.0,,,5,Pacific/Fiji,FALSE,1242875406
Vanuavou,Vanuavou,Vanuavo,-16.5000,179.6333,Fiji,FJ,FJI,,,,,,7.6,,,5,Pacific/Fiji,FALSE,1242387068
"Sasake Settlement","Sasake Settlement",,-16.6224,178.7643,Fiji,FJ,FJI,Bua,Bua,FJ-02,province,,3.5,,,5,Pacific/Fiji,FALSE,1242000108
Naivakarauniniu,Naivakarauniniu,Naivakareuniniu,-18.9666,178.2551,Fiji,FJ,FJI,Kadavu,Kadavu,FJ-04,province,,14.1,,,4,Pacific/Fiji,FALSE,1242140383
Nasasaivua,Nasasaivua,,-16.9060,179.0420,Fiji,FJ,FJI,Bua,Bua,FJ-02,province,,11.4,,,4,Pacific/Fiji,FALSE,1242156028
"Loma Seventh Day Adventist Settlement","Loma Seventh Day Adventist Settlement",,-17.3617,179.4171,Fiji,FJ,FJI,Lomaiviti,Lomaiviti,FJ-06,province,,27.4,,,4,Pacific/Fiji,FALSE,1242786392
Natawatawadi,Natawatawadi,Tawatawandi,-17.9808,177.6207,Fiji,FJ,FJI,"Nadroga and Navosa","Nadroga and Navosa",FJ-08,province,,16.0,,,4,Pacific/Fiji,FALSE,1242106300
Cevai,Cevai,Tevai|Thevai,-19.1361,178.1090,Fiji,FJ,FJI,Kadavu,Kadavu,FJ-04,province,,20.0,,,4,Pacific/Fiji,FALSE,1242533273
Undu,Undu,,-19.0000,-179.8667,Fiji,FJ,FJI,,,,,,13.6,,,4,Pacific/Fiji,FALSE,1242860786
Navaga,Navaga,Navanga|Nathanga,-17.3066,179.3660,Fiji,FJ,FJI,Lomaiviti,Lomaiviti,FJ-06,province,,44.6,,,4,Pacific/Fiji,FALSE,1242508471
Losa,Losa,,-12.5105,177.0106,Fiji,FJ,FJI,Rotuma,Rotuma,FJ-R,dependency,,42.3,,,4,Pacific/Fiji,FALSE,1242357916
Yavu,Yavu,,-17.7861,179.1484,Fiji,FJ,FJI,Lomaiviti,Lomaiviti,FJ-06,province,,24.9,,,4,Pacific/Fiji,FALSE,1242653472
"Vau Settlement","Vau Settlement",,-17.7783,178.4141,Fiji,FJ,FJI,Tailevu,Tailevu,FJ-14,province,,28.6,,,4,Pacific/Fiji,FALSE,1242165024
"Taci Settlement","Taci Settlement",,-17.8291,177.4578,Fiji,FJ,FJI,Ba,Ba,FJ-01,province,,6.4,,,5,Pacific/Fiji,FALSE,1242014562
Navaundra,Navaundra,Navuandra,-18.0833,178.0500,Fiji,FJ,FJI,,,,,,4.5,,,5,Pacific/Fiji,FALSE,1242335526
"Dovasili Settlement","Dovasili Settlement",,-17.7475,178.4071,Fiji,FJ,FJI,Tailevu,Tailevu,FJ-14,province,,17.4,,,4,Pacific/Fiji,FALSE,1242033068
"Waimomo Settlement","Waimomo Settlement",,-17.5998,178.2829,Fiji,FJ,FJI,Ra,Ra,FJ-11,province,,11.4,,,4,Pacific/Fiji,FALSE,1242745034
"Naivakadranu Settlement","Naivakadranu Settlement",,-17.7483,-179.2809,Fiji,FJ,FJI,Lau,Lau,FJ-05,province,,26.1,,,4,Pacific/Fiji,FALSE,1242000223
Lobau,Lobau,Lombau,-18.1733,178.2006,Fiji,FJ,FJI,Namosi,Namosi,FJ-10,province,,26.2,,,4,Pacific/Fiji,FALSE,1242717240
Naibalebale,Naibalebale,Naimbalembale,-17.1494,176.9128,Fiji,FJ,FJI,Ba,Ba,FJ-01,province,,55.7,,,4,Pacific/Fiji,FALSE,1242808357
"Nasoqo Settlement","Nasoqo Settlement",,-17.0937,177.2491,Fiji,FJ,FJI,Ba,Ba,FJ-01,province,,44.3,,,4,Pacific/Fiji,FALSE,1242000019
"Tadewa Settlement","Tadewa Settlement",,-16.8123,178.9006,Fiji,FJ,FJI,Bua,Bua,FJ-02,province,,6.4,,,5,Pacific/Fiji,FALSE,1242000070
"Soisoi Settlement","Soisoi Settlement",,-16.4485,179.2470,Fiji,FJ,FJI,Macuata,Macuata,FJ-07,province,,29.2,,,4,Pacific/Fiji,FALSE,1242000325
"Vunitiovu Settlement","Vunitiovu Settlement",,-16.6780,179.4698,Fiji,FJ,FJI,Cakaudrove,Cakaudrove,FJ-03,province,,4.2,,,5,Pacific/Fiji,FALSE,1242000335
"Navolivoli Settlement","Navolivoli Settlement",,-17.0048,179.9158,Fiji,FJ,FJI,Cakaudrove,Cakaudrove,FJ-03,province,,111.9,,,4,Pacific/Fiji,FALSE,1242000137
Niurua,Niurua,Na-rua,-16.4771,178.9699,Fiji,FJ,FJI,Macuata,Macuata,FJ-07,province,,6.5,,,5,Pacific/Fiji,FALSE,1242578432
"Drano Settlement","Drano Settlement",,-16.7364,179.4766,Fiji,FJ,FJI,Cakaudrove,Cakaudrove,FJ-03,province,,9.3,,,5,Pacific/Fiji,FALSE,1242000012
Vatoa,Vatoa,,-18.0012,178.6336,Fiji,FJ,FJI,Tailevu,Tailevu,FJ-14,province,,90.4,,,4,Pacific/Fiji,FALSE,1242722859
Mofmanu,Mofmanu,,-12.5110,177.0357,Fiji,FJ,FJI,Rotuma,Rotuma,FJ-R,dependency,,42.3,,,4,Pacific/Fiji,FALSE,1242332119
"Olosara Settlement","Olosara Settlement",Olosinga|Olosenga,-16.7611,-179.7380,Fiji,FJ,FJI,Cakaudrove,Cakaudrove,FJ-03,province,,27.2,,,4,Pacific/Fiji,FALSE,1242800826
Namacu,Namacu,Namathu,-17.3512,179.4238,Fiji,FJ,FJI,Lomaiviti,Lomaiviti,FJ-06,province,,27.4,,,4,Pacific/Fiji,FALSE,1242781925
Nailuva,Nailuva,,-17.5978,178.1052,Fiji,FJ,FJI,Ra,Ra,FJ-11,province,,13.5,,,4,Pacific/Fiji,FALSE,1242633543
"Cubuye Settlement","Cubuye Settlement",,-16.7876,178.5737,Fiji,FJ,FJI,Bua,Bua,FJ-02,province,,8.7,,,5,Pacific/Fiji,FALSE,1242000037
Valovoni,Valovoni,,-16.4235,179.6424,Fiji,FJ,FJI,Cakaudrove,Cakaudrove,FJ-03,province,,4.4,,,5,Pacific/Fiji,FALSE,1242144079
Ndrekeniwai,Ndrekeniwai,,-16.6667,179.6833,Fiji,FJ,FJI,,,,,,11.0,,,4,Pacific/Fiji,FALSE,1242017950
Rukurukulevu,Rukurukulevu,Rukurukeluvu,-18.1376,177.4240,Fiji,FJ,FJI,"Nadroga and Navosa","Nadroga and Navosa",FJ-08,province,,1012.1,,,3,Pacific/Fiji,FALSE,1242941991
"Natacileka Settlement","Natacileka Settlement",,-17.5952,178.4930,Fiji,FJ,FJI,Tailevu,Tailevu,FJ-14,province,,25.1,,,4,Pacific/Fiji,FALSE,1242346167
Nativi,Nativi,,-17.5046,178.1910,Fiji,FJ,FJI,Ra,Ra,FJ-11,province,,28.5,,,4,Pacific/Fiji,FALSE,1242366342
Nakini,Nakini,,-17.9648,178.4426,Fiji,FJ,FJI,Naitasiri,Naitasiri,FJ-09,province,,67.5,,,4,Pacific/Fiji,FALSE,1242950182
Devoira,Devoira,Ndevoira,-18.0277,178.2336,Fiji,FJ,FJI,Naitasiri,Naitasiri,FJ-09,province,,3.0,,,5,Pacific/Fiji,FALSE,1242957563
"Vunisiti Settlement","Vunisiti Settlement",,-16.3994,179.5247,Fiji,FJ,FJI,Cakaudrove,Cakaudrove,FJ-03,province,,7.6,,,5,Pacific/Fiji,FALSE,1242000126
Nakawakawa,Nakawakawa,Nanuku,-16.8594,178.8630,Fiji,FJ,FJI,Bua,Bua,FJ-02,province,,6.9,,,5,Pacific/Fiji,FALSE,1242204747
"Yauvula Settlement","Yauvula Settlement",,-16.7999,178.8914,Fiji,FJ,FJI,Bua,Bua,FJ-02,province,,6.5,,,5,Pacific/Fiji,FALSE,1242000073
"Taqove Settlement","Taqove Settlement",,-18.2566,177.9780,Fiji,FJ,FJI,Serua,Serua,FJ-13,province,,13.2,,,4,Pacific/Fiji,FALSE,1242687057
Malomalo,Malomalo,,-18.1237,177.3579,Fiji,FJ,FJI,"Nadroga and Navosa","Nadroga and Navosa",FJ-08,province,,136.4,,,4,Pacific/Fiji,FALSE,1242408266
"Cirisobu Settlement","Cirisobu Settlement",,-17.6317,177.6720,Fiji,FJ,FJI,Ba,Ba,FJ-01,province,,74.5,,,4,Pacific/Fiji,FALSE,1242485249
Denimanu,Denimanu,Ndenimanu,-16.8051,178.3213,Fiji,FJ,FJI,Bua,Bua,FJ-02,province,,10.0,,,5,Pacific/Fiji,FALSE,1242340019
Naqeledamu,Naqeledamu,Nggelendamu,-17.9952,178.5465,Fiji,FJ,FJI,Tailevu,Tailevu,FJ-14,province,,70.7,,,4,Pacific/Fiji,FALSE,1242543458
"Nadauvatu Settlement","Nadauvatu Settlement",,-17.7217,178.4217,Fiji,FJ,FJI,Tailevu,Tailevu,FJ-14,province,,17.4,,,4,Pacific/Fiji,FALSE,1242342808
"Wainisevu Settlement","Wainisevu Settlement",,-16.9895,178.6899,Fiji,FJ,FJI,Bua,Bua,FJ-02,province,,208.0,,,3,Pacific/Fiji,FALSE,1242000049
"Navunitawa Settlement","Navunitawa Settlement",,-17.7525,177.7047,Fiji,FJ,FJI,Ba,Ba,FJ-01,province,,4.1,,,5,Pacific/Fiji,FALSE,1242917188
Bani,Bani,,-16.4662,-179.9392,Fiji,FJ,FJI,Cakaudrove,Cakaudrove,FJ-03,province,,12.1,,,4,Pacific/Fiji,FALSE,1242000304
Nabouwalu,Nabouwalu,Nambouwalu,-16.9974,178.6908,Fiji,FJ,FJI,Bua,Bua,FJ-02,province,,217.5,,,3,Pacific/Fiji,FALSE,1242567400
"Lali Settlement","Lali Settlement",,-16.7487,-179.7643,Fiji,FJ,FJI,Cakaudrove,Cakaudrove,FJ-03,province,,67.4,,,4,Pacific/Fiji,FALSE,1242000314
"Korokacivi Settlement","Korokacivi Settlement",,-16.7437,179.1128,Fiji,FJ,FJI,Cakaudrove,Cakaudrove,FJ-03,province,,10.5,,,4,Pacific/Fiji,FALSE,1242000091
Nathokula,Nathokula,,-18.0500,178.1333,Fiji,FJ,FJI,,,,,,8.2,,,5,Pacific/Fiji,FALSE,1242210692
Mbatimaoli,Mbatimaoli,,-17.7000,177.8667,Fiji,FJ,FJI,Ba,Ba,FJ-01,province,,5.6,,,5,Pacific/Fiji,FALSE,1242740900
Kasavu,Kasavu,,-17.9718,178.5242,Fiji,FJ,FJI,Naitasiri,Naitasiri,FJ-09,province,,92.4,,,4,Pacific/Fiji,FALSE,1242036027
"Yaro Settlement","Yaro Settlement",Yaro,-18.9436,178.3733,Fiji,FJ,FJI,Kadavu,Kadavu,FJ-04,province,,14.8,,,4,Pacific/Fiji,FALSE,1242474620
Thuvu,Thuvu,,-17.7000,177.8333,Fiji,FJ,FJI,Ba,Ba,FJ-01,province,,5.6,,,5,Pacific/Fiji,FALSE,1242646899
"Buresivo Settlement","Buresivo Settlement",,-16.8800,178.6844,Fiji,FJ,FJI,Bua,Bua,FJ-02,province,,11.3,,,4,Pacific/Fiji,FALSE,1242000054
Narewa,Narewa,,-17.9847,177.5333,Fiji,FJ,FJI,"Nadroga and Navosa","Nadroga and Navosa",FJ-08,province,,13.3,,,4,Pacific/Fiji,FALSE,1242081337
Natogadravo,Natogadravo,Natongandravo|Natongandravu,-18.0618,178.5731,Fiji,FJ,FJI,Tailevu,Tailevu,FJ-14,province,,1118.2,,,3,Pacific/Fiji,FALSE,1242575127
Kese,Kese,,-17.1297,177.2411,Fiji,FJ,FJI,Ba,Ba,FJ-01,province,,99.5,,,4,Pacific/Fiji,FALSE,1242742330
"Waila Settlement","Waila Settlement",,-18.0280,178.5191,Fiji,FJ,FJI,Naitasiri,Naitasiri,FJ-09,province,,2468.5,,,2,Pacific/Fiji,FALSE,1242680881
"Nawakanikau Settlement","Nawakanikau Settlement",,-17.7693,178.4195,Fiji,FJ,FJI,Tailevu,Tailevu,FJ-14,province,,31.9,,,4,Pacific/Fiji,FALSE,1242729379
Namuavoivoi,Namuavoivoi,,-16.7210,178.7877,Fiji,FJ,FJI,Bua,Bua,FJ-02,province,,5.2,,,5,Pacific/Fiji,FALSE,1242081417
Waikete,Waikete,,-18.0485,178.6066,Fiji,FJ,FJI,Tailevu,Tailevu,FJ-14,province,,155.7,,,4,Pacific/Fiji,FALSE,1242745017
Daku,Daku,Ndaku,-18.0494,178.6338,Fiji,FJ,FJI,Tailevu,Tailevu,FJ-14,province,,51.7,,,4,Pacific/Fiji,FALSE,1242254733
"Waioula Settlement","Waioula Settlement",,-17.2801,179.3888,Fiji,FJ,FJI,Lomaiviti,Lomaiviti,FJ-06,province,,14.3,,,4,Pacific/Fiji,FALSE,1242312831
Ohu,Ohu,,-12.4964,177.1361,Fiji,FJ,FJI,Rotuma,Rotuma,FJ-R,dependency,,20.2,,,4,Pacific/Fiji,FALSE,1242146917
Navilawa,Navilawa,,-17.6905,177.5890,Fiji,FJ,FJI,Ba,Ba,FJ-01,province,,6.7,,,5,Pacific/Fiji,FALSE,1242829634
Nakavika,Nakavika,,-18.0653,178.0687,Fiji,FJ,FJI,Namosi,Namosi,FJ-10,province,,31.7,,,4,Pacific/Fiji,FALSE,1242139437
"Nadawata Settlement","Nadawata Settlement",,-16.9200,178.6899,Fiji,FJ,FJI,Bua,Bua,FJ-02,province,,10.6,,,4,Pacific/Fiji,FALSE,1242000044
"Waica Settlement","Waica Settlement",,-19.0087,178.4456,Fiji,FJ,FJI,Kadavu,Kadavu,FJ-04,province,,14.9,,,4,Pacific/Fiji,FALSE,1242684062
Dranu,Dranu,,-17.6350,178.5383,Fiji,FJ,FJI,Tailevu,Tailevu,FJ-14,province,,18.7,,,4,Pacific/Fiji,FALSE,1242271215
"Waica Settlement","Waica Settlement",Waitha,-16.8286,179.9743,Fiji,FJ,FJI,Cakaudrove,Cakaudrove,FJ-03,province,,25.1,,,4,Pacific/Fiji,FALSE,1242000148
"Nawaisomo Settlement","Nawaisomo Settlement",,-16.8213,178.8890,Fiji,FJ,FJI,Bua,Bua,FJ-02,province,,6.5,,,5,Pacific/Fiji,FALSE,1242000113
Navakasobu,Navakasobu,Navakasombu,-16.4587,179.1612,Fiji,FJ,FJI,Macuata,Macuata,FJ-07,province,,20.8,,,4,Pacific/Fiji,FALSE,1242941757
"Mua Settlement","Mua Settlement",,-16.7083,-179.9113,Fiji,FJ,FJI,Cakaudrove,Cakaudrove,FJ-03,province,,52.6,,,4,Pacific/Fiji,FALSE,1242000271
Wailevu,Wailevu,,-17.6830,178.3357,Fiji,FJ,FJI,Tailevu,Tailevu,FJ-14,province,,37.8,,,4,Pacific/Fiji,FALSE,1242529164
Vunindamoli,Vunindamoli,Vuni-ta-moli,-16.7356,179.1606,Fiji,FJ,FJI,Cakaudrove,Cakaudrove,FJ-03,province,,12.7,,,4,Pacific/Fiji,FALSE,1242611315
Vuya,Vuya,,-17.0101,178.7294,Fiji,FJ,FJI,Bua,Bua,FJ-02,province,,35.2,,,4,Pacific/Fiji,FALSE,1242755666
Dausiga,Dausiga,,-17.6217,178.2656,Fiji,FJ,FJI,Ra,Ra,FJ-11,province,,11.4,,,4,Pacific/Fiji,FALSE,1242866113
Lovoni,Lovoni,,-20.6612,-178.7211,Fiji,FJ,FJI,Lau,Lau,FJ-05,province,,29.9,,,4,Pacific/Fiji,FALSE,1242000182
Waisa,Waisa,,-17.8000,178.3167,Fiji,FJ,FJI,,,,,,77.0,,,4,Pacific/Fiji,FALSE,1242628966
Matata,Matata,,-18.1052,178.4069,Fiji,FJ,FJI,Rewa,Rewa,FJ-12,province,,1792.3,,,3,Pacific/Fiji,FALSE,1242162127
Vuinandi,Vuinandi,,-16.6000,179.5500,Fiji,FJ,FJI,,,,,,11.2,,,4,Pacific/Fiji,FALSE,1242797090
"Matacawa Levu","Matacawa Levu",Matathawalevu,-16.9496,177.3596,Fiji,FJ,FJI,Ba,Ba,FJ-01,province,,42.0,,,4,Pacific/Fiji,FALSE,1242932768
Waisa,Waisa,,-16.8934,179.0687,Fiji,FJ,FJI,Bua,Bua,FJ-02,province,,10.0,,,5,Pacific/Fiji,FALSE,1242835640
Draubuta,Draubuta,Ndraumbuta|Ndrambuta,-17.9231,177.9003,Fiji,FJ,FJI,"Nadroga and Navosa","Nadroga and Navosa",FJ-08,province,,5.2,,,5,Pacific/Fiji,FALSE,1242777450
Naikeleaga,Naikeleaga,,-18.9164,-178.9498,Fiji,FJ,FJI,Lau,Lau,FJ-05,province,,8.7,,,5,Pacific/Fiji,FALSE,1242000221
Korobebe,Korobebe,,-17.7284,177.5592,Fiji,FJ,FJI,Ba,Ba,FJ-01,province,,18.6,,,4,Pacific/Fiji,FALSE,1242690871
Vunivutu,Vunivutu,Vunivatu,-16.2943,179.5137,Fiji,FJ,FJI,Macuata,Macuata,FJ-07,province,,22.8,,,4,Pacific/Fiji,FALSE,1242330803
Nabaitavo,Nabaitavo,Nambaitavo,-17.8416,178.3597,Fiji,FJ,FJI,Naitasiri,Naitasiri,FJ-09,province,,30.4,,,4,Pacific/Fiji,FALSE,1242883855
"Tamavua Heights","Tamavua Heights",Tamavua|Uthiwai-na-Tamavua,-18.1000,178.4500,Fiji,FJ,FJI,,,,,,4064.3,,,2,Pacific/Fiji,FALSE,1242000018
Vaturua,Vaturua,,-18.0728,178.6052,Fiji,FJ,FJI,Tailevu,Tailevu,FJ-14,province,,185.2,,,4,Pacific/Fiji,FALSE,1242983951
Nacula,Nacula,Nathula,-16.4102,179.6799,Fiji,FJ,FJI,Cakaudrove,Cakaudrove,FJ-03,province,,6.1,,,5,Pacific/Fiji,FALSE,1242611352
Nacula,Nacula,Nathula,-16.8918,177.3988,Fiji,FJ,FJI,Ba,Ba,FJ-01,province,,34.8,,,4,Pacific/Fiji,FALSE,1242612306
"Navunibua Settlement","Navunibua Settlement",,-17.5977,178.2866,Fiji,FJ,FJI,Ra,Ra,FJ-11,province,,11.4,,,4,Pacific/Fiji,FALSE,1242811821
Bulia,Bulia,Mbuliya|Mbulia,-18.8437,178.5308,Fiji,FJ,FJI,Kadavu,Kadavu,FJ-04,province,,71.7,,,4,Pacific/Fiji,FALSE,1242987356
"Nakorovou Settlement","Nakorovou Settlement",,-16.8006,178.6294,Fiji,FJ,FJI,Bua,Bua,FJ-02,province,,12.6,,,4,Pacific/Fiji,FALSE,1242000026
Tambau,Tambau,,-16.4426,-179.9333,Fiji,FJ,FJI,Cakaudrove,Cakaudrove,FJ-03,province,,12.1,,,4,Pacific/Fiji,FALSE,1242000310
"Burenikita Settlement","Burenikita Settlement",,-17.5403,178.3751,Fiji,FJ,FJI,Ra,Ra,FJ-11,province,,18.1,,,4,Pacific/Fiji,FALSE,1242783716
Navunivesi,Navunivesi,,-17.7489,178.3946,Fiji,FJ,FJI,Tailevu,Tailevu,FJ-14,province,,17.4,,,4,Pacific/Fiji,FALSE,1242484675
"Kenani Settlement","Kenani Settlement",,-16.2843,179.7941,Fiji,FJ,FJI,Macuata,Macuata,FJ-07,province,,4.0,,,5,Pacific/Fiji,FALSE,1242000166
Vunivesi,Vunivesi,,-16.6722,179.2911,Fiji,FJ,FJI,Cakaudrove,Cakaudrove,FJ-03,province,,18.7,,,4,Pacific/Fiji,FALSE,1242126292
Dravuni,Dravuni,Nunguni|Ndravuni,-17.9114,178.5765,Fiji,FJ,FJI,Tailevu,Tailevu,FJ-14,province,,34.1,,,4,Pacific/Fiji,FALSE,1242427934
Nabalabala,Nabalabala,Nambalambala,-17.5012,178.1765,Fiji,FJ,FJI,Ra,Ra,FJ-11,province,,9.5,,,5,Pacific/Fiji,FALSE,1242170817
Yacata,Yacata,,-17.2590,-179.5067,Fiji,FJ,FJI,Lau,Lau,FJ-05,province,,16.3,,,4,Pacific/Fiji,FALSE,1242000188
Naceva,Naceva,Natheva,-17.7698,-179.2933,Fiji,FJ,FJI,Lau,Lau,FJ-05,province,,23.0,,,4,Pacific/Fiji,FALSE,1242568343
"Navarada Settlement","Navarada Settlement",,-16.8032,179.9913,Fiji,FJ,FJI,Cakaudrove,Cakaudrove,FJ-03,province,,174.1,,,4,Pacific/Fiji,FALSE,1242000123
"Vunamoli Settlement","Vunamoli Settlement",,-18.2076,177.8416,Fiji,FJ,FJI,Serua,Serua,FJ-13,province,,31.8,,,4,Pacific/Fiji,FALSE,1242815211
Bukunivatu,Bukunivatu,,-17.8246,178.1142,Fiji,FJ,FJI,Naitasiri,Naitasiri,FJ-09,province,,7.6,,,5,Pacific/Fiji,FALSE,1242685259
"Wainikai Settlement","Wainikai Settlement",,-18.1066,178.0258,Fiji,FJ,FJI,Serua,Serua,FJ-13,province,,4.4,,,5,Pacific/Fiji,FALSE,1242259470
"Nabogiono Settlement","Nabogiono Settlement",,-16.9227,179.9167,Fiji,FJ,FJI,Cakaudrove,Cakaudrove,FJ-03,province,,15.5,,,4,Pacific/Fiji,FALSE,1242000136
Mea,Mea,,-12.4873,177.0609,Fiji,FJ,FJI,Rotuma,Rotuma,FJ-R,dependency,,31.1,,,4,Pacific/Fiji,FALSE,1242755030
"Navutu Settlement","Navutu Settlement",,-16.3518,179.7801,Fiji,FJ,FJI,Cakaudrove,Cakaudrove,FJ-03,province,,13.3,,,4,Pacific/Fiji,FALSE,1242000161
"Lomalagi Settlement","Lomalagi Settlement",,-17.4995,177.8612,Fiji,FJ,FJI,Ba,Ba,FJ-01,province,,302.4,,,3,Pacific/Fiji,FALSE,1242237211
"Navutu Settlement","Navutu Settlement",,-17.6222,177.4281,Fiji,FJ,FJI,Ba,Ba,FJ-01,province,,3259.3,,,2,Pacific/Fiji,FALSE,1242851244
Kalokolevu,Kalokolevu,"Kolokolevu|Kaloka Levu|Kaleta Levu",-18.1339,178.3138,Fiji,FJ,FJI,Rewa,Rewa,FJ-12,province,,130.3,,,4,Pacific/Fiji,FALSE,1242319896
"Matei Settlement","Matei Settlement",,-16.6927,-179.8858,Fiji,FJ,FJI,Cakaudrove,Cakaudrove,FJ-03,province,,52.6,,,4,Pacific/Fiji,FALSE,1242000273
Namukalau,Namukalau,,-16.2098,179.7539,Fiji,FJ,FJI,Macuata,Macuata,FJ-07,province,,2.8,,,5,Pacific/Fiji,FALSE,1242843181
"Burotu Settlement","Burotu Settlement",,-18.0812,178.0549,Fiji,FJ,FJI,Serua,Serua,FJ-13,province,,4.5,,,5,Pacific/Fiji,FALSE,1242750577
Namara,Namara,,-19.0330,178.2278,Fiji,FJ,FJI,Kadavu,Kadavu,FJ-04,province,,14.3,,,4,Pacific/Fiji,FALSE,1242208227
Malake,Malake,Malaki,-16.5000,179.6500,Fiji,FJ,FJI,,,,,,4.3,,,5,Pacific/Fiji,FALSE,1242203636
"Velovelo Settlement","Velovelo Settlement",,-17.6435,177.4248,Fiji,FJ,FJI,Ba,Ba,FJ-01,province,,297.2,,,3,Pacific/Fiji,FALSE,1242472971
Naloto,Naloto,,-17.8463,178.6075,Fiji,FJ,FJI,Tailevu,Tailevu,FJ-14,province,,98.4,,,4,Pacific/Fiji,FALSE,1242128990
"Basala Estate Settlement","Basala Estate Settlement",,-17.5393,177.8605,Fiji,FJ,FJI,Ba,Ba,FJ-01,province,,6.8,,,5,Pacific/Fiji,FALSE,1242259894
Nacomoto,Nacomoto,"Na Kasasara|Nathomoto",-19.0483,178.3506,Fiji,FJ,FJI,Kadavu,Kadavu,FJ-04,province,,25.8,,,4,Pacific/Fiji,FALSE,1242273817
"Nukutocia Settlement","Nukutocia Settlement",Nukutothia,-17.7276,178.7924,Fiji,FJ,FJI,Lomaiviti,Lomaiviti,FJ-06,province,,30.0,,,4,Pacific/Fiji,FALSE,1242386455
Nakavu,Nakavu,,-17.7956,177.4239,Fiji,FJ,FJI,Ba,Ba,FJ-01,province,,2421.7,,,2,Pacific/Fiji,FALSE,1242430248
Tuvana,Tuvana,,-21.0329,-178.8488,Fiji,FJ,FJI,Lau,Lau,FJ-05,province,,29.9,,,4,Pacific/Fiji,FALSE,1242000193
Waivunia,Waivunia,,-16.7887,179.4059,Fiji,FJ,FJI,Cakaudrove,Cakaudrove,FJ-03,province,,26.7,,,4,Pacific/Fiji,FALSE,1242497102
Nubumakita,Nubumakita,Numbumakita,-17.6494,178.1497,Fiji,FJ,FJI,Ra,Ra,FJ-11,province,,6.8,,,5,Pacific/Fiji,FALSE,1242287078
"Lamiti Settlement","Lamiti Settlement",,-17.8007,177.7441,Fiji,FJ,FJI,Ba,Ba,FJ-01,province,,7.4,,,5,Pacific/Fiji,FALSE,1242273445
Nasama,Nasama,,-18.1547,177.5016,Fiji,FJ,FJI,"Nadroga and Navosa","Nadroga and Navosa",FJ-08,province,,744.4,,,3,Pacific/Fiji,FALSE,1242092119
"Raviravi Settlement","Raviravi Settlement",Raviravi,-16.7842,-179.7975,Fiji,FJ,FJI,Cakaudrove,Cakaudrove,FJ-03,province,,42.4,,,4,Pacific/Fiji,FALSE,1242257294
Naiviteitei,Naiviteitei,,-17.7167,178.7667,Fiji,FJ,FJI,,,,,,29.1,,,4,Pacific/Fiji,FALSE,1242132412
Anuanrebu,Anuanrebu,,-16.5075,-179.9423,Fiji,FJ,FJI,Cakaudrove,Cakaudrove,FJ-03,province,,12.1,,,4,Pacific/Fiji,FALSE,1242000296
"Newtown Settlement","Newtown Settlement",,-18.0827,178.5545,Fiji,FJ,FJI,Rewa,Rewa,FJ-12,province,,139.8,,,4,Pacific/Fiji,FALSE,1242356629
"Moliwawa Settlement","Moliwawa Settlement",,-16.7517,179.3915,Fiji,FJ,FJI,Cakaudrove,Cakaudrove,FJ-03,province,,36.7,,,4,Pacific/Fiji,FALSE,1242000247
"Navitilevu Settlement","Navitilevu Settlement",,-17.9542,177.9173,Fiji,FJ,FJI,"Nadroga and Navosa","Nadroga and Navosa",FJ-08,province,,4.3,,,5,Pacific/Fiji,FALSE,1242088255
Narewa,Narewa,Nareva,-17.7989,177.4065,Fiji,FJ,FJI,Ba,Ba,FJ-01,province,,608.6,,,3,Pacific/Fiji,FALSE,1242603400
"Nukusere Settlement","Nukusere Settlement",,-16.2835,179.8025,Fiji,FJ,FJI,Macuata,Macuata,FJ-07,province,,4.0,,,5,Pacific/Fiji,FALSE,1242000165
Nubu,Nubu,Numbu,-16.2912,179.6289,Fiji,FJ,FJI,Macuata,Macuata,FJ-07,province,,8.0,,,5,Pacific/Fiji,FALSE,1242629487
"Vunivesi Settlement","Vunivesi Settlement",,-16.7571,-179.7112,Fiji,FJ,FJI,Cakaudrove,Cakaudrove,FJ-03,province,,27.2,,,4,Pacific/Fiji,FALSE,1242000210
"Kilikali Settlement","Kilikali Settlement",,-18.2003,-178.7559,Fiji,FJ,FJI,Lau,Lau,FJ-05,province,,9.6,,,5,Pacific/Fiji,FALSE,1242000257
Waitolu,Waitolu,,-17.9780,178.3931,Fiji,FJ,FJI,Naitasiri,Naitasiri,FJ-09,province,,36.5,,,4,Pacific/Fiji,FALSE,1242624996
"Wainiyabia Settlement","Wainiyabia Settlement",Wainiyambia,-18.2643,178.0263,Fiji,FJ,FJI,Serua,Serua,FJ-13,province,,15.8,,,4,Pacific/Fiji,FALSE,1242903443
Korowiri,Korowiri,"Na Koro Ere",-16.4764,179.3922,Fiji,FJ,FJI,Macuata,Macuata,FJ-07,province,,33.2,,,4,Pacific/Fiji,FALSE,1242854852
Nadamole,Nadamole,,-16.7333,179.3546,Fiji,FJ,FJI,Cakaudrove,Cakaudrove,FJ-03,province,,51.6,,,4,Pacific/Fiji,FALSE,1242000250
"Dreketi Settlement","Dreketi Settlement",,-17.7480,178.3913,Fiji,FJ,FJI,Tailevu,Tailevu,FJ-14,province,,17.4,,,4,Pacific/Fiji,FALSE,1242400646
"Taunovo Settlement","Taunovo Settlement",,-18.2600,178.0428,Fiji,FJ,FJI,Serua,Serua,FJ-13,province,,226.8,,,3,Pacific/Fiji,FALSE,1242077442
"Nuku Rekareka","Nuku Rekareka",,-16.4665,-179.9246,Fiji,FJ,FJI,Cakaudrove,Cakaudrove,FJ-03,province,,12.1,,,4,Pacific/Fiji,FALSE,1242000307
Kade,Kade,Kande|Kandi,-17.3554,179.3771,Fiji,FJ,FJI,Lomaiviti,Lomaiviti,FJ-06,province,,44.6,,,4,Pacific/Fiji,FALSE,1242231834
Savu,Savu,,-17.9602,178.4024,Fiji,FJ,FJI,Naitasiri,Naitasiri,FJ-09,province,,62.7,,,4,Pacific/Fiji,FALSE,1242873093
Naterumai,Naterumai,,-17.8906,178.3163,Fiji,FJ,FJI,Naitasiri,Naitasiri,FJ-09,province,,26.7,,,4,Pacific/Fiji,FALSE,1242630357
Nasoki,Nasoki,,-18.6333,179.9000,Fiji,FJ,FJI,,,,,,21.1,,,4,Pacific/Fiji,FALSE,1242305500
Waibalavu,Waibalavu,Waimbalavu,-17.7661,178.2357,Fiji,FJ,FJI,Naitasiri,Naitasiri,FJ-09,province,,10.2,,,4,Pacific/Fiji,FALSE,1242248517
Nukundamu,Nukundamu,Nuku-ndum,-16.1667,179.9667,Fiji,FJ,FJI,,,,,,11.5,,,4,Pacific/Fiji,FALSE,1242047733
Naidi,Naidi,Naindi,-16.7998,179.3647,Fiji,FJ,FJI,Cakaudrove,Cakaudrove,FJ-03,province,,36.7,,,4,Pacific/Fiji,FALSE,1242261384
Dakuni,Dakuni,Ndakuni,-18.4019,178.1465,Fiji,FJ,FJI,Serua,Serua,FJ-13,province,,28.3,,,4,Pacific/Fiji,FALSE,1242388682
"Wailotu Settlement","Wailotu Settlement",,-17.7309,178.4897,Fiji,FJ,FJI,Tailevu,Tailevu,FJ-14,province,,20.1,,,4,Pacific/Fiji,FALSE,1242840124
"Nacegacega Settlement","Nacegacega Settlement",,-18.1575,177.8548,Fiji,FJ,FJI,Serua,Serua,FJ-13,province,,4.7,,,5,Pacific/Fiji,FALSE,1242027442
Navicula,Navicula,Naivithula,-17.7601,178.4921,Fiji,FJ,FJI,Tailevu,Tailevu,FJ-14,province,,42.3,,,4,Pacific/Fiji,FALSE,1242136990
Maloku,Maloku,,-18.5667,179.8667,Fiji,FJ,FJI,,,,,,13.8,,,4,Pacific/Fiji,FALSE,1242622007
Tumbairata,Tumbairata,,-18.0000,177.5833,Fiji,FJ,FJI,,,,,,42.6,,,4,Pacific/Fiji,FALSE,1242295288
Lingau,Lingau,,-16.2333,179.0833,Fiji,FJ,FJI,,,,,,129.7,,,4,Pacific/Fiji,FALSE,1242870046
Rokoroko,Rokoroko,,-17.4959,178.2233,Fiji,FJ,FJI,Ra,Ra,FJ-11,province,,52.1,,,4,Pacific/Fiji,FALSE,1242993298
"Lairokona Settlement","Lairokona Settlement",,-17.8248,179.4416,Fiji,FJ,FJI,Lomaiviti,Lomaiviti,FJ-06,province,,21.1,,,4,Pacific/Fiji,FALSE,1242963379
Matacula,Matacula,,-17.7892,178.5367,Fiji,FJ,FJI,Tailevu,Tailevu,FJ-14,province,,29.8,,,4,Pacific/Fiji,FALSE,1242211576
Tukavesi,Tukavesi,,-16.6333,179.8333,Fiji,FJ,FJI,,,,,,12.0,,,4,Pacific/Fiji,FALSE,1242228102
"Nabucalevu Settlement","Nabucalevu Settlement",,-16.6671,179.2950,Fiji,FJ,FJI,Cakaudrove,Cakaudrove,FJ-03,province,,13.2,,,4,Pacific/Fiji,FALSE,1242000330
Rakentai,Rakentai,,-16.4855,-179.9531,Fiji,FJ,FJI,Cakaudrove,Cakaudrove,FJ-03,province,,12.1,,,4,Pacific/Fiji,FALSE,1242000301
"Naqara Settlement","Naqara Settlement",,-17.2967,-178.9878,Fiji,FJ,FJI,Lau,Lau,FJ-05,province,,28.6,,,4,Pacific/Fiji,FALSE,1242000358
"Natokaya Settlement","Natokaya Settlement",,-17.7528,177.7762,Fiji,FJ,FJI,Ba,Ba,FJ-01,province,,11.7,,,4,Pacific/Fiji,FALSE,1242509768
"Veidomoni Settlement","Veidomoni Settlement",,-16.7553,-179.7276,Fiji,FJ,FJI,Cakaudrove,Cakaudrove,FJ-03,province,,27.2,,,4,Pacific/Fiji,FALSE,1242000211
"Naqara Settlement","Naqara Settlement",Nanggara,-16.7790,-179.9738,Fiji,FJ,FJI,Cakaudrove,Cakaudrove,FJ-03,province,,89.0,,,4,Pacific/Fiji,FALSE,1242000318
Nasauvuki,Nasauvuki,,-17.7656,178.7572,Fiji,FJ,FJI,Lomaiviti,Lomaiviti,FJ-06,province,,50.2,,,4,Pacific/Fiji,FALSE,1242816884
"Waisei Settlement","Waisei Settlement",,-17.6867,178.5718,Fiji,FJ,FJI,Tailevu,Tailevu,FJ-14,province,,33.2,,,4,Pacific/Fiji,FALSE,1242433393
Nacuru,Nacuru,Nathuru,-18.1012,178.5963,Fiji,FJ,FJI,Tailevu,Tailevu,FJ-14,province,,140.1,,,4,Pacific/Fiji,FALSE,1242549859
"Dogowale Settlement","Dogowale Settlement",Dogowali|Ndongowali,-18.2669,177.9239,Fiji,FJ,FJI,Serua,Serua,FJ-13,province,,29.2,,,4,Pacific/Fiji,FALSE,1242673956
Mataniwai,Mataniwai,,-16.3396,179.4224,Fiji,FJ,FJI,Macuata,Macuata,FJ-07,province,,44.4,,,4,Pacific/Fiji,FALSE,1242820754
"Waikucura Settlement","Waikucura Settlement",,-18.9683,178.4634,Fiji,FJ,FJI,Kadavu,Kadavu,FJ-04,province,,21.3,,,4,Pacific/Fiji,FALSE,1242186381
Namarai,Namarai,Na-maria,-17.5223,178.3652,Fiji,FJ,FJI,Ra,Ra,FJ-11,province,,18.1,,,4,Pacific/Fiji,FALSE,1242121515
"Navaka Settlement","Navaka Settlement",,-16.8255,-179.8812,Fiji,FJ,FJI,Cakaudrove,Cakaudrove,FJ-03,province,,10.9,,,4,Pacific/Fiji,FALSE,1242000214
Naililili,Naililili,,-18.1039,178.5559,Fiji,FJ,FJI,Rewa,Rewa,FJ-12,province,,454.4,,,3,Pacific/Fiji,FALSE,1242048421
Elsio,Elsio,,-12.4921,177.0536,Fiji,FJ,FJI,Rotuma,Rotuma,FJ-R,dependency,,42.3,,,4,Pacific/Fiji,FALSE,1242800073
Naleile,Naleile,,-17.2500,-178.9667,Fiji,FJ,FJI,,,,,,39.2,,,4,Pacific/Fiji,FALSE,1242776381
Ahai,Ahai,,-12.4861,177.1000,Fiji,FJ,FJI,Rotuma,Rotuma,FJ-R,dependency,,20.2,,,4,Pacific/Fiji,FALSE,1242002091
Navuloa,Navuloa,,-17.7020,178.7615,Fiji,FJ,FJI,Lomaiviti,Lomaiviti,FJ-06,province,,101.8,,,4,Pacific/Fiji,FALSE,1242108976
"Tomu Settlement","Tomu Settlement",,-16.6225,178.7676,Fiji,FJ,FJI,Bua,Bua,FJ-02,province,,3.5,,,5,Pacific/Fiji,FALSE,1242000110
Talaulia,Talaulia,Tulaulia,-19.1067,178.0063,Fiji,FJ,FJI,Kadavu,Kadavu,FJ-04,province,,41.0,,,4,Pacific/Fiji,FALSE,1242837066
"Nasama Settlement","Nasama Settlement",,-18.0560,179.3527,Fiji,FJ,FJI,Lomaiviti,Lomaiviti,FJ-06,province,,13.3,,,4,Pacific/Fiji,FALSE,1242949028
"Waimaqera Settlement","Waimaqera Settlement",Waimanggere|Waingere|Waingeri,-16.9357,179.9007,Fiji,FJ,FJI,Cakaudrove,Cakaudrove,FJ-03,province,,97.1,,,4,Pacific/Fiji,FALSE,1242000144
Naveindrendre,Naveindrendre,,-16.2167,179.6167,Fiji,FJ,FJI,,,,,,8.4,,,5,Pacific/Fiji,FALSE,1242530706
Kavala,Kavala,Kaivala,-18.9696,178.4137,Fiji,FJ,FJI,Kadavu,Kadavu,FJ-04,province,,14.8,,,4,Pacific/Fiji,FALSE,1242247501
Qarani,Qarani,Nggarani|Loloa,-17.9470,179.2698,Fiji,FJ,FJI,Lomaiviti,Lomaiviti,FJ-06,province,,19.5,,,4,Pacific/Fiji,FALSE,1242794639
"Roma Settlement","Roma Settlement",,-17.7022,178.0682,Fiji,FJ,FJI,Naitasiri,Naitasiri,FJ-09,province,,12.9,,,4,Pacific/Fiji,FALSE,1242087829
Nadala,Nadala,,-17.6117,177.9715,Fiji,FJ,FJI,Ba,Ba,FJ-01,province,,6.2,,,5,Pacific/Fiji,FALSE,1242920693
Nanduruyasi,Nanduruyasi,,-18.0333,178.1333,Fiji,FJ,FJI,,,,,,8.2,,,5,Pacific/Fiji,FALSE,1242029399
Waisomo,Waisomo,,-19.0828,178.1154,Fiji,FJ,FJI,Kadavu,Kadavu,FJ-04,province,,31.4,,,4,Pacific/Fiji,FALSE,1242607641
Waisomo,Waisomo,,-18.9227,178.4768,Fiji,FJ,FJI,Kadavu,Kadavu,FJ-04,province,,14.7,,,4,Pacific/Fiji,TRUE,1242734595
Soso,Soso,,-17.9706,178.6150,Fiji,FJ,FJI,Tailevu,Tailevu,FJ-14,province,,106.9,,,4,Pacific/Fiji,FALSE,1242183630
Waisomo,Waisomo,,-17.7288,178.2084,Fiji,FJ,FJI,Naitasiri,Naitasiri,FJ-09,province,,8.7,,,5,Pacific/Fiji,FALSE,1242496718
Vanualevu,Vanualevu,,-17.7397,177.9546,Fiji,FJ,FJI,"Nadroga and Navosa","Nadroga and Navosa",FJ-08,province,,5.2,,,5,Pacific/Fiji,FALSE,1242879252
"Tubarua Settlement","Tubarua Settlement",,-17.8782,177.7664,Fiji,FJ,FJI,"Nadroga and Navosa","Nadroga and Navosa",FJ-08,province,,74.8,,,4,Pacific/Fiji,FALSE,1242411527
Drue,Drue,Ndrue,-19.0020,178.1618,Fiji,FJ,FJI,Kadavu,Kadavu,FJ-04,province,,14.1,,,4,Pacific/Fiji,FALSE,1242637093
Wainimakutu,Wainimakutu,Wainimakatu,-17.9711,178.0756,Fiji,FJ,FJI,Namosi,Namosi,FJ-10,province,,9.1,,,5,Pacific/Fiji,FALSE,1242075938
Lekutulevu,Lekutulevu,Vuniwai,-16.4891,179.4895,Fiji,FJ,FJI,Cakaudrove,Cakaudrove,FJ-03,province,,5.2,,,5,Pacific/Fiji,FALSE,1242424793
Nawaka,Nawaka,,-17.8128,177.4340,Fiji,FJ,FJI,Ba,Ba,FJ-01,province,,1520.2,,,3,Pacific/Fiji,FALSE,1242415710
Naulu,Naulu,,-18.0682,178.5262,Fiji,FJ,FJI,,,,,,629.5,,,3,Pacific/Fiji,FALSE,1242777894
"Vatumani Settlement","Vatumani Settlement",,-17.3874,178.1530,Fiji,FJ,FJI,Ra,Ra,FJ-11,province,,298.9,,,3,Pacific/Fiji,FALSE,1242556960
Wayalevu,Wayalevu,,-17.2738,177.1460,Fiji,FJ,FJI,Ba,Ba,FJ-01,province,,35.4,,,4,Pacific/Fiji,FALSE,1242909225
"Waibulu Settlement","Waibulu Settlement",,-16.7666,-179.7761,Fiji,FJ,FJI,Cakaudrove,Cakaudrove,FJ-03,province,,67.4,,,4,Pacific/Fiji,FALSE,1242000312
Navatuvula,Navatuvula,Vatuvula,-18.0261,178.4392,Fiji,FJ,FJI,Naitasiri,Naitasiri,FJ-09,province,,22.1,,,4,Pacific/Fiji,FALSE,1242094814
Drala,Drala,,-17.6924,177.9148,Fiji,FJ,FJI,Ba,Ba,FJ-01,province,,7.7,,,5,Pacific/Fiji,FALSE,1242774330
Nayawa,Nayawa,Enduanasali,-18.1439,177.5104,Fiji,FJ,FJI,"Nadroga and Navosa","Nadroga and Navosa",FJ-08,province,,1408.1,,,3,Pacific/Fiji,FALSE,1242556348
Vagadaci,Vagadaci,Vangandathe|Vagadace|Vangandathi|Vagandathe,-17.6719,178.8308,Fiji,FJ,FJI,Lomaiviti,Lomaiviti,FJ-06,province,,483.2,,,3,Pacific/Fiji,FALSE,1242255878
Urata,Urata,Lithawa,-16.7284,179.3388,Fiji,FJ,FJI,Cakaudrove,Cakaudrove,FJ-03,province,,44.2,,,4,Pacific/Fiji,FALSE,1242731981
"Wainawa Settlement","Wainawa Settlement",,-18.1138,178.3292,Fiji,FJ,FJI,Rewa,Rewa,FJ-12,province,,138.3,,,4,Pacific/Fiji,FALSE,1242306004
Namajiu,Namajiu,Namatiu,-19.0170,178.4076,Fiji,FJ,FJI,Kadavu,Kadavu,FJ-04,province,,14.9,,,4,Pacific/Fiji,FALSE,1242918312
Nabukavesi,Nabukavesi,Nambukavesi,-18.1609,178.2389,Fiji,FJ,FJI,Namosi,Namosi,FJ-10,province,,110.4,,,4,Pacific/Fiji,FALSE,1242027635
Nakobo,Nakobo,Nakombo,-16.7286,179.7559,Fiji,FJ,FJI,Cakaudrove,Cakaudrove,FJ-03,province,,16.5,,,4,Pacific/Fiji,FALSE,1242165823
Ovalau,Ovalau,Ovaiau,-17.6107,178.1685,Fiji,FJ,FJI,Ra,Ra,FJ-11,province,,23.8,,,4,Pacific/Fiji,FALSE,1242400824
"Taivau Settlement","Taivau Settlement",,-17.8239,178.3401,Fiji,FJ,FJI,Naitasiri,Naitasiri,FJ-09,province,,42.7,,,4,Pacific/Fiji,FALSE,1242676493
Kalekana,Kalekana,,-18.1023,178.3937,Fiji,FJ,FJI,Rewa,Rewa,FJ-12,province,,1300.5,,,3,Pacific/Fiji,FALSE,1242369669
"Baravi Settlement","Baravi Settlement",,-18.0952,179.3646,Fiji,FJ,FJI,Lomaiviti,Lomaiviti,FJ-06,province,,13.3,,,4,Pacific/Fiji,FALSE,1242335512
"Namarikutu Settlement","Namarikutu Settlement",,-17.7837,178.4134,Fiji,FJ,FJI,Tailevu,Tailevu,FJ-14,province,,18.3,,,4,Pacific/Fiji,FALSE,1242766891
Tagaqe,Tagaqe,Tangangge|Tanganghi|Tangangi,-18.1960,177.6575,Fiji,FJ,FJI,"Nadroga and Navosa","Nadroga and Navosa",FJ-08,province,,23.7,,,4,Pacific/Fiji,FALSE,1242867400
Korovou,Korovou,,-17.9471,178.3463,Fiji,FJ,FJI,Naitasiri,Naitasiri,FJ-09,province,,17.1,,,4,Pacific/Fiji,FALSE,1242878193
"Natuvu Settlement","Natuvu Settlement",,-17.7044,178.8335,Fiji,FJ,FJI,Lomaiviti,Lomaiviti,FJ-06,province,,224.4,,,3,Pacific/Fiji,FALSE,1242974501
"Natuvu Settlement","Natuvu Settlement",,-17.3951,179.3823,Fiji,FJ,FJI,Lomaiviti,Lomaiviti,FJ-06,province,,27.5,,,4,Pacific/Fiji,TRUE,1242080906
Korovou,Korovou,,-19.0756,178.0630,Fiji,FJ,FJI,Kadavu,Kadavu,FJ-04,province,,29.7,,,4,Pacific/Fiji,FALSE,1242479013
"Rerega Settlement","Rerega Settlement",,-17.7751,177.6363,Fiji,FJ,FJI,Ba,Ba,FJ-01,province,,2.3,,,5,Pacific/Fiji,FALSE,1242430759
Korovou,Korovou,Mboumba|Mboma|Mbuma|Mbouma,-16.8211,-179.8717,Fiji,FJ,FJI,Cakaudrove,Cakaudrove,FJ-03,province,,23.6,,,4,Pacific/Fiji,FALSE,1242237825
Korovou,Korovou,,-16.6980,179.2474,Fiji,FJ,FJI,Cakaudrove,Cakaudrove,FJ-03,province,,20.6,,,4,Pacific/Fiji,TRUE,1242000337
Korovou,Korovou,,-17.8100,178.5431,Fiji,FJ,FJI,Ba,Ba,FJ-01,province,,221.8,,,3,Pacific/Fiji,FALSE,1242910877
Korovou,Korovou,,-17.6475,177.6612,Fiji,FJ,FJI,Ba,Ba,FJ-01,province,,6.1,,,5,Pacific/Fiji,TRUE,1242579935
Vatukoula,Vatukoula,,-17.5000,177.8498,Fiji,FJ,FJI,Ba,Ba,FJ-01,province,,206.3,,,3,Pacific/Fiji,FALSE,1242557877
Yasawa,Yasawa,Assawa|Ysava,-16.1629,-179.9961,Fiji,FJ,FJI,Cakaudrove,Cakaudrove,FJ-03,province,,15.0,,,4,Pacific/Fiji,FALSE,1242196081
"Saru Settlement","Saru Settlement",Saru,-17.6415,177.4455,Fiji,FJ,FJI,Ba,Ba,FJ-01,province,,747.6,,,3,Pacific/Fiji,FALSE,1242433650
Mereran,Mereran,,-16.4929,-179.9480,Fiji,FJ,FJI,Cakaudrove,Cakaudrove,FJ-03,province,,12.1,,,4,Pacific/Fiji,FALSE,1242000299
Manuku,Manuku,,-17.7927,179.1734,Fiji,FJ,FJI,Lomaiviti,Lomaiviti,FJ-06,province,,24.9,,,4,Pacific/Fiji,FALSE,1242037439
"Lepanoni Settlement","Lepanoni Settlement",,-18.2574,178.0549,Fiji,FJ,FJI,Serua,Serua,FJ-13,province,,227.2,,,3,Pacific/Fiji,FALSE,1242257131
Naiseuseu,Naiseuseu,,-18.4074,178.1038,Fiji,FJ,FJI,Serua,Serua,FJ-13,province,,28.6,,,4,Pacific/Fiji,FALSE,1242187529
Levukaindaku,Levukaindaku,,-19.1833,179.7667,Fiji,FJ,FJI,Lau,Lau,FJ-05,province,,21.3,,,4,Pacific/Fiji,FALSE,1242203739
Kiobo,Kiobo,Kiombo,-16.9166,179.0250,Fiji,FJ,FJI,Bua,Bua,FJ-02,province,,11.4,,,4,Pacific/Fiji,FALSE,1242006383
"Yaloku Settlement","Yaloku Settlement",Yaloku,-17.6636,177.6226,Fiji,FJ,FJI,Ba,Ba,FJ-01,province,,6.1,,,5,Pacific/Fiji,FALSE,1242028399
"Yaloku Settlement","Yaloku Settlement",,-17.6560,177.8039,Fiji,FJ,FJI,Ba,Ba,FJ-01,province,,6.1,,,5,Pacific/Fiji,TRUE,1242836477
Nawatia,Nawatia,Namuka,-18.8511,-178.6361,Fiji,FJ,FJI,Lau,Lau,FJ-05,province,,18.8,,,4,Pacific/Fiji,FALSE,1242892636
Korovou,Korovou,,-17.6429,178.2194,Fiji,FJ,FJI,Ra,Ra,FJ-11,province,,11.9,,,4,Pacific/Fiji,FALSE,1242794414
Dreketi,Dreketi,Ndreketi,-16.6964,179.2588,Fiji,FJ,FJI,Cakaudrove,Cakaudrove,FJ-03,province,,35.1,,,4,Pacific/Fiji,FALSE,1242620469
Dreketi,Dreketi,Ndreketi,-16.7777,-179.7489,Fiji,FJ,FJI,Cakaudrove,Cakaudrove,FJ-03,province,,27.2,,,4,Pacific/Fiji,TRUE,1242917264
Navolau,Navolau,,-17.8750,178.3859,Fiji,FJ,FJI,Naitasiri,Naitasiri,FJ-09,province,,17.4,,,4,Pacific/Fiji,FALSE,1242625362
"Talecake Set","Talecake Set",Talethake,-17.4986,177.7056,Fiji,FJ,FJI,Ba,Ba,FJ-01,province,,178.5,,,4,Pacific/Fiji,FALSE,1242845836
"Colo Settlement","Colo Settlement",,-18.1775,-178.8018,Fiji,FJ,FJI,Lau,Lau,FJ-05,province,,9.6,,,5,Pacific/Fiji,FALSE,1242000255
"Waidranu Settlement","Waidranu Settlement",,-18.0595,179.3563,Fiji,FJ,FJI,Lomaiviti,Lomaiviti,FJ-06,province,,13.3,,,4,Pacific/Fiji,FALSE,1242687864
"Nubu Settlement","Nubu Settlement",,-17.7292,178.8071,Fiji,FJ,FJI,Lomaiviti,Lomaiviti,FJ-06,province,,127.2,,,4,Pacific/Fiji,FALSE,1242769780
"Natuatuacoko Settlement","Natuatuacoko Settlement","Natuatuacoko|Natuatuathoko|Fort Carnarvon",-17.8824,177.7836,Fiji,FJ,FJI,"Nadroga and Navosa","Nadroga and Navosa",FJ-08,province,,15.9,,,4,Pacific/Fiji,FALSE,1242322134
Namatana,Namatana,,-17.8500,179.4333,Fiji,FJ,FJI,,,,,,21.1,,,4,Pacific/Fiji,FALSE,1242653485
Vunatovau,Vunatovau,,-18.0957,177.4839,Fiji,FJ,FJI,"Nadroga and Navosa","Nadroga and Navosa",FJ-08,province,,7.2,,,5,Pacific/Fiji,FALSE,1242565396
"Namakala Settlement","Namakala Settlement",,-18.1332,178.3695,Fiji,FJ,FJI,Rewa,Rewa,FJ-12,province,,291.8,,,3,Pacific/Fiji,FALSE,1242947059
Tuai,Tuai,,-12.5211,177.0784,Fiji,FJ,FJI,Rotuma,Rotuma,FJ-R,dependency,,26.3,,,4,Pacific/Fiji,FALSE,1242955275
Nandele,Nandele,,-17.7333,177.5667,Fiji,FJ,FJI,Ba,Ba,FJ-01,province,,15.0,,,4,Pacific/Fiji,FALSE,1242784514
"Wainivilimi Settlement","Wainivilimi Settlement",,-17.7304,178.4856,Fiji,FJ,FJI,Tailevu,Tailevu,FJ-14,province,,20.1,,,4,Pacific/Fiji,FALSE,1242873884
"Sese Settlement","Sese Settlement",,-18.4165,178.1281,Fiji,FJ,FJI,Serua,Serua,FJ-13,province,,28.3,,,4,Pacific/Fiji,FALSE,1242128091
"Paradise Cove","Paradise Cove",,-16.7009,179.2839,Fiji,FJ,FJI,Cakaudrove,Cakaudrove,FJ-03,province,,17.2,,,4,Pacific/Fiji,FALSE,1242000004
Muanaira,Muanaira,Muana-i-Ra|Muneran,-19.1532,-178.5923,Fiji,FJ,FJI,Lau,Lau,FJ-05,province,,11.7,,,4,Pacific/Fiji,FALSE,1242229087
Naevuevu,Naevuevu,Navuevu|Nasalau,-18.1520,177.4422,Fiji,FJ,FJI,"Nadroga and Navosa","Nadroga and Navosa",FJ-08,province,,142.8,,,4,Pacific/Fiji,FALSE,1242185620
Lovoninggai,Lovoninggai,,-16.7667,179.4833,Fiji,FJ,FJI,,,,,,20.5,,,4,Pacific/Fiji,FALSE,1242308519
Niuou,Niuou,,-16.5018,-179.9415,Fiji,FJ,FJI,Cakaudrove,Cakaudrove,FJ-03,province,,12.1,,,4,Pacific/Fiji,FALSE,1242000297
Laqere,Laqere,Langgere,-18.0837,178.4986,Fiji,FJ,FJI,Naitasiri,Naitasiri,FJ-09,province,,5846.5,,,2,Pacific/Fiji,FALSE,1242952085
"Salialevu Settlement","Salialevu Settlement",Salialevu,-16.9684,179.9937,Fiji,FJ,FJI,Cakaudrove,Cakaudrove,FJ-03,province,,3.5,,,5,Pacific/Fiji,FALSE,1242057181
"Matanitana Settlement","Matanitana Settlement",,-16.7938,179.0120,Fiji,FJ,FJI,Cakaudrove,Cakaudrove,FJ-03,province,,3.5,,,5,Pacific/Fiji,FALSE,1242000112
Laucala,Laucala,Lauthala,-16.7476,179.1231,Fiji,FJ,FJI,Cakaudrove,Cakaudrove,FJ-03,province,,11.1,,,4,Pacific/Fiji,FALSE,1242553451
"Nabuyalevu Settlement","Nabuyalevu Settlement",,-17.7476,177.9263,Fiji,FJ,FJI,"Nadroga and Navosa","Nadroga and Navosa",FJ-08,province,,6.1,,,5,Pacific/Fiji,FALSE,1242053097
"Sabeto Settlement","Sabeto Settlement",,-17.7270,177.4674,Fiji,FJ,FJI,Ba,Ba,FJ-01,province,,311.3,,,3,Pacific/Fiji,FALSE,1242643534
Votua,Votua,Lekutu,-16.6689,178.7208,Fiji,FJ,FJI,Bua,Bua,FJ-02,province,,12.8,,,4,Pacific/Fiji,FALSE,1242884357
Votua,Votua,,-17.4903,177.6655,Fiji,FJ,FJI,Ba,Ba,FJ-01,province,,146.4,,,4,Pacific/Fiji,FALSE,1242375789
Votua,Votua,,-18.2083,177.7104,Fiji,FJ,FJI,"Nadroga and Navosa","Nadroga and Navosa",FJ-08,province,,169.1,,,4,Pacific/Fiji,FALSE,1242515608
Naqelecibi,Naqelecibi,Nggelethimbi,-17.5870,178.0975,Fiji,FJ,FJI,Ra,Ra,FJ-11,province,,13.5,,,4,Pacific/Fiji,FALSE,1242381168
Nanukuloa,Nanukuloa,"Nuku Loa",-17.4525,178.2299,Fiji,FJ,FJI,Ra,Ra,FJ-11,province,,21.5,,,4,Pacific/Fiji,FALSE,1242998560
"Varo Settlement","Varo Settlement",,-17.7254,178.7969,Fiji,FJ,FJI,Lomaiviti,Lomaiviti,FJ-06,province,,30.0,,,4,Pacific/Fiji,FALSE,1242681171
"Natekateka Settlement","Natekateka Settlement",,-16.6245,178.9922,Fiji,FJ,FJI,Macuata,Macuata,FJ-07,province,,12.2,,,4,Pacific/Fiji,FALSE,1242000009
Toga,Toga,Tonga,-17.9777,177.6056,Fiji,FJ,FJI,"Nadroga and Navosa","Nadroga and Navosa",FJ-08,province,,11.1,,,4,Pacific/Fiji,FALSE,1242159143
"Waibale Settlement","Waibale Settlement",,-18.2264,177.8448,Fiji,FJ,FJI,Serua,Serua,FJ-13,province,,7.4,,,5,Pacific/Fiji,FALSE,1242320433
"Nasinu Settlement","Nasinu Settlement",,-16.2356,179.8415,Fiji,FJ,FJI,Macuata,Macuata,FJ-07,province,,6.0,,,5,Pacific/Fiji,FALSE,1242000177
Balenabelo,Balenabelo,Mbalenambelo,-18.1646,177.6219,Fiji,FJ,FJI,"Nadroga and Navosa","Nadroga and Navosa",FJ-08,province,,3.3,,,5,Pacific/Fiji,FALSE,1242479758
Nalalawa,Nalalawa,,-17.6313,178.2600,Fiji,FJ,FJI,Ra,Ra,FJ-11,province,,11.6,,,4,Pacific/Fiji,FALSE,1242982170
Sadro,Sadro,Sandro,-18.2479,178.1344,Fiji,FJ,FJI,Serua,Serua,FJ-13,province,,145.4,,,4,Pacific/Fiji,FALSE,1242555987
"Vunidawa Settlement","Vunidawa Settlement",,-16.7373,-179.8625,Fiji,FJ,FJI,Cakaudrove,Cakaudrove,FJ-03,province,,23.7,,,4,Pacific/Fiji,FALSE,1242000231
Veinuqa,Veinuqa,Veinungga|Vinungga|Veinugga,-17.8427,178.5470,Fiji,FJ,FJI,Tailevu,Tailevu,FJ-14,province,,84.1,,,4,Pacific/Fiji,FALSE,1242552074
Ndakuirase,Ndakuirase,,-17.2000,-178.9667,Fiji,FJ,FJI,,,,,,11.6,,,4,Pacific/Fiji,FALSE,1242234116
"Waioba Estate Settlement","Waioba Estate Settlement",Waiomba,-16.9292,179.9117,Fiji,FJ,FJI,Cakaudrove,Cakaudrove,FJ-03,province,,39.4,,,4,Pacific/Fiji,FALSE,1242000145
Vakabuli,Vakabuli,Vakambuli,-17.6106,177.5559,Fiji,FJ,FJI,Ba,Ba,FJ-01,province,,27.7,,,4,Pacific/Fiji,FALSE,1242126155
Naua,Naua,,-16.2416,179.6489,Fiji,FJ,FJI,Macuata,Macuata,FJ-07,province,,8.4,,,5,Pacific/Fiji,FALSE,1242991857
"Vuniniudrovu Settlement","Vuniniudrovu Settlement",Vuniniundrovu,-18.0199,178.4929,Fiji,FJ,FJI,Naitasiri,Naitasiri,FJ-09,province,,250.7,,,3,Pacific/Fiji,FALSE,1242985403
"Marouna Settlement","Marouna Settlement",,-17.4274,-179.1688,Fiji,FJ,FJI,Lau,Lau,FJ-05,province,,3.9,,,5,Pacific/Fiji,FALSE,1242000319
"Wailailai Settlement","Wailailai Settlement",,-16.9120,178.9659,Fiji,FJ,FJI,Bua,Bua,FJ-02,province,,6.4,,,5,Pacific/Fiji,FALSE,1242000095
"Rava Settlement","Rava Settlement",,-16.8084,179.3256,Fiji,FJ,FJI,Cakaudrove,Cakaudrove,FJ-03,province,,144.3,,,4,Pacific/Fiji,FALSE,1242000360
Vatubalavu,Vatubalavu,Vatumbalavu,-17.8736,177.8084,Fiji,FJ,FJI,"Nadroga and Navosa","Nadroga and Navosa",FJ-08,province,,16.7,,,4,Pacific/Fiji,FALSE,1242335523
"Talaleka Settlement","Talaleka Settlement",,-16.5494,179.3820,Fiji,FJ,FJI,Cakaudrove,Cakaudrove,FJ-03,province,,9.7,,,5,Pacific/Fiji,FALSE,1242000349
"Codreudreu Settlement","Codreudreu Settlement",,-16.6992,179.2311,Fiji,FJ,FJI,Cakaudrove,Cakaudrove,FJ-03,province,,9.4,,,5,Pacific/Fiji,FALSE,1242000338
Saolei,Saolei,,-12.5190,177.0600,Fiji,FJ,FJI,Rotuma,Rotuma,FJ-R,dependency,,42.3,,,4,Pacific/Fiji,FALSE,1242643580
Wainadiro,Wainadiro,Wainandiro,-18.1100,178.0145,Fiji,FJ,FJI,Serua,Serua,FJ-13,province,,4.4,,,5,Pacific/Fiji,FALSE,1242547774
Sinuvaca,Sinuvaca,Sinuvatha,-17.3347,179.4327,Fiji,FJ,FJI,Lomaiviti,Lomaiviti,FJ-06,province,,26.2,,,4,Pacific/Fiji,FALSE,1242788161
Nathaurokovi,Nathaurokovi,,-16.5667,179.1667,Fiji,FJ,FJI,,,,,,2.6,,,5,Pacific/Fiji,FALSE,1242010861
Naioti,Naioti,,-18.9380,178.3444,Fiji,FJ,FJI,Kadavu,Kadavu,FJ-04,province,,10.6,,,4,Pacific/Fiji,FALSE,1242314709
Laselevu,Laselevu,Laseleva,-17.7500,178.1333,Fiji,FJ,FJI,,,,,,8.0,,,5,Pacific/Fiji,FALSE,1242221453
Vatutu,Vatutu,,-17.8181,177.4415,Fiji,FJ,FJI,Ba,Ba,FJ-01,province,,469.9,,,3,Pacific/Fiji,FALSE,1242176748
"Bataniuciwai Settlement","Bataniuciwai Settlement",,-16.8579,178.9184,Fiji,FJ,FJI,Bua,Bua,FJ-02,province,,6.4,,,5,Pacific/Fiji,FALSE,1242000005
Natokalau,Natokalau,,-16.9066,179.0577,Fiji,FJ,FJI,Bua,Bua,FJ-02,province,,11.4,,,4,Pacific/Fiji,FALSE,1242904968
Suvalailai,Suvalailai,Suvaviti,-18.1007,178.5810,Fiji,FJ,FJI,Rewa,Rewa,FJ-12,province,,180.5,,,4,Pacific/Fiji,FALSE,1242667927
Nadroumai,Nadroumai,Nandroumai|Nandromai|Nardroumai,-18.1096,177.4492,Fiji,FJ,FJI,"Nadroga and Navosa","Nadroga and Navosa",FJ-08,province,,54.1,,,4,Pacific/Fiji,FALSE,1242864367
Nakula,Nakula,,-16.7667,179.3833,Fiji,FJ,FJI,,,,,,36.7,,,4,Pacific/Fiji,FALSE,1242871084
"Vadraiyawa Settlement","Vadraiyawa Settlement",,-17.5917,177.5268,Fiji,FJ,FJI,Ba,Ba,FJ-01,province,,149.8,,,4,Pacific/Fiji,FALSE,1242000040
Wakanisila,Wakanisila,,-18.0865,178.4943,Fiji,FJ,FJI,Naitasiri,Naitasiri,FJ-09,province,,5846.5,,,2,Pacific/Fiji,FALSE,1242667374
"Naqala Settlement","Naqala Settlement",,-17.2732,179.3958,Fiji,FJ,FJI,Lomaiviti,Lomaiviti,FJ-06,province,,29.4,,,4,Pacific/Fiji,FALSE,1242236442
Vatukalo,Vatukalo,,-17.6429,178.8206,Fiji,FJ,FJI,Lomaiviti,Lomaiviti,FJ-06,province,,211.7,,,3,Pacific/Fiji,FALSE,1242467794
"Raiwaqa Settlement","Raiwaqa Settlement",,-19.0307,178.3407,Fiji,FJ,FJI,Kadavu,Kadavu,FJ-04,province,,13.9,,,4,Pacific/Fiji,FALSE,1242382381
"Saqani Settlement","Saqani Settlement",,-17.2522,-178.9590,Fiji,FJ,FJI,Lau,Lau,FJ-05,province,,39.2,,,4,Pacific/Fiji,FALSE,1242000323
Namalata,Namalata,,-17.3361,-178.9847,Fiji,FJ,FJI,Lau,Lau,FJ-05,province,,15.3,,,3,Pacific/Fiji,FALSE,1242474843
Namalata,Namalata,Namuana,-19.0572,178.1555,Fiji,FJ,FJI,Kadavu,Kadavu,FJ-04,province,,66.6,,,4,Pacific/Fiji,FALSE,1242781535
"Masimasi Settlement","Masimasi Settlement",,-17.9835,177.8175,Fiji,FJ,FJI,"Nadroga and Navosa","Nadroga and Navosa",FJ-08,province,,4.9,,,5,Pacific/Fiji,FALSE,1242688817
Sauniveiuto,Sauniveiuto,Sauniviuto,-18.2495,178.1350,Fiji,FJ,FJI,Serua,Serua,FJ-13,province,,145.4,,,4,Pacific/Fiji,FALSE,1242723276
"Nakelo Landing","Nakelo Landing",Nukelo|Nakelo|Matainabou,-18.0617,178.5990,Fiji,FJ,FJI,Tailevu,Tailevu,FJ-14,province,,346.6,,,3,Pacific/Fiji,FALSE,1242438887
Nathokulati,Nathokulati,,-16.2667,179.5500,Fiji,FJ,FJI,,,,,,14.0,,,4,Pacific/Fiji,FALSE,1242325891
Lauwaki,Lauwaki,,-19.0167,178.3167,Fiji,FJ,FJI,,,,,,13.9,,,4,Pacific/Fiji,FALSE,1242203103
"Naivitabua Settlement","Naivitabua Settlement",,-17.8375,178.5877,Fiji,FJ,FJI,Tailevu,Tailevu,FJ-14,province,,80.8,,,4,Pacific/Fiji,FALSE,1242023906
Loa,Loa,Oloa,-16.6744,179.8218,Fiji,FJ,FJI,Cakaudrove,Cakaudrove,FJ-03,province,,11.5,,,4,Pacific/Fiji,FALSE,1242425355
Qelemumu,Qelemumu,Nggelemumu,-16.4063,179.4717,Fiji,FJ,FJI,Macuata,Macuata,FJ-07,province,,26.3,,,4,Pacific/Fiji,FALSE,1242098765
"Vatusogosogo Settlement","Vatusogosogo Settlement",Vatusongosongo,-16.7665,-179.7821,Fiji,FJ,FJI,Cakaudrove,Cakaudrove,FJ-03,province,,67.4,,,4,Pacific/Fiji,FALSE,1242579838
"Nacokula Settlement","Nacokula Settlement",,-17.4050,178.2376,Fiji,FJ,FJI,Ra,Ra,FJ-11,province,,43.7,,,4,Pacific/Fiji,FALSE,1242389978
Waiqori,Waiqori,Wainggori,-18.4447,-178.4875,Fiji,FJ,FJI,Lau,Lau,FJ-05,province,,25.8,,,4,Pacific/Fiji,FALSE,1242482272
"Naqilanimoto Settlement","Naqilanimoto Settlement",,-16.7227,178.5493,Fiji,FJ,FJI,Bua,Bua,FJ-02,province,,4.6,,,5,Pacific/Fiji,FALSE,1242000031
"Ono Levu","Ono Levu",,-20.6667,-178.6833,Fiji,FJ,FJI,,,,,,29.9,,,4,Pacific/Fiji,FALSE,1242353802
Nakorokula,Nakorokula,"Koro Kula",-17.3525,178.2292,Fiji,FJ,FJI,Ra,Ra,FJ-11,province,,27.0,,,4,Pacific/Fiji,FALSE,1242541416
Vanuavatu,Vanuavatu,,-18.3622,-179.2786,Fiji,FJ,FJI,Lau,Lau,FJ-05,province,,32.7,,,4,Pacific/Fiji,FALSE,1242261501
Waibogi,Waibogi,Waimbongi,-18.1168,178.0093,Fiji,FJ,FJI,Serua,Serua,FJ-13,province,,4.4,,,5,Pacific/Fiji,FALSE,1242704193
Togovere,Togovere,Tongovere,-18.1046,177.4181,Fiji,FJ,FJI,"Nadroga and Navosa","Nadroga and Navosa",FJ-08,province,,30.3,,,4,Pacific/Fiji,FALSE,1242108051
"Waivou Settlement","Waivou Settlement",,-17.7364,178.5493,Fiji,FJ,FJI,Tailevu,Tailevu,FJ-14,province,,35.6,,,4,Pacific/Fiji,FALSE,1242259397
"Navaqali Settlement","Navaqali Settlement",,-17.5418,177.5868,Fiji,FJ,FJI,Ba,Ba,FJ-01,province,,26.5,,,4,Pacific/Fiji,FALSE,1242086042
Mau,Mau,,-18.1833,178.2333,Fiji,FJ,FJI,Namosi,Namosi,FJ-10,province,,56.4,,,4,Pacific/Fiji,FALSE,1242220968
Vunimoli,Vunimoli,,-16.9333,177.3667,Fiji,FJ,FJI,,,,,,57.1,,,4,Pacific/Fiji,FALSE,1242838335
Vunimoli,Vunimoli,,-16.4500,179.2333,Fiji,FJ,FJI,,,,,,28.4,,,4,Pacific/Fiji,TRUE,1242982447
Naqarani,Naqarani,Nanggarani,-18.0946,178.5931,Fiji,FJ,FJI,Tailevu,Tailevu,FJ-14,province,,87.8,,,4,Pacific/Fiji,FALSE,1242451302
"Qaloyaga Settlement","Qaloyaga Settlement",,-16.4453,179.3090,Fiji,FJ,FJI,Macuata,Macuata,FJ-07,province,,240.0,,,3,Pacific/Fiji,FALSE,1242000351
"Koronibelo Settlement","Koronibelo Settlement",,-16.8648,178.6203,Fiji,FJ,FJI,Bua,Bua,FJ-02,province,,18.2,,,4,Pacific/Fiji,FALSE,1242000061
Paptea,Paptea,,-12.4996,177.1384,Fiji,FJ,FJI,Rotuma,Rotuma,FJ-R,dependency,,20.2,,,4,Pacific/Fiji,FALSE,1242877212
Visoqo,Visoqo,Vi-songu|Visonggo,-16.2174,179.6627,Fiji,FJ,FJI,Macuata,Macuata,FJ-07,province,,8.4,,,5,Pacific/Fiji,FALSE,1242202458
"Nosonoso Settlement","Nosonoso Settlement",,-17.3950,179.3780,Fiji,FJ,FJI,Lomaiviti,Lomaiviti,FJ-06,province,,27.5,,,4,Pacific/Fiji,FALSE,1242373446
"Nalaga Settlement","Nalaga Settlement",,-16.7926,-179.9823,Fiji,FJ,FJI,Cakaudrove,Cakaudrove,FJ-03,province,,77.9,,,4,Pacific/Fiji,FALSE,1242000260
Wainilotulevu,Wainilotulevu,,-18.0833,178.0167,Fiji,FJ,FJI,,,,,,7.1,,,5,Pacific/Fiji,FALSE,1242831619
Naroro,Naroro,,-18.1306,177.5385,Fiji,FJ,FJI,"Nadroga and Navosa","Nadroga and Navosa",FJ-08,province,,55.7,,,4,Pacific/Fiji,FALSE,1242787752
"Waivora Settlement","Waivora Settlement",,-17.7838,178.4377,Fiji,FJ,FJI,Tailevu,Tailevu,FJ-14,province,,31.9,,,4,Pacific/Fiji,FALSE,1242158475
"Korovuta Settlement","Korovuta Settlement",,-17.5864,177.7268,Fiji,FJ,FJI,Ba,Ba,FJ-01,province,,122.3,,,4,Pacific/Fiji,FALSE,1242196861
Nabukaluka,Nabukaluka,Nambukaluka|Nabukalukiu,-17.9763,178.3228,Fiji,FJ,FJI,Naitasiri,Naitasiri,FJ-09,province,,19.3,,,4,Pacific/Fiji,FALSE,1242369197
Atopisi,Atopisi,,-12.5167,177.0500,Fiji,FJ,FJI,Rotuma,Rotuma,FJ-R,dependency,,42.3,,,4,Pacific/Fiji,FALSE,1242110489
"Taina Settlement","Taina Settlement",,-17.4957,178.2083,Fiji,FJ,FJI,Ra,Ra,FJ-11,province,,28.5,,,4,Pacific/Fiji,FALSE,1242503419
Deladamanu,Deladamanu,"Ndela na manu|Ndeiandamanu|Ndelandamanu",-17.9474,178.4519,Fiji,FJ,FJI,Naitasiri,Naitasiri,FJ-09,province,,98.9,,,4,Pacific/Fiji,FALSE,1242721747
Naivakacau,Naivakacau,Naivakathau,-18.0403,178.6248,Fiji,FJ,FJI,Tailevu,Tailevu,FJ-14,province,,107.4,,,4,Pacific/Fiji,FALSE,1242892350
Navunievu,Navunievu,Vunievu|Navuniyevo,-16.8082,178.5458,Fiji,FJ,FJI,Bua,Bua,FJ-02,province,,4.6,,,5,Pacific/Fiji,FALSE,1242390349
"Varisi Settlement","Varisi Settlement",,-17.7709,178.7405,Fiji,FJ,FJI,Lomaiviti,Lomaiviti,FJ-06,province,,46.9,,,4,Pacific/Fiji,FALSE,1242888972
Lasakau,Lasakau,Mbau,-17.9733,178.6159,Fiji,FJ,FJI,Tailevu,Tailevu,FJ-14,province,,106.9,,,4,Pacific/Fiji,FALSE,1242600439
Natumua,Natumua,Natuma,-19.0814,178.1185,Fiji,FJ,FJI,Kadavu,Kadavu,FJ-04,province,,31.4,,,4,Pacific/Fiji,FALSE,1242378266
"Tamusu Settlement","Tamusu Settlement",,-17.5018,177.6502,Fiji,FJ,FJI,Ba,Ba,FJ-01,province,,198.8,,,4,Pacific/Fiji,FALSE,1242471282
"Matadodo Settlement","Matadodo Settlement",,-17.7737,178.7432,Fiji,FJ,FJI,Lomaiviti,Lomaiviti,FJ-06,province,,46.9,,,4,Pacific/Fiji,FALSE,1242773212
"Naseva Settlement","Naseva Settlement",,-17.3158,177.1107,Fiji,FJ,FJI,Ba,Ba,FJ-01,province,,45.3,,,4,Pacific/Fiji,FALSE,1242000024
Vunuku,Vunuku,Vou-nuku,-18.5833,179.9167,Fiji,FJ,FJI,,,,,,16.7,,,4,Pacific/Fiji,FALSE,1242269432
"Buro Settlement","Buro Settlement",,-17.8886,177.6842,Fiji,FJ,FJI,"Nadroga and Navosa","Nadroga and Navosa",FJ-08,province,,4.7,,,5,Pacific/Fiji,FALSE,1242412204
Karoko,Karoko,,-16.5167,179.9167,Fiji,FJ,FJI,,,,,,14.5,,,4,Pacific/Fiji,FALSE,1242817608
Kabariki,Kabariki,Kambariki|Mbariki,-19.1425,178.0294,Fiji,FJ,FJI,Kadavu,Kadavu,FJ-04,province,,25.6,,,4,Pacific/Fiji,FALSE,1242954244
"Nabale Settlement","Nabale Settlement",,-19.1208,177.9996,Fiji,FJ,FJI,Kadavu,Kadavu,FJ-04,province,,40.4,,,4,Pacific/Fiji,FALSE,1242936945
"Wainaro Settlement","Wainaro Settlement",,-17.7258,178.4246,Fiji,FJ,FJI,Tailevu,Tailevu,FJ-14,province,,17.4,,,4,Pacific/Fiji,FALSE,1242031220
Taunovo,Taunovo,,-18.5109,177.6436,Fiji,FJ,FJI,"Nadroga and Navosa","Nadroga and Navosa",FJ-08,province,,49.1,,,4,Pacific/Fiji,FALSE,1242089717
Vunisea,Vunisea,"Vunisea Station",-19.0475,178.1626,Fiji,FJ,FJI,Kadavu,Kadavu,FJ-04,province,,132.7,,,4,Pacific/Fiji,FALSE,1242868707
Vunisea,Vunisea,,-16.6067,178.9165,Fiji,FJ,FJI,Macuata,Macuata,FJ-07,province,,84.4,,,4,Pacific/Fiji,FALSE,1242899829
Waisomo,Waisomo,,-18.3588,178.1312,Fiji,FJ,FJI,Serua,Serua,FJ-13,province,,29.2,,,4,Pacific/Fiji,FALSE,1242303830
"Tubarua Settlement","Tubarua Settlement",,-18.2254,177.9993,Fiji,FJ,FJI,Serua,Serua,FJ-13,province,,13.2,,,4,Pacific/Fiji,FALSE,1242063583
Moala,Moala,,-17.8069,177.3756,Fiji,FJ,FJI,Ba,Ba,FJ-01,province,,134.9,,,4,Pacific/Fiji,FALSE,1242878197
Tubucola,Tubucola,,-16.4194,179.3094,Fiji,FJ,FJI,Macuata,Macuata,FJ-07,province,,34.4,,,4,Pacific/Fiji,FALSE,1242000322
Soso,Soso,,-19.0122,178.3207,Fiji,FJ,FJI,Kadavu,Kadavu,FJ-04,province,,13.9,,,4,Pacific/Fiji,FALSE,1242546595
Nagaga,Nagaga,,-17.8179,178.3215,Fiji,FJ,FJI,Naitasiri,Naitasiri,FJ-09,province,,67.7,,,4,Pacific/Fiji,FALSE,1242815463
Soso,Soso,,-17.1277,177.2230,Fiji,FJ,FJI,Ba,Ba,FJ-01,province,,30.2,,,4,Pacific/Fiji,FALSE,1242263422
Delailasakau,Delailasakau,Ndelailasakau|Ndelalasakau,-18.0018,178.2036,Fiji,FJ,FJI,Naitasiri,Naitasiri,FJ-09,province,,3.0,,,5,Pacific/Fiji,FALSE,1242015738
"Vatudovia Settlement","Vatudovia Settlement",,-16.7140,-179.8629,Fiji,FJ,FJI,Cakaudrove,Cakaudrove,FJ-03,province,,137.8,,,4,Pacific/Fiji,FALSE,1242000284
Kilaka,Kilaka,,-16.8165,179.0265,Fiji,FJ,FJI,Bua,Bua,FJ-02,province,,6.3,,,5,Pacific/Fiji,FALSE,1242000069
"Loganiota Settlement","Loganiota Settlement",,-16.3450,179.7634,Fiji,FJ,FJI,Cakaudrove,Cakaudrove,FJ-03,province,,13.3,,,4,Pacific/Fiji,FALSE,1242000160
"Yalasa Settlement","Yalasa Settlement",,-18.0680,177.5850,Fiji,FJ,FJI,"Nadroga and Navosa","Nadroga and Navosa",FJ-08,province,,18.0,,,4,Pacific/Fiji,FALSE,1242948462
Korovisilou,Korovisilou,,-18.2479,177.8862,Fiji,FJ,FJI,Serua,Serua,FJ-13,province,,29.2,,,4,Pacific/Fiji,FALSE,1242621008
"Veiquwawa Settlement","Veiquwawa Settlement",,-17.5116,177.8437,Fiji,FJ,FJI,Ba,Ba,FJ-01,province,,133.9,,,4,Pacific/Fiji,FALSE,1242888089
Navolau-2,Navolau-2,,-17.3591,178.2399,Fiji,FJ,FJI,Ra,Ra,FJ-11,province,,27.0,,,4,Pacific/Fiji,FALSE,1242436280
Mabula,Mabula,Mambula,-17.7671,-179.3278,Fiji,FJ,FJI,Lau,Lau,FJ-05,province,,23.0,,,4,Pacific/Fiji,FALSE,1242948383
Nakorowaiwai,Nakorowaiwai,,-18.0667,178.0833,Fiji,FJ,FJI,,,,,,15.3,,,4,Pacific/Fiji,FALSE,1242816211
Nakorowaiwai,Nakorowaiwai,,-17.6833,178.4167,Fiji,FJ,FJI,,,,,,4.4,,,5,Pacific/Fiji,TRUE,1242430609
"Nautosaca Settlement","Nautosaca Settlement",,-19.1295,178.1326,Fiji,FJ,FJI,Kadavu,Kadavu,FJ-04,province,,24.2,,,4,Pacific/Fiji,FALSE,1242767643
Viseisei,Viseisei,,-17.6856,177.4074,Fiji,FJ,FJI,Ba,Ba,FJ-01,province,,799.5,,,3,Pacific/Fiji,FALSE,1242123920
Sauhata,Sauhata,,-12.4907,177.1274,Fiji,FJ,FJI,Rotuma,Rotuma,FJ-R,dependency,,20.2,,,4,Pacific/Fiji,FALSE,1242090578
Namata,Namata,,-17.9835,178.5789,Fiji,FJ,FJI,Tailevu,Tailevu,FJ-14,province,,73.9,,,4,Pacific/Fiji,FALSE,1242473869
Dravuwalu,Dravuwalu,Ndravuwalu|Ndravawalu,-18.9973,178.2970,Fiji,FJ,FJI,Kadavu,Kadavu,FJ-04,province,,20.2,,,4,Pacific/Fiji,FALSE,1242342112
"Nabuna Set","Nabuna Set",Nambuna|Vanua-kula,-17.4373,177.8711,Fiji,FJ,FJI,Ba,Ba,FJ-01,province,,132.6,,,4,Pacific/Fiji,FALSE,1242767902
"Bainiose Settlement","Bainiose Settlement",,-16.8074,179.9939,Fiji,FJ,FJI,Cakaudrove,Cakaudrove,FJ-03,province,,176.1,,,4,Pacific/Fiji,FALSE,1242000124
"Bainiose Settlement","Bainiose Settlement",,-16.7355,-179.8601,Fiji,FJ,FJI,Cakaudrove,Cakaudrove,FJ-03,province,,23.7,,,4,Pacific/Fiji,TRUE,1242000230
Natuvu,Natuvu,,-16.6667,179.8500,Fiji,FJ,FJI,,,,,,26.8,,,4,Pacific/Fiji,FALSE,1242014125
Nasilai,Nasilai,,-18.1091,178.5633,Fiji,FJ,FJI,Rewa,Rewa,FJ-12,province,,302.4,,,3,Pacific/Fiji,FALSE,1242606651
Nasilai,Nasilai,Nasalai|Naselai,-18.0830,178.6539,Fiji,FJ,FJI,Tailevu,Tailevu,FJ-14,province,,64.6,,,4,Pacific/Fiji,FALSE,1242750031
Burebasaga,Burebasaga,Mburembasanga,-18.0868,178.5677,Fiji,FJ,FJI,Rewa,Rewa,FJ-12,province,,161.2,,,4,Pacific/Fiji,FALSE,1242114728
Nacereyaga,Nacereyaga,,-16.6104,179.1186,Fiji,FJ,FJI,Macuata,Macuata,FJ-07,province,,14.4,,,4,Pacific/Fiji,FALSE,1242000081
"Namatadogo Settlement","Namatadogo Settlement",,-16.6246,178.9833,Fiji,FJ,FJI,Macuata,Macuata,FJ-07,province,,12.6,,,4,Pacific/Fiji,FALSE,1242000076
Korovou,Korovou,,-17.8046,178.5369,Fiji,FJ,FJI,Tailevu,Tailevu,FJ-14,province,,399.6,,,3,Pacific/Fiji,FALSE,1242010462
Somosomo,Somosomo,,-16.8032,-179.9985,Fiji,FJ,FJI,Cakaudrove,Cakaudrove,FJ-03,province,,137.5,,,3,Pacific/Fiji,FALSE,1242345557
Nasigatoka,Nasigatoka,,-18.0359,178.1422,Fiji,FJ,FJI,Namosi,Namosi,FJ-10,province,,8.0,,,5,Pacific/Fiji,FALSE,1242041526
"Vuniveata Settlement","Vuniveata Settlement",,-16.3165,179.8212,Fiji,FJ,FJI,Cakaudrove,Cakaudrove,FJ-03,province,,13.4,,,4,Pacific/Fiji,FALSE,1242000142
Raksa’a,Raksa'a,Raksawa,-12.5178,177.0582,Fiji,FJ,FJI,Rotuma,Rotuma,FJ-R,dependency,,42.3,,,4,Pacific/Fiji,FALSE,1242179459
"Vatucere Settlement","Vatucere Settlement",,-17.5894,177.9652,Fiji,FJ,FJI,Ba,Ba,FJ-01,province,,6.4,,,5,Pacific/Fiji,FALSE,1242865025
Lomawai,Lomawai,,-18.0295,177.2972,Fiji,FJ,FJI,"Nadroga and Navosa","Nadroga and Navosa",FJ-08,province,,64.1,,,4,Pacific/Fiji,FALSE,1242318450
Korovou,Korovou,,-16.4500,179.1500,Fiji,FJ,FJI,,,,,,17.4,,,4,Pacific/Fiji,FALSE,1242531987
Korovou,Korovou,,-18.0667,178.0333,Fiji,FJ,FJI,,,,,,6.4,,,5,Pacific/Fiji,TRUE,1242515793
Nadakuni,Nadakuni,Nandakura|Nandakuni,-17.9732,178.2949,Fiji,FJ,FJI,Naitasiri,Naitasiri,FJ-09,province,,14.2,,,4,Pacific/Fiji,FALSE,1242811035
Saumakia,Saumakia,,-17.7981,178.2611,Fiji,FJ,FJI,Naitasiri,Naitasiri,FJ-09,province,,28.7,,,4,Pacific/Fiji,FALSE,1242048702
"Vatuulo Settlement","Vatuulo Settlement",Vatuulo,-16.7569,-179.9599,Fiji,FJ,FJI,Cakaudrove,Cakaudrove,FJ-03,province,,44.6,,,4,Pacific/Fiji,FALSE,1242000212
"Wainiveidio Settlement","Wainiveidio Settlement",,-18.2332,178.1726,Fiji,FJ,FJI,Serua,Serua,FJ-13,province,,836.9,,,3,Pacific/Fiji,FALSE,1242992826
Naduru,Naduru,Nanduru,-18.0288,178.5713,Fiji,FJ,FJI,Tailevu,Tailevu,FJ-14,province,,787.7,,,3,Pacific/Fiji,FALSE,1242027791
Muanaira,Muanaira,,-18.0652,178.6558,Fiji,FJ,FJI,Tailevu,Tailevu,FJ-14,province,,61.7,,,4,Pacific/Fiji,FALSE,1242635577
Solevu,Solevu,"Solevu Mission",-17.0000,178.7667,Fiji,FJ,FJI,,,,,,20.9,,,4,Pacific/Fiji,FALSE,1242542189
Muanaira,Muanaira,,-18.1292,178.5354,Fiji,FJ,FJI,Rewa,Rewa,FJ-12,province,,39.6,,,4,Pacific/Fiji,FALSE,1242414902
Kulukulu,Kulukulu,,-18.1668,177.5040,Fiji,FJ,FJI,"Nadroga and Navosa","Nadroga and Navosa",FJ-08,province,,332.6,,,3,Pacific/Fiji,FALSE,1242832091
"Uducau Settlement","Uducau Settlement",,-16.8156,179.9854,Fiji,FJ,FJI,Cakaudrove,Cakaudrove,FJ-03,province,,33.8,,,4,Pacific/Fiji,FALSE,1242000152
Tamavua-i-cake,Tamavua-i-cake,,-18.0869,178.4483,Fiji,FJ,FJI,Naitasiri,Naitasiri,FJ-09,province,,853.2,,,3,Pacific/Fiji,FALSE,1242653036
Tamasua,Tamasua,Tamusua,-16.8411,177.4489,Fiji,FJ,FJI,Ba,Ba,FJ-01,province,,20.5,,,4,Pacific/Fiji,FALSE,1242998732
Qaliira,Qaliira,Thalira|Nggalira|Nggaliira,-19.1411,177.9753,Fiji,FJ,FJI,Kadavu,Kadavu,FJ-04,province,,40.1,,,4,Pacific/Fiji,FALSE,1242448314
Vunivaivai,Vunivaivai,,-18.0404,178.5862,Fiji,FJ,FJI,Tailevu,Tailevu,FJ-14,province,,238.0,,,3,Pacific/Fiji,FALSE,1242597651
Vunaqoru,Vunaqoru,Vunanggoru,-17.9747,177.6459,Fiji,FJ,FJI,"Nadroga and Navosa","Nadroga and Navosa",FJ-08,province,,12.9,,,4,Pacific/Fiji,FALSE,1242574271
"Vio Settlement","Vio Settlement",,-17.6058,177.4333,Fiji,FJ,FJI,Ba,Ba,FJ-01,province,,420.1,,,3,Pacific/Fiji,FALSE,1242681834
"Namunamu Creek","Namunamu Creek",,-17.4756,178.2724,Fiji,FJ,FJI,Ra,Ra,FJ-11,province,,8.4,,,5,Pacific/Fiji,FALSE,1242814381
"Nasau Settlement","Nasau Settlement",,-17.4637,178.9649,Fiji,FJ,FJI,Lomaiviti,Lomaiviti,FJ-06,province,,16.5,,,4,Pacific/Fiji,FALSE,1242000370
"Waitaletale Settlement","Waitaletale Settlement",,-17.8389,179.4370,Fiji,FJ,FJI,Lomaiviti,Lomaiviti,FJ-06,province,,21.1,,,4,Pacific/Fiji,FALSE,1242824362
Bucalevu,Bucalevu,Mbuthalevu,-16.7153,179.4438,Fiji,FJ,FJI,Cakaudrove,Cakaudrove,FJ-03,province,,4.2,,,5,Pacific/Fiji,FALSE,1242434017
Vatukarasa,Vatukarasa,,-17.8301,178.3840,Fiji,FJ,FJI,,,,,,9.7,,,5,Pacific/Fiji,FALSE,1242540434
Nasealevu,Nasealevu,,-16.5597,179.2412,Fiji,FJ,FJI,Macuata,Macuata,FJ-07,province,,7.8,,,5,Pacific/Fiji,FALSE,1242881778
"Naqesa Settlement","Naqesa Settlement",,-18.0928,178.0532,Fiji,FJ,FJI,Serua,Serua,FJ-13,province,,3.6,,,5,Pacific/Fiji,FALSE,1242932757
Naisaumua,Naisaumua,Naisomua|Naisaumbua|Naisumbua,-17.8934,178.5674,Fiji,FJ,FJI,Tailevu,Tailevu,FJ-14,province,,83.7,,,4,Pacific/Fiji,FALSE,1242571817
Namoli,Namoli,,-16.4540,179.4204,Fiji,FJ,FJI,Macuata,Macuata,FJ-07,province,,68.4,,,4,Pacific/Fiji,FALSE,1242209778
Vikoba,Vikoba,"Vikoba Settlement",-18.0823,178.4755,Fiji,FJ,FJI,Naitasiri,Naitasiri,FJ-09,province,,235.8,,,3,Pacific/Fiji,FALSE,1242516059
Namoli,Namoli,,-17.8509,177.8946,Fiji,FJ,FJI,"Nadroga and Navosa","Nadroga and Navosa",FJ-08,province,,4.0,,,5,Pacific/Fiji,FALSE,1242176816
Laucala,Laucala,Lauthala,-18.1465,178.5144,Fiji,FJ,FJI,Rewa,Rewa,FJ-12,province,,41.0,,,4,Pacific/Fiji,FALSE,1242885666
"New Town Settlement","New Town Settlement",,-16.2973,179.7561,Fiji,FJ,FJI,Macuata,Macuata,FJ-07,province,,2.8,,,5,Pacific/Fiji,FALSE,1242000170
"Davoa Settlement","Davoa Settlement",,-16.2983,179.6702,Fiji,FJ,FJI,Macuata,Macuata,FJ-07,province,,2.8,,,5,Pacific/Fiji,FALSE,1242000179
Dakadaka,Dakadaka,,-17.9220,177.3721,Fiji,FJ,FJI,"Nadroga and Navosa","Nadroga and Navosa",FJ-08,province,,17.4,,,4,Pacific/Fiji,FALSE,1242359975
"Waitoa Settlement","Waitoa Settlement",,-17.7353,178.3904,Fiji,FJ,FJI,Tailevu,Tailevu,FJ-14,province,,17.4,,,4,Pacific/Fiji,FALSE,1242343273
"Yagasa Settlement","Yagasa Settlement",,-18.1224,177.3376,Fiji,FJ,FJI,"Nadroga and Navosa","Nadroga and Navosa",FJ-08,province,,91.9,,,4,Pacific/Fiji,FALSE,1242345971
Vatulili,Vatulili,,-17.9462,178.3510,Fiji,FJ,FJI,Naitasiri,Naitasiri,FJ-09,province,,17.1,,,4,Pacific/Fiji,FALSE,1242775073
Ndraunindakua,Ndraunindakua,,-17.7500,178.2167,Fiji,FJ,FJI,,,,,,9.5,,,5,Pacific/Fiji,FALSE,1242880063
Tokala,Tokala,Tokalou,-19.1167,179.7833,Fiji,FJ,FJI,Lau,Lau,FJ-05,province,,15.1,,,4,Pacific/Fiji,FALSE,1242049440
Volivoli,Volivoli,Vutivuti,-18.1575,177.4895,Fiji,FJ,FJI,"Nadroga and Navosa","Nadroga and Navosa",FJ-08,province,,475.8,,,3,Pacific/Fiji,FALSE,1242804542
Nasawana,Nasawana,Nasewana,-16.9228,178.7919,Fiji,FJ,FJI,Bua,Bua,FJ-02,province,,15.0,,,4,Pacific/Fiji,FALSE,1242634556
Navakaka,Navakaka,,-16.7208,179.4700,Fiji,FJ,FJI,Cakaudrove,Cakaudrove,FJ-03,province,,9.3,,,5,Pacific/Fiji,FALSE,1242154391
Nabua,Nabua,Nambua,-16.6910,179.4909,Fiji,FJ,FJI,Cakaudrove,Cakaudrove,FJ-03,province,,4.2,,,5,Pacific/Fiji,FALSE,1242410400
Naivuvuni,Naivuvuni,Nasava|Navuavuni,-17.3755,178.0906,Fiji,FJ,FJI,Ra,Ra,FJ-11,province,,44.7,,,4,Pacific/Fiji,FALSE,1242915173
Naimalavau,Naimalavau,Namalavou,-18.0662,178.6038,Fiji,FJ,FJI,Tailevu,Tailevu,FJ-14,province,,220.0,,,3,Pacific/Fiji,FALSE,1242003580
Vutuna,Vutuna,,-17.8064,179.4302,Fiji,FJ,FJI,Lomaiviti,Lomaiviti,FJ-06,province,,21.1,,,4,Pacific/Fiji,FALSE,1242939979
"Vucinivola Settlement","Vucinivola Settlement",,-17.5495,178.3848,Fiji,FJ,FJI,Ra,Ra,FJ-11,province,,15.6,,,4,Pacific/Fiji,FALSE,1242297138
Dreketilailai,Dreketilailai,Ndreketilailai,-16.4653,179.4648,Fiji,FJ,FJI,Macuata,Macuata,FJ-07,province,,25.9,,,4,Pacific/Fiji,FALSE,1242581431
Veidrala,Veidrala,Veindrala|Vendrala,-17.4818,178.3371,Fiji,FJ,FJI,Ra,Ra,FJ-11,province,,18.0,,,4,Pacific/Fiji,FALSE,1242909234
Korothirithiri,Korothirithiri,,-18.0000,178.5500,Fiji,FJ,FJI,,,,,,131.5,,,4,Pacific/Fiji,FALSE,1242350842
Sanggani,Sanggani,Tangala,-16.4667,179.7167,Fiji,FJ,FJI,,,,,,6.1,,,5,Pacific/Fiji,FALSE,1242866152
