city,city_ascii,city_alt,lat,lng,country,iso2,iso3,admin_name,admin_name_ascii,admin_code,admin_type,capital,density,population,population_proper,ranking,timezone,same_name,id
Helsinki,Helsinki,Yelsinki|Khel’sinki|Helsingfors|Helsinki,60.1708,24.9375,Finland,FI,FIN,Uusimaa,Uusimaa,FI-18,region,primary,3101.0,1360075,664921,1,Europe/Helsinki,FALSE,1246177997
Tampere,Tampere,Tammerfors,61.4981,23.7600,Finland,FI,FIN,Pirkanmaa,Pirkanmaa,FI-11,region,admin,336.2,334112,231853,2,Europe/Helsinki,FALSE,1246964318
Espoo,Espoo,Esbo,60.2056,24.6556,Finland,FI,FIN,Uusimaa,Uusimaa,FI-18,region,minor,1377.7,297132,297132,2,Europe/Helsinki,FALSE,1246357316
Turku,Turku,Åbo,60.4500,22.2667,Finland,FI,FIN,Varsinais-Suomi,Varsinais-Suomi,FI-19,region,admin,785.3,252468,187604,2,Europe/Helsinki,FALSE,1246456609
Vantaa,Vantaa,Vanda,60.2944,25.0403,Finland,FI,FIN,Uusimaa,Uusimaa,FI-18,region,minor,892.9,214605,214605,2,Europe/Helsinki,FALSE,1246957545
Oulu,Oulu,Uleoborg|Uleåborg,65.0142,25.4719,Finland,FI,FIN,Pohjois-Pohjanmaa,Pohjois-Pohjanmaa,FI-14,region,admin,132.5,208939,200526,2,Europe/Helsinki,FALSE,1246093273
Jyväskylä,Jyvaskyla,Yuvyaskyulya,62.2417,25.7417,Finland,FI,FIN,Keski-Suomi,Keski-Suomi,FI-08,region,admin,99.5,145887,145887,2,Europe/Helsinki,FALSE,1246938345
Kuopio,Kuopio,,62.8925,27.6783,Finland,FI,FIN,Pohjois-Savo,Pohjois-Savo,FI-15,region,admin,28.1,121557,121557,2,Europe/Helsinki,FALSE,1246334067
Lahti,Lahti,Lakhti|Lahtis,60.9833,25.6500,Finland,FI,FIN,Päijät-Häme,Paijat-Hame,FI-16,region,admin,2032.0,118119,118119,2,Europe/Helsinki,FALSE,1246538847
Kouvola,Kouvola,,60.8681,26.7042,Finland,FI,FIN,Kymenlaakso,Kymenlaakso,FI-09,region,admin,32.8,85855,85855,2,Europe/Helsinki,FALSE,1246167296
Pori,Pori,Bërneborg|Björneborg,61.4833,21.8000,Finland,FI,FIN,Satakunta,Satakunta,FI-17,region,admin,94.2,85363,85363,2,Europe/Helsinki,FALSE,1246259412
Joensuu,Joensuu,Yoensu,62.6000,29.7500,Finland,FI,FIN,Pohjois-Karjala,Pohjois-Karjala,FI-13,region,admin,31.7,75514,75514,2,Europe/Helsinki,FALSE,1246489056
Lappeenranta,Lappeenranta,Lappenranta|Villmanstrand,61.0667,28.1833,Finland,FI,FIN,Etelä-Karjala,Etela-Karjala,FI-02,region,admin,42.2,72650,72650,2,Europe/Helsinki,FALSE,1246492910
Hämeenlinna,Hameenlinna,Khamenlinna|Tavastehus,60.9944,24.4667,Finland,FI,FIN,Kanta-Häme,Kanta-Hame,FI-06,region,admin,38.5,68011,68011,2,Europe/Helsinki,FALSE,1246026891
Vaasa,Vaasa,Wasa|Vasa|Nikolainkaupunki|Nikolaistad,63.1000,21.6167,Finland,FI,FIN,Pohjanmaa,Pohjanmaa,FI-12,region,admin,321.5,67619,67619,2,Europe/Helsinki,FALSE,1246734710
Seinäjoki,Seinajoki,,62.7917,22.8417,Finland,FI,FIN,Etelä-Pohjanmaa,Etela-Pohjanmaa,FI-03,region,admin,46.8,64150,64150,2,Europe/Helsinki,FALSE,1246118146
Rovaniemi,Rovaniemi,Rovanieni|Ronianemi,66.5000,25.7333,Finland,FI,FIN,Lappi,Lappi,FI-10,region,admin,7.8,62420,62420,2,Europe/Helsinki,FALSE,1246718173
Mikkeli,Mikkeli,"Sankt Michel",61.6890,27.2720,Finland,FI,FIN,Etelä-Savo,Etela-Savo,FI-04,region,admin,80.2,54621,54621,2,Europe/Helsinki,FALSE,1246875185
Salo,Salo,"Salo Kapell",60.3861,23.1250,Finland,FI,FIN,Varsinais-Suomi,Varsinais-Suomi,FI-19,region,minor,26.7,52984,52984,3,Europe/Helsinki,FALSE,1246750581
Kotka,Kotka,Ruotsinsalmi|Svensksund,60.4667,26.9417,Finland,FI,FIN,Kymenlaakso,Kymenlaakso,FI-09,region,minor,183.1,50617,50617,3,Europe/Helsinki,FALSE,1246200320
Porvoo,Porvoo,Borgå|Borgo|Porvo,60.3944,25.6639,Finland,FI,FIN,Uusimaa,Uusimaa,FI-18,region,minor,33.6,49928,49928,3,Europe/Helsinki,FALSE,1246277728
Kokkola,Kokkola,Gamla-Karlabyu|Gamla-Kargabyu|Gamla-Kergabyu|Karleby|Gamlakarleby,63.8367,23.1333,Finland,FI,FIN,Keski-Pohjanmaa,Keski-Pohjanmaa,FI-07,region,admin,33.6,47570,47570,2,Europe/Helsinki,FALSE,1246041998
Lohja,Lohja,Lojo,60.2500,24.0667,Finland,FI,FIN,Uusimaa,Uusimaa,FI-18,region,minor,275.9,46785,46785,3,Europe/Helsinki,FALSE,1246687472
Hyvinkää,Hyvinkaa,Hyvinge,60.6333,24.8500,Finland,FI,FIN,Uusimaa,Uusimaa,FI-18,region,minor,138.8,46739,46739,3,Europe/Helsinki,FALSE,1246789945
Kirkkonummi,Kirkkonummi,Kyrkslätt,60.1167,24.4333,Finland,FI,FIN,Uusimaa,Uusimaa,FI-18,region,minor,111.1,40722,40722,3,Europe/Helsinki,FALSE,1246425379
Järvenpää,Jarvenpaa,Träskända,60.4750,25.0917,Finland,FI,FIN,Uusimaa,Uusimaa,FI-18,region,minor,1068.4,40106,40106,3,Europe/Helsinki,FALSE,1246825863
Rauma,Rauma,Raumo,61.1333,21.5000,Finland,FI,FIN,Satakunta,Satakunta,FI-17,region,minor,160.5,39809,39809,3,Europe/Helsinki,FALSE,1246262958
Tuusula,Tuusula,Thusby|Tusby,60.4333,25.0500,Finland,FI,FIN,Uusimaa,Uusimaa,FI-18,region,minor,171.4,38646,38646,3,Europe/Helsinki,FALSE,1246218223
Kajaani,Kajaani,Kayani|Knyaaani|Kjana|Knyaani|Kajauni|Kajana,64.2311,27.7194,Finland,FI,FIN,Kainuu,Kainuu,FI-05,region,admin,16.0,36297,36297,2,Europe/Helsinki,FALSE,1246377765
Savonlinna,Savonlinna,Nyslott,61.8681,28.8861,Finland,FI,FIN,Etelä-Savo,Etela-Savo,FI-04,region,minor,9.9,35523,35523,3,Europe/Helsinki,FALSE,1246948647
Kerava,Kerava,Kervo,60.4000,25.1000,Finland,FI,FIN,Uusimaa,Uusimaa,FI-18,region,minor,1146.2,35293,35293,3,Europe/Helsinki,FALSE,1246221274
Nokia,Nokia,,61.4767,23.5053,Finland,FI,FIN,Pirkanmaa,Pirkanmaa,FI-11,region,minor,119.7,33322,33322,3,Europe/Helsinki,FALSE,1246560498
Kaarina,Kaarina,"Sankt Karins|Saint Karin",60.4000,22.3667,Finland,FI,FIN,Varsinais-Suomi,Varsinais-Suomi,FI-19,region,minor,184.3,33099,33099,3,Europe/Helsinki,FALSE,1246381646
Ylöjärvi,Ylojarvi,Yläjarvi,61.5500,23.5833,Finland,FI,FIN,Pirkanmaa,Pirkanmaa,FI-11,region,minor,32.0,32738,32738,3,Europe/Helsinki,FALSE,1246651024
Kangasala,Kangasala,,61.4667,24.0667,Finland,FI,FIN,Pirkanmaa,Pirkanmaa,FI-11,region,minor,37.0,32229,32229,3,Europe/Helsinki,FALSE,1246606231
"Jyväskylän Maalaiskunta","Jyvaskylan Maalaiskunta",,62.2889,25.7417,Finland,FI,FIN,Keski-Suomi,Keski-Suomi,FI-08,region,,59.6,31870,31870,3,Europe/Helsinki,FALSE,1246861694
Riihimäki,Riihimaki,,60.7333,24.7667,Finland,FI,FIN,Kanta-Häme,Kanta-Hame,FI-06,region,minor,256.2,29269,29269,3,Europe/Helsinki,FALSE,1246263977
Raseborg,Raseborg,Raasepori,59.9750,23.4333,Finland,FI,FIN,Uusimaa,Uusimaa,FI-18,region,minor,12.1,28405,28405,3,Europe/Helsinki,FALSE,1246414831
Imatra,Imatra,,61.1833,28.7667,Finland,FI,FIN,Etelä-Karjala,Etela-Karjala,FI-02,region,minor,165.5,25655,25655,3,Europe/Helsinki,FALSE,1246114111
Sastamala,Sastamala,,61.3417,22.9083,Finland,FI,FIN,Pirkanmaa,Pirkanmaa,FI-11,region,minor,16.5,25220,25220,3,Europe/Helsinki,FALSE,1246526086
Raahe,Raahe,Rakhe|Brahestad,64.6833,24.4667,Finland,FI,FIN,Pohjois-Pohjanmaa,Pohjois-Pohjanmaa,FI-14,region,minor,41.8,25165,25165,3,Europe/Helsinki,FALSE,1246712185
Raisio,Raisio,Reso,60.4858,22.1692,Finland,FI,FIN,Varsinais-Suomi,Varsinais-Suomi,FI-19,region,minor,498.2,24290,24290,3,Europe/Helsinki,FALSE,1246206941
Hollola,Hollola,,60.9867,25.5167,Finland,FI,FIN,Päijät-Häme,Paijat-Hame,FI-16,region,minor,35.2,22943,22943,3,Europe/Helsinki,FALSE,1246266596
Lempäälä,Lempaala,,61.3167,23.7500,Finland,FI,FIN,Pirkanmaa,Pirkanmaa,FI-11,region,minor,96.6,22536,22536,3,Europe/Helsinki,FALSE,1246708138
Tornio,Tornio,Torneå,65.8500,24.1500,Finland,FI,FIN,Lappi,Lappi,FI-10,region,minor,18.5,21928,21928,3,Europe/Helsinki,FALSE,1246209112
Siilinjärvi,Siilinjarvi,,63.0750,27.6600,Finland,FI,FIN,Pohjois-Savo,Pohjois-Savo,FI-15,region,minor,54.8,21794,21794,3,Europe/Helsinki,FALSE,1246336548
Kurikka,Kurikka,,62.6167,22.4000,Finland,FI,FIN,Etelä-Pohjanmaa,Etela-Pohjanmaa,FI-03,region,minor,12.6,21734,21734,3,Europe/Helsinki,FALSE,1246688374
Iisalmi,Iisalmi,Idensalmi|Isal’mi,63.5567,27.1883,Finland,FI,FIN,Pohjois-Savo,Pohjois-Savo,FI-15,region,minor,28.7,21639,21639,3,Europe/Helsinki,FALSE,1246230947
Varkaus,Varkaus,,62.3167,27.8917,Finland,FI,FIN,Pohjois-Savo,Pohjois-Savo,FI-15,region,minor,152.3,21155,21155,3,Europe/Helsinki,FALSE,1246449573
Klaukkala,Klaukkala,,60.3820,24.7492,Finland,FI,FIN,Uusimaa,Uusimaa,FI-18,region,,4.8,21019,21019,3,Europe/Helsinki,FALSE,1246435222
Valkeakoski,Valkeakoski,,61.2667,24.0333,Finland,FI,FIN,Pirkanmaa,Pirkanmaa,FI-11,region,minor,55.9,20800,20800,3,Europe/Helsinki,FALSE,1246028934
Mäntsälä,Mantsala,,60.6331,25.3167,Finland,FI,FIN,Uusimaa,Uusimaa,FI-18,region,minor,40.3,20685,20685,3,Europe/Helsinki,FALSE,1246340286
Äänekoski,Aanekoski,,62.6000,25.7250,Finland,FI,FIN,Keski-Suomi,Keski-Suomi,FI-08,region,minor,22.1,19919,19919,3,Europe/Helsinki,FALSE,1246710490
Hamina,Hamina,Fredrikshamn|Khamina,60.5667,27.2000,Finland,FI,FIN,Kymenlaakso,Kymenlaakso,FI-09,region,minor,17.2,19877,19877,3,Europe/Helsinki,FALSE,1246729258
Kuusankoski,Kuusankoski,,60.9083,26.6236,Finland,FI,FIN,Kymenlaakso,Kymenlaakso,FI-09,region,,32.8,19831,19831,3,Europe/Helsinki,FALSE,1246302102
Korsholm,Korsholm,Mustasaari,63.1125,21.6778,Finland,FI,FIN,Pohjanmaa,Pohjanmaa,FI-12,region,minor,6.2,19662,19662,3,Europe/Helsinki,FALSE,1246225569
Lieto,Lieto,Lundo,60.5050,22.4583,Finland,FI,FIN,Varsinais-Suomi,Varsinais-Suomi,FI-19,region,minor,64.8,19596,19596,3,Europe/Helsinki,FALSE,1246293271
Heinola,Heinola,Kheynola,61.2000,26.0333,Finland,FI,FIN,Päijät-Häme,Paijat-Hame,FI-16,region,minor,23.3,19575,19575,3,Europe/Helsinki,FALSE,1246846423
Kemi,Kemi,,65.7361,24.5636,Finland,FI,FIN,Lappi,Lappi,FI-10,region,minor,26.0,19437,19437,3,Europe/Helsinki,FALSE,1246411843
Sipoo,Sipoo,Sibbo|Sibbå,60.3750,25.2667,Finland,FI,FIN,Uusimaa,Uusimaa,FI-18,region,minor,27.8,19399,19399,3,Europe/Helsinki,FALSE,1246836049
Jämsä,Jamsa,Yamsya,61.8667,25.1833,Finland,FI,FIN,Keski-Suomi,Keski-Suomi,FI-08,region,minor,10.6,19347,19347,3,Europe/Helsinki,FALSE,1246902464
Jakobstad,Jakobstad,Yakobstad|Pietarsari|Pietasaari|Pietarsaari,63.6667,22.7000,Finland,FI,FIN,Pohjanmaa,Pohjanmaa,FI-12,region,minor,217.0,19207,19207,3,Europe/Helsinki,FALSE,1246775062
Naantali,Naantali,Nodendal’|Nantali|Nådendal,60.4667,22.0333,Finland,FI,FIN,Varsinais-Suomi,Varsinais-Suomi,FI-19,region,minor,61.3,19167,19167,3,Europe/Helsinki,FALSE,1246881232
Haukipudas,Haukipudas,Khaukipudas,65.1833,25.3500,Finland,FI,FIN,Pohjois-Pohjanmaa,Pohjois-Pohjanmaa,FI-14,region,,18.6,18994,18994,3,Europe/Helsinki,FALSE,1246294051
Laukaa,Laukaa,,62.4167,25.9500,Finland,FI,FIN,Keski-Suomi,Keski-Suomi,FI-08,region,minor,30.7,18978,18978,3,Europe/Helsinki,FALSE,1246056174
Pirkkala,Pirkkala,,61.4667,23.6500,Finland,FI,FIN,Pirkanmaa,Pirkanmaa,FI-11,region,minor,258.9,18913,18913,3,Europe/Helsinki,FALSE,1246586300
Pieksämäki,Pieksamaki,Pieksämä|Pieksyamyaki|Pieksämä,62.3003,27.1642,Finland,FI,FIN,Etelä-Savo,Etela-Savo,FI-04,region,minor,9.9,18220,18220,3,Europe/Helsinki,FALSE,1246171745
Kempele,Kempele,Kempelen,64.9125,25.5083,Finland,FI,FIN,Pohjois-Pohjanmaa,Pohjois-Pohjanmaa,FI-14,region,minor,163.2,17535,17535,3,Europe/Helsinki,FALSE,1246739287
Forssa,Forssa,,60.8167,23.6250,Finland,FI,FIN,Kanta-Häme,Kanta-Hame,FI-06,region,minor,68.4,17185,17185,3,Europe/Helsinki,FALSE,1246156595
Janakkala,Janakkala,,60.9167,24.6500,Finland,FI,FIN,Kanta-Häme,Kanta-Hame,FI-06,region,minor,30.2,16853,16853,3,Europe/Helsinki,FALSE,1246767263
Kauhava,Kauhava,Kaukhava,63.1000,23.0667,Finland,FI,FIN,Etelä-Pohjanmaa,Etela-Pohjanmaa,FI-03,region,minor,12.6,16784,16784,3,Europe/Helsinki,FALSE,1246180633
Orimattila,Orimattila,,60.8042,25.7333,Finland,FI,FIN,Päijät-Häme,Paijat-Hame,FI-16,region,minor,19.9,16221,16221,3,Europe/Helsinki,FALSE,1246385500
Pielisjärvi,Pielisjarvi,,63.3000,30.0500,Finland,FI,FIN,Pohjois-Karjala,Pohjois-Karjala,FI-13,region,,4.7,16150,16150,3,Europe/Helsinki,FALSE,1246863535
Loimaa,Loimaa,Loimijoki,60.8500,23.0583,Finland,FI,FIN,Varsinais-Suomi,Varsinais-Suomi,FI-19,region,minor,19.0,16150,16150,3,Europe/Helsinki,FALSE,1246923432
Uusikaupunki,Uusikaupunki,Usikaupunki|Nyustad|Nystad,60.8000,21.4167,Finland,FI,FIN,Varsinais-Suomi,Varsinais-Suomi,FI-19,region,minor,11.0,15752,15752,3,Europe/Helsinki,FALSE,1246110587
Sippola,Sippola,,60.7392,27.0003,Finland,FI,FIN,Kymenlaakso,Kymenlaakso,FI-09,region,,26.9,15278,15278,3,Europe/Helsinki,FALSE,1246444349
Vammala,Vammala,,61.3417,22.9083,Finland,FI,FIN,Pirkanmaa,Pirkanmaa,FI-11,region,,17.4,15213,15213,3,Europe/Helsinki,FALSE,1246493883
Kontiolahti,Kontiolahti,,62.7667,29.8500,Finland,FI,FIN,Pohjois-Karjala,Pohjois-Karjala,FI-13,region,minor,14.7,15157,15157,3,Europe/Helsinki,FALSE,1246150764
Kuusamo,Kuusamo,,65.9667,29.1833,Finland,FI,FIN,Pohjois-Pohjanmaa,Pohjois-Pohjanmaa,FI-14,region,minor,2.9,15146,15146,3,Europe/Helsinki,FALSE,1246292850
Pargas,Pargas,Parainen,60.3000,22.3000,Finland,FI,FIN,Varsinais-Suomi,Varsinais-Suomi,FI-19,region,minor,3.2,15132,15132,3,Europe/Helsinki,FALSE,1246990890
Ylivieska,Ylivieska,,64.0750,24.5333,Finland,FI,FIN,Pohjois-Pohjanmaa,Pohjois-Pohjanmaa,FI-14,region,minor,26.2,15039,15039,3,Europe/Helsinki,FALSE,1246367983
Nastola,Nastola,,60.9500,25.9333,Finland,FI,FIN,Päijät-Häme,Paijat-Hame,FI-16,region,,38.9,14890,14890,3,Europe/Helsinki,FALSE,1246731228
Lapua,Lapua,Lappo,62.9700,23.0083,Finland,FI,FIN,Etelä-Pohjanmaa,Etela-Pohjanmaa,FI-03,region,minor,19.5,14609,14609,3,Europe/Helsinki,FALSE,1246396654
Loviisa,Loviisa,Loviza|Lovisa,60.4583,26.2333,Finland,FI,FIN,Uusimaa,Uusimaa,FI-18,region,minor,17.8,14557,14557,3,Europe/Helsinki,FALSE,1246944790
Kauhajoki,Kauhajoki,Kaukha-Yoki,62.4319,22.1794,Finland,FI,FIN,Etelä-Pohjanmaa,Etela-Pohjanmaa,FI-03,region,minor,10.3,13610,13610,3,Europe/Helsinki,FALSE,1246101648
Kiiminki,Kiiminki,,65.1333,25.7750,Finland,FI,FIN,Pohjois-Pohjanmaa,Pohjois-Pohjanmaa,FI-14,region,,39.3,13320,13320,3,Europe/Helsinki,FALSE,1246609687
Ulvila,Ulvila,Ulfsbyu|Ulfsby|Ulvsby,61.4333,21.9000,Finland,FI,FIN,Satakunta,Satakunta,FI-17,region,minor,33.0,13237,13237,3,Europe/Helsinki,FALSE,1246357042
Ilmajoki,Ilmajoki,,62.7333,22.5833,Finland,FI,FIN,Etelä-Pohjanmaa,Etela-Pohjanmaa,FI-03,region,minor,21.4,12369,12369,3,Europe/Helsinki,FALSE,1246721686
Kalajoki,Kalajoki,,64.2667,23.9500,Finland,FI,FIN,Pohjois-Pohjanmaa,Pohjois-Pohjanmaa,FI-14,region,minor,13.3,12335,12335,3,Europe/Helsinki,FALSE,1246746115
Liperi,Liperi,Libelits,62.5333,29.3833,Finland,FI,FIN,Pohjois-Karjala,Pohjois-Karjala,FI-13,region,minor,28.0,12150,12150,3,Europe/Helsinki,FALSE,1246184654
Eura,Eura,,61.1333,22.1333,Finland,FI,FIN,Satakunta,Satakunta,FI-17,region,minor,21.2,12128,12128,3,Europe/Helsinki,FALSE,1246784292
Alavus,Alavus,Alavo,62.5917,23.6167,Finland,FI,FIN,Etelä-Pohjanmaa,Etela-Pohjanmaa,FI-03,region,minor,11.1,12044,12044,3,Europe/Helsinki,FALSE,1246444159
"Mikkelin Maalaiskunta","Mikkelin Maalaiskunta",,61.6776,27.2021,Finland,FI,FIN,Etelä-Savo,Etela-Savo,FI-04,region,,12.3,11988,11988,3,Europe/Helsinki,FALSE,1246254997
Vehkalahti,Vehkalahti,,60.5756,27.1439,Finland,FI,FIN,Kymenlaakso,Kymenlaakso,FI-09,region,,32.7,11922,11922,3,Europe/Helsinki,FALSE,1246542463
Kankaanpää,Kankaanpaa,,61.8000,22.4000,Finland,FI,FIN,Satakunta,Satakunta,FI-17,region,minor,15.9,11769,11769,3,Europe/Helsinki,FALSE,1246054276
Sääminki,Saaminki,Sääminge,61.8675,28.8786,Finland,FI,FIN,Etelä-Savo,Etela-Savo,FI-04,region,,1.2,11710,11710,3,Europe/Helsinki,FALSE,1246566624
Mariehamn,Mariehamn,Mariyekhamn|Mariankhamina|Marianhamina|Mariehameena|Marrianhamina|Maarianhamina,60.1000,19.9333,Finland,FI,FIN,Åland,Aland,FI-01,region,admin,552.1,11461,11461,2,Europe/Mariehamn,FALSE,1246614476
Lieksa,Lieksa,,63.3167,30.0167,Finland,FI,FIN,Pohjois-Karjala,Pohjois-Karjala,FI-13,region,minor,3.1,11297,11297,3,Europe/Helsinki,FALSE,1246128959
Valkeala,Valkeala,,60.9389,26.7972,Finland,FI,FIN,Kymenlaakso,Kymenlaakso,FI-09,region,,11.2,11195,11195,3,Europe/Helsinki,FALSE,1246894132
Pedersöre,Pedersore,"Pedersören Kunta|Pietarsaari|Pietarsaaren Pitäjä",63.6642,22.7006,Finland,FI,FIN,Pohjanmaa,Pohjanmaa,FI-12,region,,348.7,11084,11084,3,Europe/Helsinki,FALSE,1246231936
Nivala,Nivala,,63.9250,24.9750,Finland,FI,FIN,Pohjois-Pohjanmaa,Pohjois-Pohjanmaa,FI-14,region,minor,20.3,10876,10876,3,Europe/Helsinki,FALSE,1246609695
Nurmo,Nurmo,,62.8278,22.9083,Finland,FI,FIN,Etelä-Pohjanmaa,Etela-Pohjanmaa,FI-03,region,,29.8,10785,10785,3,Europe/Helsinki,FALSE,1246405413
Kivistö,Kivisto,,60.3236,24.8453,Finland,FI,FIN,Uusimaa,Uusimaa,FI-18,region,,243.5,10665,10665,3,Europe/Helsinki,FALSE,1246650293
Joutseno,Joutseno,,61.1230,28.5015,Finland,FI,FIN,Etelä-Karjala,Etela-Karjala,FI-02,region,,34.3,10659,10659,3,Europe/Helsinki,FALSE,1246814717
Paimio,Paimio,Pemar,60.4500,22.7000,Finland,FI,FIN,Varsinais-Suomi,Varsinais-Suomi,FI-19,region,minor,44.5,10620,10620,3,Europe/Helsinki,FALSE,1246967951
Sotkamo,Sotkamo,,64.1333,28.3833,Finland,FI,FIN,Kainuu,Kainuu,FI-05,region,minor,3.5,10423,10423,3,Europe/Helsinki,FALSE,1246600504
Hämeenkyrö,Hameenkyro,,61.6333,23.2000,Finland,FI,FIN,Pirkanmaa,Pirkanmaa,FI-11,region,minor,22.1,10257,10257,3,Europe/Helsinki,FALSE,1246915870
Huittinen,Huittinen,,61.1750,22.7000,Finland,FI,FIN,Satakunta,Satakunta,FI-17,region,minor,18.9,10207,10207,3,Europe/Helsinki,FALSE,1246269907
Liminka,Liminka,Limingo,64.8083,25.4167,Finland,FI,FIN,Pohjois-Pohjanmaa,Pohjois-Pohjanmaa,FI-14,region,minor,18.7,10133,10133,3,Europe/Helsinki,FALSE,1246654014
Muurame,Muurame,,62.1333,25.6750,Finland,FI,FIN,Keski-Suomi,Keski-Suomi,FI-08,region,minor,52.0,10097,10097,3,Europe/Helsinki,FALSE,1246611594
Alajärvi,Alajarvi,Alayarvi,63.0000,23.8167,Finland,FI,FIN,Etelä-Pohjanmaa,Etela-Pohjanmaa,FI-03,region,minor,9.9,10006,10006,3,Europe/Helsinki,FALSE,1246799974
Lapinlahti,Lapinlahti,,63.3667,27.3833,Finland,FI,FIN,Pohjois-Savo,Pohjois-Savo,FI-15,region,minor,8.0,9982,9982,3,Europe/Helsinki,FALSE,1246095473
Leppävirta,Leppavirta,,62.5000,27.7833,Finland,FI,FIN,Pohjois-Savo,Pohjois-Savo,FI-15,region,minor,8.0,9953,9953,3,Europe/Helsinki,FALSE,1246237547
Saarijärvi,Saarijarvi,Sariyarvi|Saaijärvi,62.7050,25.2583,Finland,FI,FIN,Keski-Suomi,Keski-Suomi,FI-08,region,minor,7.0,9915,9915,3,Europe/Helsinki,FALSE,1246361506
Ii,Ii,Iio,65.3167,25.3667,Finland,FI,FIN,Pohjois-Pohjanmaa,Pohjois-Pohjanmaa,FI-14,region,minor,3.4,9853,9853,3,Europe/Helsinki,FALSE,1246489328
Oulunsalo,Oulunsalo,Uleåsalö,64.9333,25.4167,Finland,FI,FIN,Pohjois-Pohjanmaa,Pohjois-Pohjanmaa,FI-14,region,,46.1,9771,9771,3,Europe/Helsinki,FALSE,1246091710
Kitee,Kitee,,62.1000,30.1333,Finland,FI,FIN,Pohjois-Karjala,Pohjois-Karjala,FI-13,region,minor,7.8,9727,9727,3,Europe/Helsinki,FALSE,1246458844
Masku,Masku,,60.5667,22.1000,Finland,FI,FIN,Varsinais-Suomi,Varsinais-Suomi,FI-19,region,minor,47.3,9656,9656,3,Europe/Helsinki,FALSE,1246315542
Kauniainen,Kauniainen,Grankulla|Rauniainen,60.2167,24.7333,Finland,FI,FIN,Uusimaa,Uusimaa,FI-18,region,minor,1634.0,9624,9624,3,Europe/Helsinki,FALSE,1246749773
Eurajoki,Eurajoki,Euraåminne,61.2000,21.7333,Finland,FI,FIN,Satakunta,Satakunta,FI-17,region,minor,14.8,9521,9521,3,Europe/Helsinki,FALSE,1246054353
Orivesi,Orivesi,Orihvesi,61.6750,24.3583,Finland,FI,FIN,Pirkanmaa,Pirkanmaa,FI-11,region,minor,11.8,9408,9408,3,Europe/Helsinki,FALSE,1246191762
Närpes,Narpes,Närpiö|Nerpes,62.4667,21.3333,Finland,FI,FIN,Pohjanmaa,Pohjanmaa,FI-12,region,minor,4.0,9387,9387,3,Europe/Helsinki,FALSE,1246805566
Hattula,Hattula,,61.0500,24.3667,Finland,FI,FIN,Kanta-Häme,Kanta-Hame,FI-06,region,,21.9,9359,9359,3,Europe/Helsinki,FALSE,1246551746
Keuruu,Keuruu,Keuru,62.2583,24.7083,Finland,FI,FIN,Keski-Suomi,Keski-Suomi,FI-08,region,minor,7.7,9250,9250,3,Europe/Helsinki,FALSE,1246102142
Muhos,Muhos,,64.8000,26.0000,Finland,FI,FIN,Pohjois-Pohjanmaa,Pohjois-Pohjanmaa,FI-14,region,minor,11.6,9019,9019,3,Europe/Helsinki,FALSE,1246245450
Somero,Somero,,60.6333,23.5167,Finland,FI,FIN,Varsinais-Suomi,Varsinais-Suomi,FI-19,region,minor,13.4,8919,8919,3,Europe/Helsinki,FALSE,1246015002
Halikko,Halikko,,60.3972,23.0778,Finland,FI,FIN,Varsinais-Suomi,Varsinais-Suomi,FI-19,region,,24.9,8879,8879,3,Europe/Helsinki,FALSE,1246263188
Karis,Karis,Karja|Karjaa,60.0708,23.6625,Finland,FI,FIN,Uusimaa,Uusimaa,FI-18,region,,40.9,8787,8787,3,Europe/Helsinki,FALSE,1246155619
Sodankylä,Sodankyla,Sodankyulya,67.4167,26.5833,Finland,FI,FIN,Lappi,Lappi,FI-10,region,minor,0.8,8782,8545,3,Europe/Helsinki,FALSE,1246413171
Karkkila,Karkkila,,60.5333,24.2167,Finland,FI,FIN,Uusimaa,Uusimaa,FI-18,region,minor,35.0,8603,8603,3,Europe/Helsinki,FALSE,1246261386
Pöytyä,Poytya,,60.7167,22.6000,Finland,FI,FIN,Varsinais-Suomi,Varsinais-Suomi,FI-19,region,,11.4,8562,8562,3,Europe/Helsinki,FALSE,1246790283
Laitila,Laitila,Letala,60.8833,21.7000,Finland,FI,FIN,Varsinais-Suomi,Varsinais-Suomi,FI-19,region,minor,15.6,8520,8520,3,Europe/Helsinki,FALSE,1246064059
Hanko,Hanko,Hangö|Khanko|Hangonkylä,59.8283,22.9658,Finland,FI,FIN,Uusimaa,Uusimaa,FI-18,region,minor,73.1,8517,8517,3,Europe/Helsinki,FALSE,1246686751
Hausjärvi,Hausjarvi,,60.7867,25.0250,Finland,FI,FIN,Kanta-Häme,Kanta-Hame,FI-06,region,minor,21.3,8504,8504,3,Europe/Helsinki,FALSE,1246683126
Keminmaa,Keminmaa,Kemi,65.8000,24.5500,Finland,FI,FIN,Lappi,Lappi,FI-10,region,minor,13.9,8388,8388,3,Europe/Helsinki,FALSE,1246252935
Asikkala,Asikkala,,61.1722,25.5472,Finland,FI,FIN,Päijät-Häme,Paijat-Hame,FI-16,region,,14.4,8287,8248,4,Europe/Helsinki,FALSE,1246486812
Elimäki,Elimaki,Elimä,60.7167,26.4500,Finland,FI,FIN,Kymenlaakso,Kymenlaakso,FI-09,region,,20.9,8264,8264,3,Europe/Helsinki,FALSE,1246256619
Pudasjärvi,Pudasjarvi,,65.3583,27.0000,Finland,FI,FIN,Pohjois-Pohjanmaa,Pohjois-Pohjanmaa,FI-14,region,minor,1.4,8257,8257,3,Europe/Helsinki,FALSE,1246520515
Loppi,Loppi,,60.7167,24.4417,Finland,FI,FIN,Kanta-Häme,Kanta-Hame,FI-06,region,minor,13.3,8175,8175,3,Europe/Helsinki,FALSE,1246385069
Laihia,Laihia,Laihela,62.9750,22.0083,Finland,FI,FIN,Pohjanmaa,Pohjanmaa,FI-12,region,minor,15.9,8090,8090,3,Europe/Helsinki,FALSE,1246333850
Toijala,Toijala,Akaa,61.1667,23.8667,Finland,FI,FIN,Pirkanmaa,Pirkanmaa,FI-11,region,minor,59.3,8060,8060,3,Europe/Helsinki,FALSE,1246702356
Suomussalmi,Suomussalmi,,64.8833,28.9167,Finland,FI,FIN,Kainuu,Kainuu,FI-05,region,minor,1.4,8051,8051,3,Europe/Helsinki,FALSE,1246690832
Nurmes,Nurmes,,63.5450,29.1333,Finland,FI,FIN,Pohjois-Karjala,Pohjois-Karjala,FI-13,region,minor,4.9,7996,7996,3,Europe/Helsinki,FALSE,1246620108
Jalasjärvi,Jalasjarvi,Yalas’yarvi,62.4917,22.7667,Finland,FI,FIN,Etelä-Pohjanmaa,Etela-Pohjanmaa,FI-03,region,minor,9.4,7885,7885,3,Europe/Helsinki,FALSE,1246691218
Nurmijärvi,Nurmijarvi,,60.4667,24.8083,Finland,FI,FIN,Uusimaa,Uusimaa,FI-18,region,minor,121.2,7841,7841,3,Europe/Helsinki,FALSE,1246678771
Mynämäki,Mynamaki,Virmo,60.6833,21.9833,Finland,FI,FIN,Varsinais-Suomi,Varsinais-Suomi,FI-19,region,minor,14.6,7838,7838,3,Europe/Helsinki,FALSE,1246187501
Kuhmo,Kuhmo,Kuhmoniemi,64.1250,29.5167,Finland,FI,FIN,Kainuu,Kainuu,FI-05,region,minor,1.6,7755,7755,3,Europe/Helsinki,FALSE,1246485252
Oulainen,Oulainen,,64.2667,24.8167,Finland,FI,FIN,Pohjois-Pohjanmaa,Pohjois-Pohjanmaa,FI-14,region,minor,12.9,7610,7610,3,Europe/Helsinki,FALSE,1246331534
Kiuruvesi,Kiuruvesi,,63.6500,26.6167,Finland,FI,FIN,Pohjois-Savo,Pohjois-Savo,FI-15,region,minor,5.3,7597,7597,3,Europe/Helsinki,FALSE,1246969515
Kokemäki,Kokemaki,Kumo,61.2583,22.3500,Finland,FI,FIN,Satakunta,Satakunta,FI-17,region,minor,15.7,7591,7591,3,Europe/Helsinki,FALSE,1246209483
Virkkala,Virkkala,Virkby,60.2000,24.0000,Finland,FI,FIN,Uusimaa,Uusimaa,FI-18,region,,2.2,7536,7536,4,Europe/Helsinki,FALSE,1246088227
Kemijärvi,Kemijarvi,,66.7167,27.4333,Finland,FI,FIN,Lappi,Lappi,FI-10,region,minor,1.9,7534,7534,3,Europe/Helsinki,FALSE,1246358285
Nykarleby,Nykarleby,Uusikaarlepyy|Nyukarlebyu|Usikarlepyu,63.5167,22.5333,Finland,FI,FIN,Pohjanmaa,Pohjanmaa,FI-12,region,minor,8.0,7521,7521,3,Europe/Helsinki,FALSE,1246463530
Rajamäki,Rajamaki,,60.5250,24.7614,Finland,FI,FIN,Uusimaa,Uusimaa,FI-18,region,,121.2,7415,7415,3,Europe/Helsinki,FALSE,1246124110
Jämsänkoski,Jamsankoski,,61.9181,25.1708,Finland,FI,FIN,Keski-Suomi,Keski-Suomi,FI-08,region,,16.4,7351,7351,3,Europe/Helsinki,FALSE,1246539948
Tyrvää,Tyrvaa,,61.3474,22.9014,Finland,FI,FIN,Pirkanmaa,Pirkanmaa,FI-11,region,,18.2,7306,7306,3,Europe/Helsinki,FALSE,1246511111
Pyhäselkä,Pyhaselka,,62.4333,29.9694,Finland,FI,FIN,Pohjois-Karjala,Pohjois-Karjala,FI-13,region,,20.5,7208,7208,3,Europe/Helsinki,FALSE,1246783602
Ikaalinen,Ikaalinen,,61.7667,23.0667,Finland,FI,FIN,Pirkanmaa,Pirkanmaa,FI-11,region,minor,9.6,7207,7207,3,Europe/Helsinki,FALSE,1246676169
Outokumpu,Outokumpu,Outakumpy,62.7250,29.0167,Finland,FI,FIN,Pohjois-Karjala,Pohjois-Karjala,FI-13,region,minor,15.8,7139,7139,3,Europe/Helsinki,FALSE,1246024227
Säkylä,Sakyla,,61.0500,22.3500,Finland,FI,FIN,Satakunta,Satakunta,FI-17,region,minor,13.4,7070,7070,3,Europe/Helsinki,FALSE,1246516919
Suonenjoki,Suonenjoki,Suomenjoki,62.6250,27.1250,Finland,FI,FIN,Pohjois-Savo,Pohjois-Savo,FI-15,region,minor,8.0,6891,6891,3,Europe/Helsinki,FALSE,1246784846
Virrat,Virrat,Virdois|Virtois|Wirrat,62.2500,23.7667,Finland,FI,FIN,Pirkanmaa,Pirkanmaa,FI-11,region,minor,5.3,6844,6844,3,Europe/Helsinki,FALSE,1246625508
Inari,Inari,Anár|Aanaar|Aanar|Enare,68.9050,27.0303,Finland,FI,FIN,Lappi,Lappi,FI-10,region,minor,0.5,6804,6804,3,Europe/Helsinki,FALSE,1246162558
Tyrnävä,Tyrnava,,64.7500,25.6500,Finland,FI,FIN,Pohjois-Pohjanmaa,Pohjois-Pohjanmaa,FI-14,region,minor,16.2,6793,6793,3,Europe/Helsinki,FALSE,1246000353
Parkano,Parkano,,62.0083,23.0250,Finland,FI,FIN,Pirkanmaa,Pirkanmaa,FI-11,region,minor,7.5,6766,6766,3,Europe/Helsinki,FALSE,1246564244
Harjavalta,Harjavalta,,61.3167,22.1336,Finland,FI,FIN,Satakunta,Satakunta,FI-17,region,minor,57.9,6753,6753,3,Europe/Helsinki,FALSE,1246726451
Vörå,Vora,Vöyri,63.1333,22.2500,Finland,FI,FIN,Pohjanmaa,Pohjanmaa,FI-12,region,minor,4.5,6714,6714,3,Europe/Helsinki,FALSE,1246308362
Haapajärvi,Haapajarvi,Haapavesi|Khapayarvi,63.7500,25.3167,Finland,FI,FIN,Pohjois-Pohjanmaa,Pohjois-Pohjanmaa,FI-14,region,minor,10.3,6687,6687,3,Europe/Helsinki,FALSE,1246579975
Eno,Eno,,62.8000,30.1500,Finland,FI,FIN,Pohjois-Karjala,Pohjois-Karjala,FI-13,region,,6.1,6653,6653,3,Europe/Helsinki,FALSE,1246865362
Vanaja,Vanaja,,61.0036,24.4694,Finland,FI,FIN,Kanta-Häme,Kanta-Hame,FI-06,region,,22.1,6636,6636,3,Europe/Helsinki,FALSE,1246361946
Haapavesi,Haapavesi,,64.1417,25.3667,Finland,FI,FIN,Pohjois-Pohjanmaa,Pohjois-Pohjanmaa,FI-14,region,minor,6.1,6591,6591,3,Europe/Helsinki,FALSE,1246025135
Jokela,Jokela,,60.5528,24.9664,Finland,FI,FIN,Uusimaa,Uusimaa,FI-18,region,,183.3,6574,6574,3,Europe/Helsinki,FALSE,1246651165
Pälkäne,Palkane,,61.3383,24.2667,Finland,FI,FIN,Pirkanmaa,Pirkanmaa,FI-11,region,minor,8.9,6567,6567,3,Europe/Helsinki,FALSE,1246925973
Piikkiö,Piikkio,Piikkis,60.4250,22.5167,Finland,FI,FIN,Varsinais-Suomi,Varsinais-Suomi,FI-19,region,,72.2,6505,6505,3,Europe/Helsinki,FALSE,1246908620
Iitti,Iitti,,60.8833,26.3333,Finland,FI,FIN,Päijät-Häme,Paijat-Hame,FI-16,region,minor,11.0,6504,6504,3,Europe/Helsinki,FALSE,1246271380
Nilsiä,Nilsia,,63.2050,28.0833,Finland,FI,FIN,Pohjois-Savo,Pohjois-Savo,FI-15,region,,7.7,6499,6499,3,Europe/Helsinki,FALSE,1246715775
Kittilä,Kittila,,67.6500,24.9083,Finland,FI,FIN,Lappi,Lappi,FI-10,region,minor,0.9,6421,6421,3,Europe/Helsinki,FALSE,1246795721
Viitasaari,Viitasaari,,63.0750,25.8597,Finland,FI,FIN,Keski-Suomi,Keski-Suomi,FI-08,region,minor,5.1,6411,6411,3,Europe/Helsinki,FALSE,1246824064
Kronoby,Kronoby,Kruununkylä|Kronobyu|Kruunupyy,63.7250,23.0333,Finland,FI,FIN,Pohjanmaa,Pohjanmaa,FI-12,region,minor,9.1,6405,6405,3,Europe/Helsinki,FALSE,1246844491
Mänttä,Mantta,,62.0292,24.6236,Finland,FI,FIN,Pirkanmaa,Pirkanmaa,FI-11,region,minor,18.2,6341,6341,3,Europe/Helsinki,FALSE,1246250046
Kristinestad,Kristinestad,Kristiinankaupunki|Kristiina,62.2667,21.3500,Finland,FI,FIN,Pohjanmaa,Pohjanmaa,FI-12,region,minor,6.3,6242,6242,3,Europe/Helsinki,FALSE,1246079000
Siuntio,Siuntio,Sjundeå|Siunlia,60.1333,24.2167,Finland,FI,FIN,Uusimaa,Uusimaa,FI-18,region,minor,23.2,6182,6182,3,Europe/Helsinki,FALSE,1246378314
Mäntyharju,Mantyharju,Mäntyharja,61.4167,26.8833,Finland,FI,FIN,Etelä-Savo,Etela-Savo,FI-04,region,minor,6.0,6159,6159,3,Europe/Helsinki,FALSE,1246468846
Tammela,Tammela,,60.8000,23.7667,Finland,FI,FIN,Kanta-Häme,Kanta-Hame,FI-06,region,minor,9.6,6155,6155,3,Europe/Helsinki,FALSE,1246171167
"Pieksämäen Maalaiskunta","Pieksamaen Maalaiskunta",,62.2833,27.0667,Finland,FI,FIN,Etelä-Savo,Etela-Savo,FI-04,region,,10.8,6118,6118,3,Europe/Helsinki,FALSE,1246808341
Rusko,Rusko,,60.5417,22.2250,Finland,FI,FIN,Varsinais-Suomi,Varsinais-Suomi,FI-19,region,minor,48.0,6110,6110,3,Europe/Helsinki,FALSE,1246314215
Noormarkku,Noormarkku,Norrmark,61.5917,21.8667,Finland,FI,FIN,Satakunta,Satakunta,FI-17,region,,18.4,6109,6109,3,Europe/Helsinki,FALSE,1246015179
Ähtäri,Ahtari,Etseri|Eteyari|Ätsari,62.5500,24.0667,Finland,FI,FIN,Etelä-Pohjanmaa,Etela-Pohjanmaa,FI-03,region,minor,7.4,6068,6068,3,Europe/Helsinki,FALSE,1246810016
"Heinolan Maalaiskunta","Heinolan Maalaiskunta",,61.2500,26.0667,Finland,FI,FIN,Päijät-Häme,Paijat-Hame,FI-16,region,,27.6,6061,6061,3,Europe/Helsinki,FALSE,1246169320
Juva,Juva,Jockas,61.9000,27.8500,Finland,FI,FIN,Etelä-Savo,Etela-Savo,FI-04,region,minor,5.1,5932,5932,3,Europe/Helsinki,FALSE,1246659626
"Loimaan Kunta","Loimaan Kunta",,60.8667,22.9833,Finland,FI,FIN,Varsinais-Suomi,Varsinais-Suomi,FI-19,region,,18.4,5909,5909,3,Europe/Helsinki,FALSE,1246224648
Perniö,Pernio,Bjernå|Bjerno,60.2042,23.1222,Finland,FI,FIN,Varsinais-Suomi,Varsinais-Suomi,FI-19,region,,14.5,5903,5903,3,Europe/Helsinki,FALSE,1246405202
Nakkila,Nakkila,,61.3647,22.0056,Finland,FI,FIN,Satakunta,Satakunta,FI-17,region,minor,29.7,5651,5651,3,Europe/Helsinki,FALSE,1246045579
Kerimäki,Kerimaki,,61.9167,29.2833,Finland,FI,FIN,Etelä-Savo,Etela-Savo,FI-04,region,,6.3,5554,5554,3,Europe/Helsinki,FALSE,1246674802
Malax,Malax,Maalahti|Malaks|Mallax|Maalalahti|Maahlahti,62.9417,21.5500,Finland,FI,FIN,Pohjanmaa,Pohjanmaa,FI-12,region,minor,3.9,5545,5545,3,Europe/Helsinki,FALSE,1246667234
Ylistaro,Ylistaro,,62.9403,22.5167,Finland,FI,FIN,Etelä-Pohjanmaa,Etela-Pohjanmaa,FI-03,region,,11.5,5543,5543,3,Europe/Helsinki,FALSE,1246249592
Kannus,Kannus,,63.9000,23.9167,Finland,FI,FIN,Keski-Pohjanmaa,Keski-Pohjanmaa,FI-07,region,minor,11.7,5520,5520,3,Europe/Helsinki,FALSE,1246529130
Lammi,Lammi,,61.0792,25.0111,Finland,FI,FIN,Kanta-Häme,Kanta-Hame,FI-06,region,,38.5,5506,5506,3,Europe/Helsinki,FALSE,1246439991
Ingå,Inga,Inkoo,60.0456,24.0047,Finland,FI,FIN,Uusimaa,Uusimaa,FI-18,region,minor,5.6,5384,5384,3,Europe/Helsinki,FALSE,1246650014
Suolahti,Suolahti,,62.5639,25.8528,Finland,FI,FIN,Keski-Suomi,Keski-Suomi,FI-08,region,,22.1,5364,5364,3,Europe/Helsinki,FALSE,1246348554
Vilppula,Vilppula,Val’ppu,62.0222,24.5097,Finland,FI,FIN,Pirkanmaa,Pirkanmaa,FI-11,region,,9.4,5354,5354,3,Europe/Helsinki,FALSE,1246626853
Pyhäjärvi,Pyhajarvi,,63.6833,25.9833,Finland,FI,FIN,Pohjois-Pohjanmaa,Pohjois-Pohjanmaa,FI-14,region,,4.1,5337,5337,3,Europe/Helsinki,FALSE,1246224367
Pyhtää,Pyhtaa,Pyttis,60.5000,26.5500,Finland,FI,FIN,Kymenlaakso,Kymenlaakso,FI-09,region,,16.4,5321,5321,3,Europe/Helsinki,FALSE,1246169708
Ruokolahti,Ruokolahti,Ruokolakhti,61.2917,28.8167,Finland,FI,FIN,Etelä-Karjala,Etela-Karjala,FI-02,region,minor,5.7,5312,5312,3,Europe/Helsinki,FALSE,1246800422
Kangasniemi,Kangasniemi,,61.9900,26.6417,Finland,FI,FIN,Etelä-Savo,Etela-Savo,FI-04,region,minor,5.0,5296,5296,3,Europe/Helsinki,FALSE,1246481429
Teuva,Teuva,Östermark,62.4861,21.7472,Finland,FI,FIN,Etelä-Pohjanmaa,Etela-Pohjanmaa,FI-03,region,minor,9.5,5269,5269,3,Europe/Helsinki,FALSE,1246386371
Larsmo,Larsmo,Luoto,63.7500,22.7500,Finland,FI,FIN,Pohjanmaa,Pohjanmaa,FI-12,region,minor,36.9,5264,5264,3,Europe/Helsinki,FALSE,1246583074
Inkeroinen,Inkeroinen,,60.6925,26.8394,Finland,FI,FIN,Kymenlaakso,Kymenlaakso,FI-09,region,,32.8,5250,5250,4,Europe/Helsinki,FALSE,1246898747
Parikkala,Parikkala,,61.5500,29.5000,Finland,FI,FIN,Etelä-Karjala,Etela-Karjala,FI-02,region,minor,8.8,5235,5235,3,Europe/Helsinki,FALSE,1246649889
Oulujoki,Oulujoki,,65.0072,25.5636,Finland,FI,FIN,Pohjois-Pohjanmaa,Pohjois-Pohjanmaa,FI-14,region,,8.6,5230,5230,3,Europe/Helsinki,FALSE,1246801327
Viiala,Viiala,,61.2111,23.7667,Finland,FI,FIN,Pirkanmaa,Pirkanmaa,FI-11,region,,59.3,5207,5207,3,Europe/Helsinki,FALSE,1246102226
Pornainen,Pornainen,Borgnäs,60.4750,25.3750,Finland,FI,FIN,Uusimaa,Uusimaa,FI-18,region,minor,35.9,5125,5125,3,Europe/Helsinki,FALSE,1246470970
Sievi,Sievi,,63.9000,24.5167,Finland,FI,FIN,Pohjois-Pohjanmaa,Pohjois-Pohjanmaa,FI-14,region,minor,6.4,5124,5124,3,Europe/Helsinki,FALSE,1246488351
Jokioinen,Jokioinen,,60.8000,23.4833,Finland,FI,FIN,Kanta-Häme,Kanta-Hame,FI-06,region,minor,28.0,5058,5058,3,Europe/Helsinki,FALSE,1246986011
Kellokoski,Kellokoski,Mariefors,60.5500,25.1000,Finland,FI,FIN,Uusimaa,Uusimaa,FI-18,region,,40.3,5000,5000,3,Europe/Helsinki,FALSE,1246064814
Korpilahti,Korpilahti,,62.0167,25.5611,Finland,FI,FIN,Keski-Suomi,Keski-Suomi,FI-08,region,,6.3,4985,4985,3,Europe/Helsinki,FALSE,1246596773
Pojo,Pojo,Pohja,60.1000,23.5250,Finland,FI,FIN,Uusimaa,Uusimaa,FI-18,region,,19.7,4874,4874,3,Europe/Helsinki,FALSE,1246676630
Nousiainen,Nousiainen,Nousis,60.6000,22.0833,Finland,FI,FIN,Varsinais-Suomi,Varsinais-Suomi,FI-19,region,minor,24.4,4859,4859,3,Europe/Helsinki,FALSE,1246223616
Ristiina,Ristiina,,61.5083,27.2583,Finland,FI,FIN,Etelä-Savo,Etela-Savo,FI-04,region,,6.5,4856,4856,3,Europe/Helsinki,FALSE,1246780433
Äetsä,Aetsa,,61.2847,22.6972,Finland,FI,FIN,Pirkanmaa,Pirkanmaa,FI-11,region,,20.1,4837,4837,3,Europe/Helsinki,FALSE,1246151551
Urjala,Urjala,Urdiala,61.0833,23.5500,Finland,FI,FIN,Pirkanmaa,Pirkanmaa,FI-11,region,minor,10.2,4829,4829,3,Europe/Helsinki,FALSE,1246146874
Taipalsaari,Taipalsaari,,61.1583,28.0667,Finland,FI,FIN,Etelä-Karjala,Etela-Karjala,FI-02,region,minor,11.5,4815,4815,3,Europe/Helsinki,FALSE,1246603139
Juankoski,Juankoski,,63.0667,28.3333,Finland,FI,FIN,Pohjois-Savo,Pohjois-Savo,FI-15,region,minor,9.9,4804,4804,3,Europe/Helsinki,FALSE,1246890390
Vähäkyrö,Vahakyro,Vähäykyrö|Lillkyro,63.0550,22.1083,Finland,FI,FIN,Pohjanmaa,Pohjanmaa,FI-12,region,,26.6,4775,4775,3,Europe/Helsinki,FALSE,1246761267
Askola,Askola,,60.5283,25.6000,Finland,FI,FIN,Uusimaa,Uusimaa,FI-18,region,minor,22.4,4763,4763,3,Europe/Helsinki,FALSE,1246253787
Tohmajärvi,Tohmajarvi,,62.2333,30.3333,Finland,FI,FIN,Pohjois-Karjala,Pohjois-Karjala,FI-13,region,minor,5.7,4738,4738,3,Europe/Helsinki,FALSE,1246831960
Joroinen,Joroinen,,62.1833,27.8333,Finland,FI,FIN,Etelä-Savo,Etela-Savo,FI-04,region,minor,8.5,4729,4729,3,Europe/Helsinki,FALSE,1246783082
Alahärmä,Alaharma,,63.2500,22.8500,Finland,FI,FIN,Etelä-Pohjanmaa,Etela-Pohjanmaa,FI-03,region,,13.3,4717,4717,3,Europe/Helsinki,FALSE,1246767045
Jomala,Jomala,,60.1500,19.9500,Finland,FI,FIN,Åland,Aland,FI-01,region,minor,8.5,4648,4648,3,Europe/Mariehamn,FALSE,1246819448
Pielavesi,Pielavesi,,63.2333,26.7583,Finland,FI,FIN,Pohjois-Savo,Pohjois-Savo,FI-15,region,minor,3.3,4624,4624,3,Europe/Helsinki,FALSE,1246765026
Ruovesi,Ruovesi,,61.9833,24.1167,Finland,FI,FIN,Pirkanmaa,Pirkanmaa,FI-11,region,minor,5.9,4623,4623,3,Europe/Helsinki,FALSE,1246850639
Hankasalmi,Hankasalmi,,62.3833,26.4333,Finland,FI,FIN,Keski-Suomi,Keski-Suomi,FI-08,region,minor,9.0,4601,4601,3,Europe/Helsinki,FALSE,1246040542
Paavola,Paavola,,64.6083,25.2056,Finland,FI,FIN,Pohjois-Pohjanmaa,Pohjois-Pohjanmaa,FI-14,region,,8.1,4568,4568,3,Europe/Helsinki,FALSE,1246469924
Ilomantsi,Ilomantsi,,62.6667,30.9333,Finland,FI,FIN,Pohjois-Karjala,Pohjois-Karjala,FI-13,region,minor,1.6,4492,4492,3,Europe/Helsinki,FALSE,1246768345
Vesilahti,Vesilahti,,61.3083,23.6167,Finland,FI,FIN,Pirkanmaa,Pirkanmaa,FI-11,region,minor,12.7,4489,4489,3,Europe/Helsinki,FALSE,1246041139
Ruukki,Ruukki,Rukki,64.6639,25.1014,Finland,FI,FIN,Pohjois-Pohjanmaa,Pohjois-Pohjanmaa,FI-14,region,minor,5.8,4479,4479,3,Europe/Helsinki,FALSE,1246695784
Kälviä,Kalvia,Kyal’viya|Kelvia,63.8611,23.4528,Finland,FI,FIN,Keski-Pohjanmaa,Keski-Pohjanmaa,FI-07,region,,6.6,4475,4475,3,Europe/Helsinki,FALSE,1246537272
Sääksmäki,Saaksmaki,,61.2000,24.0667,Finland,FI,FIN,Pirkanmaa,Pirkanmaa,FI-11,region,,20.7,4467,4467,3,Europe/Helsinki,FALSE,1246000028
Polvijärvi,Polvijarvi,,62.8550,29.3667,Finland,FI,FIN,Pohjois-Karjala,Pohjois-Karjala,FI-13,region,minor,5.4,4414,4414,3,Europe/Helsinki,FALSE,1246472318
Isokyrö,Isokyro,Storkyro,63.0000,22.3167,Finland,FI,FIN,Pohjanmaa,Pohjanmaa,FI-12,region,minor,12.4,4406,4406,3,Europe/Helsinki,FALSE,1246751720
Jurva,Jurva,,62.6861,21.9819,Finland,FI,FIN,Etelä-Pohjanmaa,Etela-Pohjanmaa,FI-03,region,,9.8,4368,4368,3,Europe/Helsinki,FALSE,1246677705
Juuka,Juuka,,63.2417,29.2500,Finland,FI,FIN,Pohjois-Karjala,Pohjois-Karjala,FI-13,region,minor,2.9,4352,4352,3,Europe/Helsinki,FALSE,1246570105
Vanhakylä,Vanhakyla,Vanha-Ulvila,61.4349,21.8969,Finland,FI,FIN,Satakunta,Satakunta,FI-17,region,,31.8,4326,4326,3,Europe/Helsinki,FALSE,1246876371
Ylitornio,Ylitornio,Övertorneå,66.3167,23.6667,Finland,FI,FIN,Lappi,Lappi,FI-10,region,minor,2.1,4291,4291,3,Europe/Helsinki,FALSE,1246061713
Sonkajärvi,Sonkajarvi,,63.6667,27.5167,Finland,FI,FIN,Pohjois-Savo,Pohjois-Savo,FI-15,region,minor,2.5,4278,4278,3,Europe/Helsinki,FALSE,1246916893
Taivalkoski,Taivalkoski,,65.5750,28.2417,Finland,FI,FIN,Pohjois-Pohjanmaa,Pohjois-Pohjanmaa,FI-14,region,minor,1.6,4199,4199,3,Europe/Helsinki,FALSE,1246225771
Kärkölä,Karkola,,60.8667,25.2750,Finland,FI,FIN,Päijät-Häme,Paijat-Hame,FI-16,region,minor,16.4,4198,4198,3,Europe/Helsinki,FALSE,1246516738
Kaustinen,Kaustinen,Kaustby,63.5500,23.6917,Finland,FI,FIN,Keski-Pohjanmaa,Keski-Pohjanmaa,FI-07,region,minor,11.9,4198,4198,3,Europe/Helsinki,FALSE,1246256571
Joutsa,Joutsa,,61.7417,26.1167,Finland,FI,FIN,Keski-Suomi,Keski-Suomi,FI-08,region,minor,4.8,4171,4171,3,Europe/Helsinki,FALSE,1246322262
Pihtipudas,Pihtipudas,Pihtipuoas,63.3667,25.5750,Finland,FI,FIN,Keski-Suomi,Keski-Suomi,FI-08,region,minor,3.3,4127,4127,3,Europe/Helsinki,FALSE,1246671924
Sysmä,Sysma,,61.5000,25.6833,Finland,FI,FIN,Päijät-Häme,Paijat-Hame,FI-16,region,minor,15.0,4040,4040,3,Europe/Helsinki,FALSE,1246719734
Ranua,Ranua,,65.9333,26.5167,Finland,FI,FIN,Lappi,Lappi,FI-10,region,minor,1.1,4020,4020,3,Europe/Helsinki,FALSE,1246824006
Petäjävesi,Petajavesi,,62.2583,25.1833,Finland,FI,FIN,Keski-Suomi,Keski-Suomi,FI-08,region,minor,8.1,4008,4008,3,Europe/Helsinki,FALSE,1246000032
Tervakoski,Tervakoski,,60.8140,24.6260,Finland,FI,FIN,Kanta-Häme,Kanta-Hame,FI-06,region,,30.2,3972,3972,3,Europe/Helsinki,FALSE,1246236222
Aura,Aura,,60.6500,22.5833,Finland,FI,FIN,Varsinais-Suomi,Varsinais-Suomi,FI-19,region,minor,41.4,3961,3961,3,Europe/Helsinki,FALSE,1246632192
Hauho,Hauho,,61.1722,24.5625,Finland,FI,FIN,Kanta-Häme,Kanta-Hame,FI-06,region,,8.8,3907,3907,3,Europe/Helsinki,FALSE,1246424415
Simpele,Simpele,,61.4323,29.3728,Finland,FI,FIN,Etelä-Karjala,Etela-Karjala,FI-02,region,minor,9.5,3893,3893,3,Europe/Helsinki,FALSE,1246353817
Koria,Koria,,60.8333,26.6000,Finland,FI,FIN,Kymenlaakso,Kymenlaakso,FI-09,region,,32.8,3876,3876,3,Europe/Helsinki,FALSE,1246955754
Kolari,Kolari,,67.3306,23.7778,Finland,FI,FIN,Lappi,Lappi,FI-10,region,minor,1.6,3854,3854,3,Europe/Helsinki,FALSE,1246085163
Pernaja,Pernaja,Pernå|Pernö,60.4500,26.0333,Finland,FI,FIN,Uusimaa,Uusimaa,FI-18,region,,3.6,3779,3779,3,Europe/Helsinki,FALSE,1246173297
Kausala,Kausala,,60.8862,26.3415,Finland,FI,FIN,Päijät-Häme,Paijat-Hame,FI-16,region,,11.1,3775,3775,3,Europe/Helsinki,FALSE,1246814252
Maaninka,Maaninka,,63.1583,27.3000,Finland,FI,FIN,Pohjois-Savo,Pohjois-Savo,FI-15,region,minor,6.5,3773,3773,3,Europe/Helsinki,FALSE,1246576719
Vieremä,Vierema,,63.7417,27.0000,Finland,FI,FIN,Pohjois-Savo,Pohjois-Savo,FI-15,region,minor,4.1,3757,3757,3,Europe/Helsinki,FALSE,1246147857
Uurainen,Uurainen,,62.5000,25.4367,Finland,FI,FIN,Keski-Suomi,Keski-Suomi,FI-08,region,minor,10.8,3747,3747,3,Europe/Helsinki,FALSE,1246157743
Rantasalmi,Rantasalmi,Rantasalimi,62.0667,28.3000,Finland,FI,FIN,Etelä-Savo,Etela-Savo,FI-04,region,minor,6.7,3733,3733,3,Europe/Helsinki,FALSE,1246904411
Salla,Salla,,66.8333,28.6667,Finland,FI,FIN,Lappi,Lappi,FI-10,region,minor,0.6,3727,3727,3,Europe/Helsinki,FALSE,1246031480
Punkaharju,Punkaharju,,61.7500,29.4000,Finland,FI,FIN,Etelä-Savo,Etela-Savo,FI-04,region,,4.9,3715,3715,3,Europe/Helsinki,FALSE,1246739467
Muuruvesi,Muuruvesi,,63.0153,28.2085,Finland,FI,FIN,Pohjois-Savo,Pohjois-Savo,FI-15,region,,12.4,3708,3708,3,Europe/Helsinki,FALSE,1246592769
Karstula,Karstula,,62.8750,24.8000,Finland,FI,FIN,Keski-Suomi,Keski-Suomi,FI-08,region,minor,4.2,3665,3665,3,Europe/Helsinki,FALSE,1246759161
Pertteli,Pertteli,,60.4472,23.2486,Finland,FI,FIN,Varsinais-Suomi,Varsinais-Suomi,FI-19,region,,23.4,3658,3658,3,Europe/Helsinki,FALSE,1246807865
Seinäjoki,Seinajoki,Pereseynyayoki|Peräseinäjoki,62.5667,23.0667,Finland,FI,FIN,Etelä-Pohjanmaa,Etela-Pohjanmaa,FI-03,region,,46.8,3653,3653,3,Europe/Helsinki,TRUE,1246658500
Pello,Pello,,66.7750,23.9667,Finland,FI,FIN,Lappi,Lappi,FI-10,region,minor,1.9,3623,3623,3,Europe/Helsinki,FALSE,1246736820
Heinävesi,Heinavesi,Heinnvesi,62.4250,28.6333,Finland,FI,FIN,Etelä-Savo,Etela-Savo,FI-04,region,minor,3.0,3574,3574,3,Europe/Helsinki,FALSE,1246833470
Ylikiiminki,Ylikiiminki,,65.0333,26.1500,Finland,FI,FIN,Pohjois-Pohjanmaa,Pohjois-Pohjanmaa,FI-14,region,,3.3,3512,3512,4,Europe/Helsinki,TRUE,1246856761
Paltamo,Paltamo,,64.4083,27.8417,Finland,FI,FIN,Kainuu,Kainuu,FI-05,region,minor,3.1,3488,3488,3,Europe/Helsinki,FALSE,1246278367
Savitaipale,Savitaipale,Savitaypole,61.2000,27.6833,Finland,FI,FIN,Etelä-Karjala,Etela-Karjala,FI-02,region,minor,6.5,3480,3480,3,Europe/Helsinki,FALSE,1246000009
Posio,Posio,,66.1083,28.1667,Finland,FI,FIN,Lappi,Lappi,FI-10,region,minor,1.0,3477,3477,3,Europe/Helsinki,FALSE,1246956776
Karttula,Karttula,Karttulankylä|Vapaakirkko,62.8967,26.9667,Finland,FI,FIN,Pohjois-Savo,Pohjois-Savo,FI-15,region,,5.8,3437,3437,3,Europe/Helsinki,FALSE,1246797923
Kuortane,Kuortane,,62.8083,23.5083,Finland,FI,FIN,Etelä-Pohjanmaa,Etela-Pohjanmaa,FI-03,region,minor,7.1,3437,3437,3,Europe/Helsinki,FALSE,1246936920
Vihti,Vihti,,60.4167,24.3167,Finland,FI,FIN,Uusimaa,Uusimaa,FI-18,region,,55.8,3417,3417,3,Europe/Helsinki,FALSE,1246687261
Kalvola,Kalvola,,61.0917,24.1347,Finland,FI,FIN,Kanta-Häme,Kanta-Hame,FI-06,region,,10.0,3399,3399,3,Europe/Helsinki,FALSE,1246134684
Luvia,Luvia,,61.3611,21.6250,Finland,FI,FIN,Satakunta,Satakunta,FI-17,region,minor,20.8,3349,3349,3,Europe/Helsinki,FALSE,1246676450
Virolahti,Virolahti,"Virolahden Kirkonkylä",60.5833,27.7000,Finland,FI,FIN,Kymenlaakso,Kymenlaakso,FI-09,region,minor,6.0,3347,3347,3,Europe/Helsinki,FALSE,1246532821
Kiukainen,Kiukainen,,61.2069,22.0833,Finland,FI,FIN,Satakunta,Satakunta,FI-17,region,,22.3,3338,3338,3,Europe/Helsinki,FALSE,1246597125
Dragsfjärd,Dragsfjard,,60.0722,22.4694,Finland,FI,FIN,Varsinais-Suomi,Varsinais-Suomi,FI-19,region,,9.8,3332,3332,3,Europe/Helsinki,FALSE,1246638291
Toholampi,Toholampi,,63.7750,24.2500,Finland,FI,FIN,Keski-Pohjanmaa,Keski-Pohjanmaa,FI-07,region,minor,5.4,3311,3311,3,Europe/Helsinki,FALSE,1246241186
Rautalampi,Rautalampi,,62.6217,26.8333,Finland,FI,FIN,Pohjois-Savo,Pohjois-Savo,FI-15,region,minor,4.3,3303,3303,3,Europe/Helsinki,FALSE,1246100712
Veteli,Veteli,Vetil,63.4750,23.7917,Finland,FI,FIN,Keski-Pohjanmaa,Keski-Pohjanmaa,FI-07,region,minor,6.3,3302,3302,3,Europe/Helsinki,FALSE,1246922161
Ylikiiminki,Ylikiiminki,,65.0833,26.2500,Finland,FI,FIN,Pohjois-Pohjanmaa,Pohjois-Pohjanmaa,FI-14,region,,114.8,3288,3288,4,Europe/Helsinki,FALSE,1246183539
Kimito,Kimito,Kemiö,60.1639,22.7278,Finland,FI,FIN,Varsinais-Suomi,Varsinais-Suomi,FI-19,region,minor,10.2,3252,3252,3,Europe/Helsinki,FALSE,1246176796
Simo,Simo,,65.6583,25.0667,Finland,FI,FIN,Lappi,Lappi,FI-10,region,minor,5.1,3238,3238,3,Europe/Helsinki,FALSE,1246899355
Lappi,Lappi,Lapinkylä,61.1014,21.8444,Finland,FI,FIN,Satakunta,Satakunta,FI-17,region,,15.2,3236,3236,3,Europe/Helsinki,FALSE,1246475968
Pyhäjoki,Pyhajoki,Kyhajoki|Pyukha,64.4840,24.2150,Finland,FI,FIN,Pohjois-Pohjanmaa,Pohjois-Pohjanmaa,FI-14,region,minor,5.9,3211,3211,3,Europe/Helsinki,FALSE,1246309547
Tervola,Tervola,,66.0889,24.8111,Finland,FI,FIN,Lappi,Lappi,FI-10,region,minor,2.0,3195,3195,3,Europe/Helsinki,FALSE,1246542495
Merikarvia,Merikarvia,Merikervia|Sastmola,61.8583,21.5000,Finland,FI,FIN,Satakunta,Satakunta,FI-17,region,minor,7.1,3185,3185,3,Europe/Helsinki,FALSE,1246187952
Töysä,Toysa,,62.6333,23.8167,Finland,FI,FIN,Etelä-Pohjanmaa,Etela-Pohjanmaa,FI-03,region,,10.1,3156,3156,3,Europe/Helsinki,FALSE,1246513582
Padasjoki,Padasjoki,,61.3500,25.2750,Finland,FI,FIN,Päijät-Häme,Paijat-Hame,FI-16,region,minor,15.2,3143,3143,3,Europe/Helsinki,FALSE,1246759375
Lappajärvi,Lappajarvi,,63.2167,23.6333,Finland,FI,FIN,Etelä-Pohjanmaa,Etela-Pohjanmaa,FI-03,region,minor,7.5,3140,3140,3,Europe/Helsinki,FALSE,1246734659
Uskela,Uskela,,60.3753,23.1306,Finland,FI,FIN,Varsinais-Suomi,Varsinais-Suomi,FI-19,region,,25.0,3105,3105,3,Europe/Helsinki,FALSE,1246357484
Maaria,Maaria,"Sankt Marie",60.5333,22.3333,Finland,FI,FIN,Varsinais-Suomi,Varsinais-Suomi,FI-19,region,,88.1,3076,3076,3,Europe/Helsinki,FALSE,1246278365
Lemi,Lemi,,61.0617,27.8050,Finland,FI,FIN,Etelä-Karjala,Etela-Karjala,FI-02,region,minor,11.7,3073,3073,3,Europe/Helsinki,FALSE,1246862377
Vimpeli,Vimpeli,Wimpeli,63.1617,23.8167,Finland,FI,FIN,Etelä-Pohjanmaa,Etela-Pohjanmaa,FI-03,region,minor,10.8,3073,3073,3,Europe/Helsinki,FALSE,1246040188
Ivalo,Ivalo,Avvil|Kyrö|Avveel,68.6500,27.5500,Finland,FI,FIN,Lappi,Lappi,FI-10,region,minor,0.4,3062,3062,3,Europe/Helsinki,FALSE,1246931472
Vihanti,Vihanti,Wihanti,64.4833,25.0000,Finland,FI,FIN,Pohjois-Pohjanmaa,Pohjois-Pohjanmaa,FI-14,region,,6.2,3059,3059,3,Europe/Helsinki,FALSE,1246016999
Punkalaidun,Punkalaidun,,61.1117,23.1050,Finland,FI,FIN,Pirkanmaa,Pirkanmaa,FI-11,region,minor,8.1,3049,3049,3,Europe/Helsinki,FALSE,1246196742
Sauvo,Sauvo,Sagu,60.3417,22.6917,Finland,FI,FIN,Varsinais-Suomi,Varsinais-Suomi,FI-19,region,minor,10.0,3007,3007,3,Europe/Helsinki,FALSE,1246795778
Säynätsalo,Saynatsalo,,62.1403,25.7692,Finland,FI,FIN,Keski-Suomi,Keski-Suomi,FI-08,region,,122.1,3000,3000,3,Europe/Helsinki,FALSE,1246498346
Tenala,Tenala,Tenhola,60.0583,23.3000,Finland,FI,FIN,Uusimaa,Uusimaa,FI-18,region,,6.7,2991,2991,3,Europe/Helsinki,FALSE,1246097487
Keikyä,Keikya,,61.2718,22.7025,Finland,FI,FIN,Pirkanmaa,Pirkanmaa,FI-11,region,,45.1,2977,2977,3,Europe/Helsinki,FALSE,1246937367
Ylihärmä,Yliharma,,63.1417,22.7917,Finland,FI,FIN,Etelä-Pohjanmaa,Etela-Pohjanmaa,FI-03,region,,19.5,2960,2960,3,Europe/Helsinki,FALSE,1246506934
Varpaisjärvi,Varpaisjarvi,,63.3583,27.7583,Finland,FI,FIN,Pohjois-Savo,Pohjois-Savo,FI-15,region,,5.5,2952,2952,3,Europe/Helsinki,FALSE,1246720620
Vaala,Vaala,,64.5500,26.8333,Finland,FI,FIN,Kainuu,Kainuu,FI-05,region,minor,1.7,2941,2941,3,Europe/Helsinki,FALSE,1246573956
Nummi,Nummi,,60.3917,23.8833,Finland,FI,FIN,Uusimaa,Uusimaa,FI-18,region,,14.8,2915,2915,3,Europe/Helsinki,FALSE,1246706824
Ruotsinpyhtää,Ruotsinpyhtaa,Strömfors|Pyhtää,60.5250,26.4667,Finland,FI,FIN,Uusimaa,Uusimaa,FI-18,region,,6.2,2895,2895,3,Europe/Helsinki,FALSE,1246873830
Mouhijärvi,Mouhijarvi,,61.5125,23.0083,Finland,FI,FIN,Pirkanmaa,Pirkanmaa,FI-11,region,,10.8,2894,2894,3,Europe/Helsinki,FALSE,1246883133
Reisjärvi,Reisjarvi,,63.6050,24.9333,Finland,FI,FIN,Pohjois-Pohjanmaa,Pohjois-Pohjanmaa,FI-14,region,minor,5.8,2894,2894,3,Europe/Helsinki,FALSE,1246044438
Utajärvi,Utajarvi,Utayarvi,64.7500,26.4167,Finland,FI,FIN,Pohjois-Pohjanmaa,Pohjois-Pohjanmaa,FI-14,region,minor,1.8,2861,2861,3,Europe/Helsinki,FALSE,1246910388
Perho,Perho,,63.2167,24.4167,Finland,FI,FIN,Keski-Pohjanmaa,Keski-Pohjanmaa,FI-07,region,minor,3.7,2860,2860,3,Europe/Helsinki,FALSE,1246410709
Lohtaja,Lohtaja,Lokhteo,64.0236,23.5056,Finland,FI,FIN,Keski-Pohjanmaa,Keski-Pohjanmaa,FI-07,region,,33.6,2820,2820,4,Europe/Helsinki,FALSE,1246871674
Kuorevesi,Kuorevesi,Kuorevese,61.8500,24.7833,Finland,FI,FIN,Keski-Suomi,Keski-Suomi,FI-08,region,,8.2,2819,2819,3,Europe/Helsinki,FALSE,1246241231
Teisko,Teisko,,61.6732,23.8479,Finland,FI,FIN,Pirkanmaa,Pirkanmaa,FI-11,region,,8.3,2816,2816,3,Europe/Helsinki,FALSE,1246909389
Puolanka,Puolanka,,64.8681,27.6708,Finland,FI,FIN,Kainuu,Kainuu,FI-05,region,minor,1.1,2776,2776,3,Europe/Helsinki,FALSE,1246141354
Lappträsk,Lapptrask,Lapinjärvi,60.6167,26.2000,Finland,FI,FIN,Uusimaa,Uusimaa,FI-18,region,minor,8.2,2774,2774,3,Europe/Helsinki,FALSE,1246036747
Kuru,Kuru,,61.8769,23.7250,Finland,FI,FIN,Pirkanmaa,Pirkanmaa,FI-11,region,,32.0,2759,2759,3,Europe/Helsinki,FALSE,1246698315
Kiikka,Kiikka,,61.3208,22.7754,Finland,FI,FIN,Pirkanmaa,Pirkanmaa,FI-11,region,,16.0,2698,2698,3,Europe/Helsinki,FALSE,1246873811
Kaavi,Kaavi,,62.9750,28.4833,Finland,FI,FIN,Pohjois-Savo,Pohjois-Savo,FI-15,region,minor,4.0,2689,2689,3,Europe/Helsinki,FALSE,1246307139
Köyliö,Koylio,,61.1186,22.3075,Finland,FI,FIN,Satakunta,Satakunta,FI-17,region,minor,10.3,2647,2647,3,Europe/Helsinki,FALSE,1246328315
Kiihtelysvaara,Kiihtelysvaara,,62.4931,30.2514,Finland,FI,FIN,Pohjois-Karjala,Pohjois-Karjala,FI-13,region,,31.7,2635,2635,3,Europe/Helsinki,FALSE,1246443886
Vuolijoki,Vuolijoki,,64.1833,26.9972,Finland,FI,FIN,Kainuu,Kainuu,FI-05,region,,20.3,2632,2632,3,Europe/Helsinki,FALSE,1246598202
Karkku,Karkku,Karkhu,61.4183,23.0131,Finland,FI,FIN,Pirkanmaa,Pirkanmaa,FI-11,region,,15.2,2625,2625,3,Europe/Helsinki,FALSE,1246733802
Kylmäkoski,Kylmakoski,,61.1500,23.6917,Finland,FI,FIN,Pirkanmaa,Pirkanmaa,FI-11,region,,13.1,2612,2612,3,Europe/Helsinki,FALSE,1246228638
Tuusniemi,Tuusniemi,,62.8083,28.4917,Finland,FI,FIN,Pohjois-Savo,Pohjois-Savo,FI-15,region,minor,4.6,2597,2597,3,Europe/Helsinki,FALSE,1246251756
Sulkava,Sulkava,,61.7833,28.3667,Finland,FI,FIN,Etelä-Savo,Etela-Savo,FI-04,region,minor,4.4,2588,2588,3,Europe/Helsinki,FALSE,1246288003
Hartola,Hartola,,61.5833,26.0167,Finland,FI,FIN,Päijät-Häme,Paijat-Hame,FI-16,region,minor,4.7,2574,2574,3,Europe/Helsinki,FALSE,1246634117
Översundom,Oversundom,"Sundom|Övre Sundom|Över-Sundom By|Sundomöverby",63.0325,21.5464,Finland,FI,FIN,Pohjanmaa,Pohjanmaa,FI-12,region,,350.4,2530,2530,3,Europe/Helsinki,FALSE,1246130642
Finström,Finstrom,,60.2333,19.9917,Finland,FI,FIN,Åland,Aland,FI-01,region,,14.6,2522,2522,3,Europe/Mariehamn,FALSE,1246233950
Konnevesi,Konnevesi,,62.6283,26.2833,Finland,FI,FIN,Keski-Suomi,Keski-Suomi,FI-08,region,minor,4.9,2521,2521,3,Europe/Helsinki,FALSE,1246648436
Evijärvi,Evijarvi,,63.3667,23.4750,Finland,FI,FIN,Etelä-Pohjanmaa,Etela-Pohjanmaa,FI-03,region,minor,7.1,2499,2499,3,Europe/Helsinki,FALSE,1246620309
Kärsämäki,Karsamaki,,63.9750,25.7583,Finland,FI,FIN,Pohjois-Pohjanmaa,Pohjois-Pohjanmaa,FI-14,region,minor,3.6,2474,2474,3,Europe/Helsinki,FALSE,1246215236
Alavieska,Alavieska,,64.1667,24.3083,Finland,FI,FIN,Pohjois-Pohjanmaa,Pohjois-Pohjanmaa,FI-14,region,minor,9.7,2447,2447,3,Europe/Helsinki,FALSE,1246144738
Ihalainen,Ihalainen,,60.6750,21.6206,Finland,FI,FIN,Varsinais-Suomi,Varsinais-Suomi,FI-19,region,,13.3,2445,2445,4,Europe/Helsinki,FALSE,1246055157
Toivakka,Toivakka,,62.1000,26.0833,Finland,FI,FIN,Keski-Suomi,Keski-Suomi,FI-08,region,minor,5.9,2431,2431,3,Europe/Helsinki,FALSE,1246835155
Karinainen,Karinainen,,60.6667,22.7667,Finland,FI,FIN,Varsinais-Suomi,Varsinais-Suomi,FI-19,region,,12.5,2425,2425,3,Europe/Helsinki,FALSE,1246210083
Ypäjä,Ypaja,,60.8083,23.2833,Finland,FI,FIN,Kanta-Häme,Kanta-Hame,FI-06,region,minor,13.2,2411,2411,3,Europe/Helsinki,FALSE,1246267751
Keitele,Keitele,,63.1783,26.3500,Finland,FI,FIN,Pohjois-Savo,Pohjois-Savo,FI-15,region,minor,4.4,2379,2379,3,Europe/Helsinki,FALSE,1246671986
Himanka,Himanka,,64.0583,23.6500,Finland,FI,FIN,Keski-Pohjanmaa,Keski-Pohjanmaa,FI-07,region,,10.3,2378,2378,3,Europe/Helsinki,FALSE,1246308831
Luopioinen,Luopioinen,,61.3625,24.6569,Finland,FI,FIN,Pirkanmaa,Pirkanmaa,FI-11,region,,6.1,2365,2365,3,Europe/Helsinki,FALSE,1246479242
Kesälahti,Kesalahti,,61.8917,29.8333,Finland,FI,FIN,Pohjois-Karjala,Pohjois-Karjala,FI-13,region,,4.0,2362,2362,3,Europe/Helsinki,FALSE,1246936160
Iittala,Iittala,,61.1000,24.1167,Finland,FI,FIN,Kanta-Häme,Kanta-Hame,FI-06,region,,38.5,2360,2360,4,Europe/Helsinki,FALSE,1246504084
Muonio,Muonio,Muonioniska|Alamuonio,67.9583,23.6833,Finland,FI,FIN,Lappi,Lappi,FI-10,region,minor,1.4,2358,2358,3,Europe/Helsinki,FALSE,1246735129
Rääkkylä,Raakkyla,,62.3133,29.6250,Finland,FI,FIN,Pohjois-Karjala,Pohjois-Karjala,FI-13,region,minor,8.6,2349,2349,3,Europe/Helsinki,FALSE,1246877854
Valtimo,Valtimo,Valtimojärvi|Waltimo,63.6800,28.8167,Finland,FI,FIN,Pohjois-Karjala,Pohjois-Karjala,FI-13,region,minor,2.6,2324,2324,3,Europe/Helsinki,FALSE,1246968061
Kortesjärvi,Kortesjarvi,,63.3000,23.1583,Finland,FI,FIN,Etelä-Pohjanmaa,Etela-Pohjanmaa,FI-03,region,,6.8,2311,2311,3,Europe/Helsinki,FALSE,1246853014
Renko,Renko,,60.8931,24.2833,Finland,FI,FIN,Kanta-Häme,Kanta-Hame,FI-06,region,,8.0,2310,2310,3,Europe/Helsinki,FALSE,1246755911
Haukivuori,Haukivuori,,62.0208,27.2083,Finland,FI,FIN,Etelä-Savo,Etela-Savo,FI-04,region,,4.5,2292,2292,3,Europe/Helsinki,FALSE,1246257463
Esse,Esse,Ähtävä,63.5833,23.0500,Finland,FI,FIN,Pohjanmaa,Pohjanmaa,FI-12,region,,13.5,2281,2281,3,Europe/Helsinki,FALSE,1246711829
Vehmaa,Vehmaa,Vemo|Vehmo,60.6867,21.7133,Finland,FI,FIN,Varsinais-Suomi,Varsinais-Suomi,FI-19,region,,10.9,2276,2276,3,Europe/Helsinki,FALSE,1246482069
Koijärvi,Koijarvi,,60.9437,23.6571,Finland,FI,FIN,Kanta-Häme,Kanta-Hame,FI-06,region,,13.0,2262,2262,3,Europe/Helsinki,FALSE,1246991586
Säyneinen,Sayneinen,,63.2053,28.4799,Finland,FI,FIN,Pohjois-Savo,Pohjois-Savo,FI-15,region,,12.1,2251,2251,3,Europe/Helsinki,FALSE,1246439842
Pomarkku,Pomarkku,,61.6917,22.0083,Finland,FI,FIN,Satakunta,Satakunta,FI-17,region,minor,6.9,2240,2240,3,Europe/Helsinki,FALSE,1246145521
Karvia,Karvia,,62.1333,22.5583,Finland,FI,FIN,Satakunta,Satakunta,FI-17,region,minor,4.3,2240,2240,3,Europe/Helsinki,FALSE,1246882880
Hirvensalmi,Hirvensalmi,,61.6417,26.7833,Finland,FI,FIN,Etelä-Savo,Etela-Savo,FI-04,region,minor,7.9,2236,2236,3,Europe/Helsinki,FALSE,1246146534
"Koski Tl","Koski Tl",Koski,60.6550,23.1417,Finland,FI,FIN,Varsinais-Suomi,Varsinais-Suomi,FI-19,region,minor,12.9,2227,2227,3,Europe/Helsinki,FALSE,1246306609
Soini,Soini,,62.8750,24.2083,Finland,FI,FIN,Etelä-Pohjanmaa,Etela-Pohjanmaa,FI-03,region,minor,4.0,2224,2224,3,Europe/Helsinki,FALSE,1246165771
Puumala,Puumala,Puuinala,61.5250,28.1833,Finland,FI,FIN,Etelä-Savo,Etela-Savo,FI-04,region,minor,5.0,2208,2208,3,Europe/Helsinki,FALSE,1246980082
Sahalahti,Sahalahti,,61.4667,24.3167,Finland,FI,FIN,Pirkanmaa,Pirkanmaa,FI-11,region,,48.6,2207,2207,3,Europe/Helsinki,FALSE,1246789241
Vesanto,Vesanto,Wesanto,62.9333,26.4167,Finland,FI,FIN,Pohjois-Savo,Pohjois-Savo,FI-15,region,minor,3.8,2191,2191,3,Europe/Helsinki,FALSE,1246919076
Yli-Ii,Yli-Ii,,65.3722,25.8403,Finland,FI,FIN,Pohjois-Pohjanmaa,Pohjois-Pohjanmaa,FI-14,region,,2.7,2188,2188,3,Europe/Helsinki,FALSE,1246743461
Tuupovaara,Tuupovaara,,62.4861,30.6167,Finland,FI,FIN,Pohjois-Karjala,Pohjois-Karjala,FI-13,region,,31.7,2176,2176,3,Europe/Helsinki,FALSE,1246037095
Humppila,Humppila,,60.9250,23.3667,Finland,FI,FIN,Kanta-Häme,Kanta-Hame,FI-06,region,minor,16.6,2161,2161,3,Europe/Helsinki,FALSE,1246872707
Oravainen,Oravainen,Oravais,63.3000,22.3750,Finland,FI,FIN,Pohjanmaa,Pohjanmaa,FI-12,region,,7.9,2155,2155,3,Europe/Helsinki,FALSE,1246855136
Pyhäranta,Pyharanta,Pithäranta,60.9500,21.4417,Finland,FI,FIN,Varsinais-Suomi,Varsinais-Suomi,FI-19,region,minor,7.3,2136,2136,3,Europe/Helsinki,FALSE,1246540496
Kuhmoinen,Kuhmoinen,,61.5667,25.1833,Finland,FI,FIN,Keski-Suomi,Keski-Suomi,FI-08,region,minor,2.3,2119,2119,3,Europe/Helsinki,FALSE,1246817248
Aitolahti,Aitolahti,,61.5447,23.8879,Finland,FI,FIN,Pirkanmaa,Pirkanmaa,FI-11,region,,32.3,2117,2117,3,Europe/Helsinki,FALSE,1246662664
Yläne,Ylane,Yulyane,60.8792,22.4111,Finland,FI,FIN,Varsinais-Suomi,Varsinais-Suomi,FI-19,region,,5.8,2114,2114,3,Europe/Helsinki,FALSE,1246567364
Hämeenkoski,Hameenkoski,"Koski Hl|Koski",61.0250,25.1500,Finland,FI,FIN,Päijät-Häme,Paijat-Hame,FI-16,region,minor,10.9,2104,2104,3,Europe/Helsinki,FALSE,1246887068
Raippaluoto,Raippaluoto,Replotö|Replot,63.2500,21.4000,Finland,FI,FIN,Pohjanmaa,Pohjanmaa,FI-12,region,,14.0,2100,2100,3,Europe/Helsinki,FALSE,1246999582
Hyrynsalmi,Hyrynsalmi,Hyrynsaimi|Khyuryunsalmi,64.6750,28.4917,Finland,FI,FIN,Kainuu,Kainuu,FI-05,region,minor,1.4,2094,2094,3,Europe/Helsinki,FALSE,1246829220
Miehikkälä,Miehikkala,Michikkala,60.6667,27.7000,Finland,FI,FIN,Kymenlaakso,Kymenlaakso,FI-09,region,minor,4.7,2085,2085,3,Europe/Helsinki,FALSE,1246697800
Lumijoki,Lumijoki,Lymelki,64.8367,25.1867,Finland,FI,FIN,Pohjois-Pohjanmaa,Pohjois-Pohjanmaa,FI-14,region,minor,27.3,2081,2081,3,Europe/Helsinki,FALSE,1246092875
Vehmersalmi,Vehmersalmi,,62.7611,28.0292,Finland,FI,FIN,Pohjois-Savo,Pohjois-Savo,FI-15,region,,67.0,2053,2053,3,Europe/Helsinki,FALSE,1246078887
Rantsila,Rantsila,,64.5000,25.6500,Finland,FI,FIN,Pohjois-Pohjanmaa,Pohjois-Pohjanmaa,FI-14,region,,2.7,2040,2040,3,Europe/Helsinki,FALSE,1246575632
Rymättylä,Rymattyla,Rimito,60.3764,21.9417,Finland,FI,FIN,Varsinais-Suomi,Varsinais-Suomi,FI-19,region,,13.6,2039,2039,3,Europe/Helsinki,FALSE,1246655669
Marttila,Marttila,"Sankt Mårtens",60.5833,22.9000,Finland,FI,FIN,Varsinais-Suomi,Varsinais-Suomi,FI-19,region,minor,10.4,2028,2028,3,Europe/Helsinki,FALSE,1246397937
Korsnäs,Korsnas,Korsnes,62.7833,21.1833,Finland,FI,FIN,Pohjanmaa,Pohjanmaa,FI-12,region,minor,1.7,2024,2024,3,Europe/Helsinki,FALSE,1246469746
Lemland,Lemland,,60.0700,20.0867,Finland,FI,FIN,Åland,Aland,FI-01,region,minor,2.3,1991,1991,3,Europe/Mariehamn,FALSE,1246375512
Koskenpää,Koskenpaa,,62.0813,25.1425,Finland,FI,FIN,Keski-Suomi,Keski-Suomi,FI-08,region,,5.6,1980,1980,3,Europe/Helsinki,FALSE,1246793387
Kuivaniemi,Kuivaniemi,,65.6042,25.2083,Finland,FI,FIN,Pohjois-Pohjanmaa,Pohjois-Pohjanmaa,FI-14,region,,1.7,1977,1977,4,Europe/Helsinki,FALSE,1246494187
Pukkila,Pukkila,,60.6450,25.5833,Finland,FI,FIN,Uusimaa,Uusimaa,FI-18,region,minor,13.5,1971,1971,3,Europe/Helsinki,FALSE,1246699865
Myrskylä,Myrskyla,Mörskom,60.6667,25.8500,Finland,FI,FIN,Uusimaa,Uusimaa,FI-18,region,minor,9.5,1969,1969,3,Europe/Helsinki,FALSE,1246700112
Tarvasjoki,Tarvasjoki,,60.5833,22.7333,Finland,FI,FIN,Varsinais-Suomi,Varsinais-Suomi,FI-19,region,minor,19.1,1958,1958,3,Europe/Helsinki,FALSE,1246989669
Viljakkala,Viljakkala,Wiljakkala|Viliakkala,61.7056,23.2667,Finland,FI,FIN,Pirkanmaa,Pirkanmaa,FI-11,region,,32.0,1942,1942,3,Europe/Helsinki,FALSE,1246818610
Paattinen,Paattinen,,60.5833,22.3833,Finland,FI,FIN,Varsinais-Suomi,Varsinais-Suomi,FI-19,region,,32.3,1900,1900,3,Europe/Helsinki,FALSE,1246350965
Lehtimäki,Lehtimaki,,62.8181,23.9431,Finland,FI,FIN,Etelä-Pohjanmaa,Etela-Pohjanmaa,FI-03,region,,6.5,1897,1897,3,Europe/Helsinki,FALSE,1246965050
Lavia,Lavia,,61.6000,22.5833,Finland,FI,FIN,Satakunta,Satakunta,FI-17,region,minor,5.3,1890,1890,3,Europe/Helsinki,FALSE,1246748546
Anttola,Anttola,,61.5838,27.6445,Finland,FI,FIN,Etelä-Savo,Etela-Savo,FI-04,region,,7.3,1879,1879,3,Europe/Helsinki,FALSE,1246325542
Jämijärvi,Jamijarvi,,61.8167,22.6917,Finland,FI,FIN,Satakunta,Satakunta,FI-17,region,minor,8.3,1867,1867,3,Europe/Helsinki,FALSE,1246838255
Enontekiö,Enontekio,Heähtta|Enodak|Hetta|Enontekis|Eanodat,68.3847,23.6389,Finland,FI,FIN,Lappi,Lappi,FI-10,region,minor,0.2,1861,1861,3,Europe/Helsinki,FALSE,1246501704
Isojoki,Isojoki,Storå,62.1139,21.9583,Finland,FI,FIN,Etelä-Pohjanmaa,Etela-Pohjanmaa,FI-03,region,minor,2.9,1852,1852,3,Europe/Helsinki,FALSE,1246172511
Pattijoki,Pattijoki,Patioki,64.7000,24.5833,Finland,FI,FIN,Pohjois-Pohjanmaa,Pohjois-Pohjanmaa,FI-14,region,,24.0,1850,1850,3,Europe/Helsinki,FALSE,1246332643
Jaala,Jaala,,61.0500,26.4819,Finland,FI,FIN,Kymenlaakso,Kymenlaakso,FI-09,region,,3.3,1848,1848,3,Europe/Helsinki,FALSE,1246333757
Kisko,Kisko,,60.2653,23.4472,Finland,FI,FIN,Varsinais-Suomi,Varsinais-Suomi,FI-19,region,,6.5,1840,1840,3,Europe/Helsinki,FALSE,1246210800
Saltvik,Saltvik,,60.2750,20.0583,Finland,FI,FIN,Åland,Aland,FI-01,region,,1.8,1829,1829,3,Europe/Mariehamn,FALSE,1246845471
Kiikala,Kiikala,,60.4611,23.5528,Finland,FI,FIN,Varsinais-Suomi,Varsinais-Suomi,FI-19,region,,7.4,1810,1810,3,Europe/Helsinki,FALSE,1246853511
Honkajoki,Honkajoki,Hongonjoki,61.9931,22.2639,Finland,FI,FIN,Satakunta,Satakunta,FI-17,region,minor,5.1,1793,1793,3,Europe/Helsinki,FALSE,1246357541
Vahto,Vahto,,60.6097,22.3069,Finland,FI,FIN,Varsinais-Suomi,Varsinais-Suomi,FI-19,region,,23.1,1784,1784,3,Europe/Helsinki,FALSE,1246019753
Pörtom,Portom,Pirttikylä,62.7000,21.6167,Finland,FI,FIN,Pohjanmaa,Pohjanmaa,FI-12,region,,8.1,1783,1783,3,Europe/Helsinki,FALSE,1246190623
Kihniö,Kihnio,,62.2083,23.1792,Finland,FI,FIN,Pirkanmaa,Pirkanmaa,FI-11,region,minor,5.3,1771,1771,3,Europe/Helsinki,FALSE,1246201565
Juupajoki,Juupajoki,,61.7967,24.3700,Finland,FI,FIN,Pirkanmaa,Pirkanmaa,FI-11,region,,6.4,1768,1768,3,Europe/Helsinki,FALSE,1246260324
Pihlajavesi,Pihlajavesi,,62.3452,24.3935,Finland,FI,FIN,Keski-Suomi,Keski-Suomi,FI-08,region,,4.2,1744,1744,3,Europe/Helsinki,FALSE,1246854071
Pertunmaa,Pertunmaa,,61.5028,26.4792,Finland,FI,FIN,Etelä-Savo,Etela-Savo,FI-04,region,minor,3.8,1739,1739,3,Europe/Helsinki,FALSE,1246004053
Koivulahti,Koivulahti,Kvevlaks|Kvevlax,63.1618,21.8393,Finland,FI,FIN,Pohjanmaa,Pohjanmaa,FI-12,region,,24.1,1739,1739,4,Europe/Helsinki,FALSE,1246983296
Uusikylä,Uusikyla,,60.9275,25.0147,Finland,FI,FIN,Päijät-Häme,Paijat-Hame,FI-16,region,,47.5,1728,1728,3,Europe/Helsinki,FALSE,1246325548
Kuusjoki,Kuusjoki,,60.5208,23.2208,Finland,FI,FIN,Varsinais-Suomi,Varsinais-Suomi,FI-19,region,,14.1,1724,1724,3,Europe/Helsinki,FALSE,1246604506
Mietoinen,Mietoinen,Mietois,60.6264,21.9292,Finland,FI,FIN,Varsinais-Suomi,Varsinais-Suomi,FI-19,region,,23.1,1712,1712,3,Europe/Helsinki,FALSE,1246323403
Rautavaara,Rautavaara,,63.4950,28.3000,Finland,FI,FIN,Pohjois-Savo,Pohjois-Savo,FI-15,region,minor,1.3,1698,1698,3,Europe/Helsinki,FALSE,1246096907
Vampula,Vampula,,61.0264,22.6903,Finland,FI,FIN,Satakunta,Satakunta,FI-17,region,,11.7,1675,1675,3,Europe/Helsinki,FALSE,1246154589
Längelmäki,Langelmaki,,61.7292,24.8000,Finland,FI,FIN,Pirkanmaa,Pirkanmaa,FI-11,region,,3.3,1673,1673,3,Europe/Helsinki,FALSE,1246601841
Multia,Multia,,62.4083,24.7950,Finland,FI,FIN,Keski-Suomi,Keski-Suomi,FI-08,region,minor,2.2,1636,1636,3,Europe/Helsinki,FALSE,1246991379
Taivassalo,Taivassalo,Töfsala|Tefsala|Tövsala,60.5617,21.6083,Finland,FI,FIN,Varsinais-Suomi,Varsinais-Suomi,FI-19,region,minor,21.1,1633,1633,3,Europe/Helsinki,FALSE,1246620826
Tervo,Tervo,,62.9556,26.7556,Finland,FI,FIN,Pohjois-Savo,Pohjois-Savo,FI-15,region,minor,4.6,1608,1608,3,Europe/Helsinki,FALSE,1246274131
Kangaslampi,Kangaslampi,,62.2958,28.2514,Finland,FI,FIN,Pohjois-Savo,Pohjois-Savo,FI-15,region,,52.1,1605,1605,3,Europe/Helsinki,FALSE,1246833634
Jäppilä,Jappila,,62.3778,27.4347,Finland,FI,FIN,Etelä-Savo,Etela-Savo,FI-04,region,,10.8,1603,1603,3,Europe/Helsinki,FALSE,1246382064
Kestilä,Kestila,,64.3500,26.2833,Finland,FI,FIN,Pohjois-Pohjanmaa,Pohjois-Pohjanmaa,FI-14,region,,2.6,1603,1603,3,Europe/Helsinki,FALSE,1246164132
Kullaa,Kullaa,,61.4667,22.1667,Finland,FI,FIN,Satakunta,Satakunta,FI-17,region,,31.8,1601,1601,3,Europe/Helsinki,FALSE,1246103106
Pyhäntä,Pyhanta,,64.1000,26.3333,Finland,FI,FIN,Pohjois-Pohjanmaa,Pohjois-Pohjanmaa,FI-14,region,minor,2.0,1587,1587,3,Europe/Helsinki,FALSE,1246821681
Bromarv,Bromarv,Bromary|Bromarr|Bromarf,59.9917,23.0333,Finland,FI,FIN,Uusimaa,Uusimaa,FI-18,region,,8.0,1574,1574,3,Europe/Helsinki,FALSE,1246048860
Purmo,Purmo,,63.5222,22.9593,Finland,FI,FIN,Pohjanmaa,Pohjanmaa,FI-12,region,,6.0,1560,1560,3,Europe/Helsinki,FALSE,1246822877
Kinnula,Kinnula,,63.3667,24.9667,Finland,FI,FIN,Keski-Suomi,Keski-Suomi,FI-08,region,minor,3.0,1554,1554,3,Europe/Helsinki,FALSE,1246263035
Suoniemi,Suoniemi,,61.4411,23.2150,Finland,FI,FIN,Pirkanmaa,Pirkanmaa,FI-11,region,,17.4,1544,1544,3,Europe/Helsinki,FALSE,1246239201
Hammarland,Hammarland,Khammarland,60.2167,19.7333,Finland,FI,FIN,Åland,Aland,FI-01,region,minor,11.1,1537,1537,3,Europe/Mariehamn,FALSE,1246422359
Tuulos,Tuulos,,61.1167,24.8319,Finland,FI,FIN,Kanta-Häme,Kanta-Hame,FI-06,region,,8.9,1531,1531,3,Europe/Helsinki,FALSE,1246010433
Karjalohja,Karjalohja,Karislojo,60.2417,23.7167,Finland,FI,FIN,Uusimaa,Uusimaa,FI-18,region,,9.0,1492,1492,3,Europe/Helsinki,FALSE,1246782760
Siikainen,Siikainen,,61.8833,21.8167,Finland,FI,FIN,Satakunta,Satakunta,FI-17,region,minor,3.0,1476,1476,3,Europe/Helsinki,FALSE,1246495302
Hinnerjoki,Hinnerjoki,,60.9959,21.9908,Finland,FI,FIN,Satakunta,Satakunta,FI-17,region,,1.3,1469,1469,3,Europe/Helsinki,FALSE,1246264918
Artjärvi,Artjarvi,,60.7467,26.0533,Finland,FI,FIN,Päijät-Häme,Paijat-Hame,FI-16,region,,7.4,1455,1455,3,Europe/Helsinki,FALSE,1246002552
Monninkylä,Monninkyla,,60.4928,25.5387,Finland,FI,FIN,Uusimaa,Uusimaa,FI-18,region,,26.4,1443,1443,3,Europe/Helsinki,FALSE,1246615082
Liljendal,Liljendal,,60.5750,26.0583,Finland,FI,FIN,Uusimaa,Uusimaa,FI-18,region,,12.0,1440,1440,3,Europe/Helsinki,FALSE,1246858046
Lemu,Lemu,Lemo,60.5694,21.9681,Finland,FI,FIN,Varsinais-Suomi,Varsinais-Suomi,FI-19,region,,30.3,1432,1432,3,Europe/Helsinki,TRUE,1246731486
Ylämaa,Ylamaa,,60.8000,28.0083,Finland,FI,FIN,Etelä-Karjala,Etela-Karjala,FI-02,region,,3.5,1427,1427,3,Europe/Helsinki,FALSE,1246978848
Nagu,Nagu,Nauvo,60.1931,21.9069,Finland,FI,FIN,Varsinais-Suomi,Varsinais-Suomi,FI-19,region,,0.8,1424,1424,3,Europe/Helsinki,FALSE,1246626126
Muurla,Muurla,,60.3500,23.2806,Finland,FI,FIN,Varsinais-Suomi,Varsinais-Suomi,FI-19,region,,17.0,1414,1414,3,Europe/Helsinki,FALSE,1246872102
Saari,Saari,,61.6958,29.6833,Finland,FI,FIN,Etelä-Karjala,Etela-Karjala,FI-02,region,,8.2,1411,1411,3,Europe/Helsinki,FALSE,1246139071
Somerniemi,Somerniemi,,60.5667,23.7167,Finland,FI,FIN,Varsinais-Suomi,Varsinais-Suomi,FI-19,region,,13.4,1409,1409,3,Europe/Helsinki,FALSE,1246412780
Merimasku,Merimasku,Merimasko,60.4819,21.8708,Finland,FI,FIN,Varsinais-Suomi,Varsinais-Suomi,FI-19,region,,27.1,1384,1384,3,Europe/Helsinki,FALSE,1246909217
Merikaarto,Merikaarto,,63.0650,21.9591,Finland,FI,FIN,Pohjanmaa,Pohjanmaa,FI-12,region,,29.0,1382,1382,4,Europe/Helsinki,FALSE,1246652526
Oripää,Oripaa,,60.8556,22.6972,Finland,FI,FIN,Varsinais-Suomi,Varsinais-Suomi,FI-19,region,minor,11.7,1377,1377,3,Europe/Helsinki,FALSE,1246000011
Godby,Godby,,60.2300,19.9881,Finland,FI,FIN,Åland,Aland,FI-01,region,minor,21.9,1369,1369,3,Europe/Mariehamn,FALSE,1246929863
Konginkangas,Konginkangas,,62.7792,25.8064,Finland,FI,FIN,Keski-Suomi,Keski-Suomi,FI-08,region,,4.5,1350,1350,3,Europe/Helsinki,FALSE,1246676489
Suodenniemi,Suodenniemi,,61.5583,22.7806,Finland,FI,FIN,Pirkanmaa,Pirkanmaa,FI-11,region,,18.7,1349,1349,3,Europe/Helsinki,FALSE,1246662688
Rautio,Rautio,,64.0747,24.2083,Finland,FI,FIN,Pohjois-Pohjanmaa,Pohjois-Pohjanmaa,FI-14,region,,7.1,1348,1348,3,Europe/Helsinki,FALSE,1246619446
Enonkoski,Enonkoski,,62.0917,28.9333,Finland,FI,FIN,Etelä-Savo,Etela-Savo,FI-04,region,minor,3.2,1341,1341,3,Europe/Helsinki,FALSE,1246364627
Saloinen,Saloinen,Salo,64.6561,24.4680,Finland,FI,FIN,Pohjois-Pohjanmaa,Pohjois-Pohjanmaa,FI-14,region,,6.1,1318,1318,3,Europe/Helsinki,FALSE,1246214950
Ristijärvi,Ristijarvi,,64.5050,28.2167,Finland,FI,FIN,Kainuu,Kainuu,FI-05,region,minor,1.6,1317,1317,3,Europe/Helsinki,FALSE,1246554901
Suomusjärvi,Suomusjarvi,,60.3792,23.5903,Finland,FI,FIN,Varsinais-Suomi,Varsinais-Suomi,FI-19,region,,7.4,1299,1299,3,Europe/Helsinki,FALSE,1246289973
Sumiainen,Sumiainen,,62.6569,26.0472,Finland,FI,FIN,Keski-Suomi,Keski-Suomi,FI-08,region,,5.7,1289,1289,3,Europe/Helsinki,FALSE,1246594961
Kannonkoski,Kannonkoski,,62.9750,25.2667,Finland,FI,FIN,Keski-Suomi,Keski-Suomi,FI-08,region,minor,2.3,1269,1269,3,Europe/Helsinki,FALSE,1246257691
Kiikoinen,Kiikoinen,,61.4500,22.5750,Finland,FI,FIN,Satakunta,Satakunta,FI-17,region,,8.6,1265,1265,3,Europe/Helsinki,FALSE,1246753780
Kaskinen,Kaskinen,Kaskö|Kaskë,62.3667,21.2500,Finland,FI,FIN,Pohjanmaa,Pohjanmaa,FI-12,region,minor,7.6,1256,1256,3,Europe/Helsinki,FALSE,1246129111
Utsjoki,Utsjoki,Ohcejohka|Utsyoki,69.9000,27.0167,Finland,FI,FIN,Lappi,Lappi,FI-10,region,minor,0.2,1242,1242,3,Europe/Helsinki,FALSE,1246685798
Savonranta,Savonranta,,62.1736,29.2069,Finland,FI,FIN,Etelä-Savo,Etela-Savo,FI-04,region,,21.0,1206,1206,3,Europe/Helsinki,FALSE,1246445047
Sammatti,Sammatti,,60.3208,23.8208,Finland,FI,FIN,Uusimaa,Uusimaa,FI-18,region,,16.0,1203,1203,3,Europe/Helsinki,FALSE,1246785429
Karijoki,Karijoki,Bötom,62.3083,21.7083,Finland,FI,FIN,Etelä-Pohjanmaa,Etela-Pohjanmaa,FI-03,region,minor,6.5,1200,1200,3,Europe/Helsinki,FALSE,1246225924
Petalax,Petalax,Petalaks|Petolahti,62.8389,21.4231,Finland,FI,FIN,Pohjanmaa,Pohjanmaa,FI-12,region,,1.0,1200,1200,3,Europe/Helsinki,FALSE,1246255910
Nuijamaa,Nuijamaa,,60.9592,28.5481,Finland,FI,FIN,Etelä-Karjala,Etela-Karjala,FI-02,region,,8.8,1199,1199,3,Europe/Helsinki,FALSE,1246651011
Kyyjärvi,Kyyjarvi,,63.0500,24.5633,Finland,FI,FIN,Keski-Suomi,Keski-Suomi,FI-08,region,minor,2.7,1196,1196,3,Europe/Helsinki,FALSE,1246366185
Mellilä,Mellila,,60.7792,22.9250,Finland,FI,FIN,Varsinais-Suomi,Varsinais-Suomi,FI-19,region,,10.6,1178,1178,3,Europe/Helsinki,FALSE,1246751126
Virtasalmi,Virtasalmi,,62.1333,27.4639,Finland,FI,FIN,Etelä-Savo,Etela-Savo,FI-04,region,,10.8,1158,1158,3,Europe/Helsinki,FALSE,1246383546
Leivonmäki,Leivonmaki,,61.9153,26.1236,Finland,FI,FIN,Keski-Suomi,Keski-Suomi,FI-08,region,,2.8,1134,1134,3,Europe/Helsinki,FALSE,1246096512
Merijärvi,Merijarvi,,64.2967,24.4467,Finland,FI,FIN,Pohjois-Pohjanmaa,Pohjois-Pohjanmaa,FI-14,region,minor,4.4,1134,1134,3,Europe/Helsinki,FALSE,1246551389
Ullava,Ullava,,63.7069,23.8931,Finland,FI,FIN,Keski-Pohjanmaa,Keski-Pohjanmaa,FI-07,region,,33.6,1102,1102,4,Europe/Helsinki,FALSE,1246204609
Reposaari,Reposaari,,61.6132,21.4457,Finland,FI,FIN,Satakunta,Satakunta,FI-17,region,,101.5,1099,1099,3,Europe/Helsinki,FALSE,1246005082
Metsämaa,Metsamaa,,60.9378,23.1570,Finland,FI,FIN,Varsinais-Suomi,Varsinais-Suomi,FI-19,region,,11.6,1079,1079,3,Europe/Helsinki,FALSE,1246600360
Lokalahti,Lokalahti,Lokala,60.6824,21.4645,Finland,FI,FIN,Varsinais-Suomi,Varsinais-Suomi,FI-19,region,,9.9,1065,1065,3,Europe/Helsinki,FALSE,1246959579
Kivijärvi,Kivijarvi,,63.1200,25.0750,Finland,FI,FIN,Keski-Suomi,Keski-Suomi,FI-08,region,minor,2.2,1064,1064,3,Europe/Helsinki,FALSE,1246900011
Savukoski,Savukoski,Sayukoski|Saukoski,67.2917,28.1667,Finland,FI,FIN,Lappi,Lappi,FI-10,region,minor,0.1,1061,1061,3,Europe/Helsinki,FALSE,1246356234
Kuhmalahti,Kuhmalahti,,61.5050,24.5667,Finland,FI,FIN,Pirkanmaa,Pirkanmaa,FI-11,region,,4.8,1056,1056,3,Europe/Helsinki,FALSE,1246220288
Tottijärvi,Tottijarvi,,61.3978,23.3428,Finland,FI,FIN,Pirkanmaa,Pirkanmaa,FI-11,region,,12.1,1052,1052,3,Europe/Helsinki,FALSE,1246099089
Halsua,Halsua,,63.4633,24.1667,Finland,FI,FIN,Keski-Pohjanmaa,Keski-Pohjanmaa,FI-07,region,minor,2.5,1052,1052,3,Europe/Helsinki,FALSE,1246238731
Maxmo,Maxmo,Maksmo|Maksamaa,63.2139,22.0597,Finland,FI,FIN,Pohjanmaa,Pohjanmaa,FI-12,region,,8.0,1037,1037,3,Europe/Helsinki,FALSE,1246549886
Sund,Sund,,60.2500,20.1167,Finland,FI,FIN,Åland,Aland,FI-01,region,,5.6,1031,1031,3,Europe/Mariehamn,FALSE,1246254504
Tervajoki,Tervajoki,"Tervajoen Kylä",63.0054,22.1416,Finland,FI,FIN,Pohjanmaa,Pohjanmaa,FI-12,region,,12.6,1027,1027,4,Europe/Helsinki,FALSE,1246577298
Saukkola,Saukkola,,60.3790,23.9595,Finland,FI,FIN,Uusimaa,Uusimaa,FI-18,region,,13.3,1012,1012,3,Europe/Helsinki,FALSE,1246261157
Pohjaslahti,Pohjaslahti,,62.1540,24.1322,Finland,FI,FIN,Pirkanmaa,Pirkanmaa,FI-11,region,,5.8,1006,1006,4,Europe/Helsinki,FALSE,1246365623
Söörmarkku,Soormarkku,Söörmarku,61.5670,21.8162,Finland,FI,FIN,Satakunta,Satakunta,FI-17,region,,101.5,1004,1004,4,Europe/Helsinki,FALSE,1246384009
Inkere,Inkere,,60.4333,23.2833,Finland,FI,FIN,Varsinais-Suomi,Varsinais-Suomi,FI-19,region,,25.9,1000,1000,4,Europe/Helsinki,FALSE,1246986147
Muurola,Muurola,,66.3750,25.3818,Finland,FI,FIN,Lappi,Lappi,FI-10,region,,8.2,1000,1000,4,Europe/Helsinki,FALSE,1246581061
Fiskars,Fiskars,Fiskari,60.1297,23.5422,Finland,FI,FIN,Uusimaa,Uusimaa,FI-18,region,,24.4,1000,1000,3,Europe/Helsinki,FALSE,1246928076
Hailuoto,Hailuoto,Ailuoto|Karlö,65.0167,24.7167,Finland,FI,FIN,Pohjois-Pohjanmaa,Pohjois-Pohjanmaa,FI-14,region,minor,4.8,993,993,3,Europe/Helsinki,FALSE,1246050792
Hähkänä,Hahkana,,60.4293,23.2184,Finland,FI,FIN,Varsinais-Suomi,Varsinais-Suomi,FI-19,region,,25.9,982,982,4,Europe/Helsinki,FALSE,1246818717
Askainen,Askainen,Askas,60.5722,21.8653,Finland,FI,FIN,Varsinais-Suomi,Varsinais-Suomi,FI-19,region,,15.6,959,959,3,Europe/Helsinki,FALSE,1246332055
Pelkosenniemi,Pelkosenniemi,,67.1083,27.5167,Finland,FI,FIN,Lappi,Lappi,FI-10,region,minor,0.5,958,958,3,Europe/Helsinki,FALSE,1246175858
Pylkönmäki,Pylkonmaki,,62.6681,24.8056,Finland,FI,FIN,Keski-Suomi,Keski-Suomi,FI-08,region,,2.4,956,956,3,Europe/Helsinki,FALSE,1246114102
Angelniemi,Angelniemi,,60.3000,22.9000,Finland,FI,FIN,Varsinais-Suomi,Varsinais-Suomi,FI-19,region,,16.5,951,951,3,Europe/Helsinki,FALSE,1246535673
Kustavi,Kustavi,Gustaf|Gustavs,60.5467,21.3583,Finland,FI,FIN,Varsinais-Suomi,Varsinais-Suomi,FI-19,region,minor,1.6,950,950,3,Europe/Helsinki,FALSE,1246005700
Eckerö,Eckero,,60.2167,19.5500,Finland,FI,FIN,Åland,Aland,FI-01,region,minor,1.4,935,935,3,Europe/Mariehamn,FALSE,1246077056
Karjala,Karjala,,60.7862,22.0739,Finland,FI,FIN,Varsinais-Suomi,Varsinais-Suomi,FI-19,region,,8.9,902,902,3,Europe/Helsinki,FALSE,1246886813
Helsingby,Helsingby,,63.0299,21.8208,Finland,FI,FIN,Pohjanmaa,Pohjanmaa,FI-12,region,,24.1,864,864,4,Europe/Helsinki,FALSE,1246584745
Korpo,Korpo,"Korppoo|Korppoon Kunta|Korpo Kommun",60.1625,21.5625,Finland,FI,FIN,Varsinais-Suomi,Varsinais-Suomi,FI-19,region,,5.1,860,860,3,Europe/Helsinki,FALSE,1246000336
Läyliäinen,Layliainen,,60.6261,24.4607,Finland,FI,FIN,Kanta-Häme,Kanta-Hame,FI-06,region,,13.3,851,851,3,Europe/Helsinki,FALSE,1246804406
Panelia,Panelia,,61.2246,21.9746,Finland,FI,FIN,Satakunta,Satakunta,FI-17,region,,21.2,850,850,3,Europe/Helsinki,FALSE,1246101525
Räyrinki,Rayrinki,,63.3759,23.8180,Finland,FI,FIN,Keski-Pohjanmaa,Keski-Pohjanmaa,FI-07,region,,6.4,850,850,4,Europe/Helsinki,FALSE,1246480696
Koskue,Koskue,,62.3500,22.8500,Finland,FI,FIN,Etelä-Pohjanmaa,Etela-Pohjanmaa,FI-03,region,,9.3,850,850,3,Europe/Helsinki,FALSE,1246418537
Sinettä,Sinetta,,66.6445,25.4679,Finland,FI,FIN,Lappi,Lappi,FI-10,region,,8.2,849,849,4,Europe/Helsinki,FALSE,1246951164
Pyhämaa,Pyhamaa,"Pyhämaan luoto|Pyukhemaa",60.9517,21.3662,Finland,FI,FIN,Varsinais-Suomi,Varsinais-Suomi,FI-19,region,,11.5,848,848,3,Europe/Helsinki,FALSE,1246754138
Hitis,Hitis,Hiitinen|Hiittinen,59.8833,22.5167,Finland,FI,FIN,Varsinais-Suomi,Varsinais-Suomi,FI-19,region,,7.4,811,811,3,Europe/Helsinki,FALSE,1246700261
Västanfjärd,Vastanfjard,Vestanfjärd,60.0500,22.6667,Finland,FI,FIN,Varsinais-Suomi,Varsinais-Suomi,FI-19,region,,8.3,799,799,3,Europe/Helsinki,FALSE,1246120435
Lestijärvi,Lestijarvi,,63.5250,24.6667,Finland,FI,FIN,Keski-Pohjanmaa,Keski-Pohjanmaa,FI-07,region,minor,1.4,798,798,3,Europe/Helsinki,FALSE,1246094809
Suomenniemi,Suomenniemi,,61.3250,27.4500,Finland,FI,FIN,Etelä-Karjala,Etela-Karjala,FI-02,region,,2.1,784,784,3,Europe/Helsinki,FALSE,1246075884
Luhanka,Luhanka,,61.8000,25.7000,Finland,FI,FIN,Keski-Suomi,Keski-Suomi,FI-08,region,minor,3.5,761,761,3,Europe/Helsinki,FALSE,1246705686
Vierumäki,Vierumaki,,61.1061,25.9306,Finland,FI,FIN,Päijät-Häme,Paijat-Hame,FI-16,region,,27.6,760,760,3,Europe/Helsinki,FALSE,1246742050
Pusula,Pusula,,60.4728,23.9814,Finland,FI,FIN,Uusimaa,Uusimaa,FI-18,region,,13.3,741,741,3,Europe/Helsinki,FALSE,1246731972
Särkisalo,Sarkisalo,Finby|Finnby,60.1139,22.9500,Finland,FI,FIN,Varsinais-Suomi,Varsinais-Suomi,FI-19,region,,4.7,710,710,3,Europe/Helsinki,FALSE,1246822415
Vesivehmaa,Vesivehmaa,,61.1333,25.6590,Finland,FI,FIN,Päijät-Häme,Paijat-Hame,FI-16,region,,14.4,700,700,4,Europe/Helsinki,FALSE,1246190416
Temmes,Temmes,,64.6667,25.6000,Finland,FI,FIN,Pohjois-Pohjanmaa,Pohjois-Pohjanmaa,FI-14,region,,6.0,680,680,3,Europe/Helsinki,FALSE,1246112972
Jakkukylä,Jakkukyla,Jakku,65.3106,25.6171,Finland,FI,FIN,Pohjois-Pohjanmaa,Pohjois-Pohjanmaa,FI-14,region,,3.0,647,647,4,Europe/Helsinki,FALSE,1246659187
Värtsilä,Vartsila,,62.2011,30.6103,Finland,FI,FIN,Pohjois-Karjala,Pohjois-Karjala,FI-13,region,,5.0,636,636,3,Europe/Helsinki,FALSE,1246000534
Houtskär,Houtskar,Houtskari,60.2222,21.3722,Finland,FI,FIN,Varsinais-Suomi,Varsinais-Suomi,FI-19,region,,1.1,633,633,3,Europe/Helsinki,FALSE,1246333302
Kalkkinen,Kalkkinen,,61.2969,25.6811,Finland,FI,FIN,Päijät-Häme,Paijat-Hame,FI-16,region,,14.4,600,600,4,Europe/Helsinki,FALSE,1246956680
Kitula,Kitula,,60.3697,23.5905,Finland,FI,FIN,Varsinais-Suomi,Varsinais-Suomi,FI-19,region,,25.9,577,577,3,Europe/Helsinki,FALSE,1246900727
Föglö,Foglo,Fögleö,60.0306,20.3875,Finland,FI,FIN,Åland,Aland,FI-01,region,minor,4.9,561,532,3,Europe/Mariehamn,FALSE,1246536067
Äkäslompolo,Akaslompolo,,67.6043,24.1555,Finland,FI,FIN,Lappi,Lappi,FI-10,region,,1.6,556,556,3,Europe/Helsinki,FALSE,1246281145
Piippola,Piippola,,64.1778,25.9653,Finland,FI,FIN,Pohjois-Pohjanmaa,Pohjois-Pohjanmaa,FI-14,region,,1.2,550,550,4,Europe/Helsinki,FALSE,1246796817
Luusua,Luusua,,66.4840,27.3005,Finland,FI,FIN,Lappi,Lappi,FI-10,region,,1.9,550,550,4,Europe/Helsinki,FALSE,1246470913
Kuusisto,Kuusisto,,60.3874,22.4003,Finland,FI,FIN,Varsinais-Suomi,Varsinais-Suomi,FI-19,region,,26.6,543,543,4,Europe/Helsinki,FALSE,1246197006
Kodisjoki,Kodisjoki,,61.0278,21.6875,Finland,FI,FIN,Satakunta,Satakunta,FI-17,region,,12.7,518,518,3,Europe/Helsinki,FALSE,1246753527
Uukuniemi,Uukuniemi,,61.7861,30.0069,Finland,FI,FIN,Etelä-Karjala,Etela-Karjala,FI-02,region,,8.2,516,516,3,Europe/Helsinki,FALSE,1246712231
Brändö,Brando,,60.4117,21.0450,Finland,FI,FIN,Åland,Aland,FI-01,region,,5.4,515,515,4,Europe/Mariehamn,TRUE,1246933854
Rahja,Rahja,Rahjankylä,64.2072,23.7650,Finland,FI,FIN,Pohjois-Pohjanmaa,Pohjois-Pohjanmaa,FI-14,region,,13.8,512,512,4,Europe/Helsinki,FALSE,1246224824
Selänpää,Selanpaa,,61.0555,26.7309,Finland,FI,FIN,Kymenlaakso,Kymenlaakso,FI-09,region,,32.8,500,500,4,Europe/Helsinki,FALSE,1246271606
Geta,Geta,,60.3750,19.8500,Finland,FI,FIN,Åland,Aland,FI-01,region,minor,5.9,495,495,3,Europe/Mariehamn,FALSE,1246756365
Karunki,Karunki,,66.0333,24.0167,Finland,FI,FIN,Lappi,Lappi,FI-10,region,,18.5,483,483,3,Europe/Helsinki,FALSE,1246569670
Tölby,Tolby,,63.0155,21.6935,Finland,FI,FIN,Pohjanmaa,Pohjanmaa,FI-12,region,,24.1,480,480,4,Europe/Helsinki,FALSE,1246444225
Lappohja,Lappohja,Lappvik,59.9028,23.2417,Finland,FI,FIN,Uusimaa,Uusimaa,FI-18,region,,74.2,475,475,3,Europe/Helsinki,FALSE,1246786308
Västergeta,Vastergeta,,60.3745,19.8446,Finland,FI,FIN,Åland,Aland,FI-01,region,,5.6,452,452,4,Europe/Mariehamn,FALSE,1246448843
Venetheitto,Venetheitto,Veneheitto,64.4431,26.5267,Finland,FI,FIN,Kainuu,Kainuu,FI-05,region,,2.1,450,450,4,Europe/Helsinki,FALSE,1246179598
Vårdö,Vardo,,60.2417,20.3750,Finland,FI,FIN,Åland,Aland,FI-01,region,minor,0.9,441,441,3,Europe/Mariehamn,FALSE,1246553631
Aitoo,Aitoo,,61.3390,24.4943,Finland,FI,FIN,Pirkanmaa,Pirkanmaa,FI-11,region,,11.6,403,403,3,Europe/Helsinki,FALSE,1246397941
Urajärvi,Urajarvi,,61.1308,25.7729,Finland,FI,FIN,Päijät-Häme,Paijat-Hame,FI-16,region,,14.4,400,400,4,Europe/Helsinki,FALSE,1246659998
Lumparland,Lumparland,,60.1167,20.2583,Finland,FI,FIN,Åland,Aland,FI-01,region,,7.8,395,395,3,Europe/Mariehamn,FALSE,1246000044
Pöljä,Polja,,63.1486,27.6042,Finland,FI,FIN,Pohjois-Savo,Pohjois-Savo,FI-15,region,,54.8,377,377,3,Europe/Helsinki,FALSE,1246950145
Köyhäjoki,Koyhajoki,,63.5654,23.9480,Finland,FI,FIN,Keski-Pohjanmaa,Keski-Pohjanmaa,FI-07,region,,12.2,370,370,4,Europe/Helsinki,FALSE,1246163113
Alapitkä,Alapitka,,63.2010,27.5406,Finland,FI,FIN,Pohjois-Savo,Pohjois-Savo,FI-15,region,,8.6,361,361,4,Europe/Helsinki,FALSE,1246936156
Kaukonen,Kaukonen,,67.4814,24.8983,Finland,FI,FIN,Lappi,Lappi,FI-10,region,,0.9,350,350,4,Europe/Helsinki,FALSE,1246222075
Vuotso,Vuotso,,68.1077,27.1269,Finland,FI,FIN,Lappi,Lappi,FI-10,region,,0.8,350,350,4,Europe/Helsinki,FALSE,1246037808
Sevettijärvi,Sevettijarvi,Čeavetjávri|Čevetjävri|Če´vetjäu´rr,69.5167,28.6333,Finland,FI,FIN,Lappi,Lappi,FI-10,region,,0.4,350,350,3,Europe/Helsinki,FALSE,1246212496
Törmänen,Tormanen,Dearpmáš|Tiärmáá,68.7083,27.7778,Finland,FI,FIN,Lappi,Lappi,FI-10,region,,0.4,348,348,3,Europe/Helsinki,FALSE,1246405883
Sieppijärvi,Sieppijarvi,,67.1514,23.9861,Finland,FI,FIN,Lappi,Lappi,FI-10,region,,1.6,345,345,4,Europe/Helsinki,FALSE,1246102962
Numminen,Numminen,Nummistenkylä,60.5597,25.2833,Finland,FI,FIN,Uusimaa,Uusimaa,FI-18,region,,81.8,329,329,3,Europe/Helsinki,FALSE,1246957095
Kumlinge,Kumlinge,,60.2583,20.7783,Finland,FI,FIN,Åland,Aland,FI-01,region,minor,3.2,317,317,3,Europe/Mariehamn,FALSE,1246557810
Liakka,Liakka,Yliliakka,65.9324,24.2009,Finland,FI,FIN,Lappi,Lappi,FI-10,region,,18.5,303,303,4,Europe/Helsinki,FALSE,1246861024
Karigasniemi,Karigasniemi,Niittyvuopio|Niittyvuorio|Nittyvuopio|Gáregasnjárga,69.3983,25.8550,Finland,FI,FIN,Lappi,Lappi,FI-10,region,,0.5,300,300,3,Europe/Helsinki,FALSE,1246803196
Luhalahti,Luhalahti,,61.7746,23.2781,Finland,FI,FIN,Pirkanmaa,Pirkanmaa,FI-11,region,,9.4,300,300,4,Europe/Helsinki,FALSE,1246834090
Björköby,Bjorkoby,Biörkö|Björkö,63.3500,21.3167,Finland,FI,FIN,Pohjanmaa,Pohjanmaa,FI-12,region,,24.1,294,294,3,Europe/Helsinki,FALSE,1246952229
Paltaniemi,Paltaniemi,,64.2808,27.6517,Finland,FI,FIN,Kainuu,Kainuu,FI-05,region,,20.3,291,291,3,Europe/Helsinki,FALSE,1246865930
Vaalajärvi,Vaalajarvi,,67.4178,26.2350,Finland,FI,FIN,Lappi,Lappi,FI-10,region,,0.8,286,286,4,Europe/Helsinki,FALSE,1246307882
Nyrölä,Nyrola,,62.3631,25.4831,Finland,FI,FIN,Keski-Suomi,Keski-Suomi,FI-08,region,,122.1,275,275,3,Europe/Helsinki,FALSE,1246173403
Hautajärvi,Hautajarvi,Hautakylä,66.5144,29.0369,Finland,FI,FIN,Lappi,Lappi,FI-10,region,,0.6,270,270,3,Europe/Helsinki,FALSE,1246543986
Störsvik,Storsvik,Storsby,60.0667,24.2833,Finland,FI,FIN,Uusimaa,Uusimaa,FI-18,region,,26.3,268,268,3,Europe/Helsinki,FALSE,1246832289
Metsäkylä,Metsakyla,,60.6540,27.0740,Finland,FI,FIN,Kymenlaakso,Kymenlaakso,FI-09,region,,32.7,262,262,4,Europe/Helsinki,TRUE,1246104465
Kuortti,Kuortti,,61.4219,26.4111,Finland,FI,FIN,Etelä-Savo,Etela-Savo,FI-04,region,,3.8,252,252,3,Europe/Helsinki,FALSE,1246283575
Kökar,Kokar,,59.9200,20.9083,Finland,FI,FIN,Åland,Aland,FI-01,region,,0.1,250,250,3,Europe/Mariehamn,FALSE,1246279774
Iniö,Inio,,60.3972,21.3861,Finland,FI,FIN,Varsinais-Suomi,Varsinais-Suomi,FI-19,region,,19.9,237,237,3,Europe/Helsinki,FALSE,1246065369
Velkua,Velkua,,60.4667,21.6667,Finland,FI,FIN,Varsinais-Suomi,Varsinais-Suomi,FI-19,region,,7.5,233,233,3,Europe/Helsinki,FALSE,1246411599
Veikars,Veikars,Veikarsby|Weikar|Veikkaala,63.0823,21.8870,Finland,FI,FIN,Pohjanmaa,Pohjanmaa,FI-12,region,,24.1,223,223,4,Europe/Helsinki,FALSE,1246469961
Lampinsaari,Lampinsaari,,64.4097,25.1319,Finland,FI,FIN,Pohjois-Pohjanmaa,Pohjois-Pohjanmaa,FI-14,region,,6.7,216,216,4,Europe/Helsinki,FALSE,1246942588
Juornaa,Juornaa,Juornaankylä,60.5683,25.7583,Finland,FI,FIN,Uusimaa,Uusimaa,FI-18,region,,26.4,214,214,3,Europe/Helsinki,FALSE,1246101027
Ylikulma,Ylikulma,,60.2388,23.2586,Finland,FI,FIN,Varsinais-Suomi,Varsinais-Suomi,FI-19,region,,25.9,202,202,4,Europe/Helsinki,FALSE,1246999995
Kaamanen,Kaamanen,Kaamâs|Gámas,69.1030,27.1960,Finland,FI,FIN,Lappi,Lappi,FI-10,region,,0.4,200,200,3,Europe/Helsinki,FALSE,1246535353
Nuorgam,Nuorgam,Njuorggán|Nurogam|Nuorgami,70.0806,27.8750,Finland,FI,FIN,Lappi,Lappi,FI-10,region,,0.7,200,200,3,Europe/Helsinki,FALSE,1246984881
Köngäs,Kongas,,67.8735,24.8553,Finland,FI,FIN,Lappi,Lappi,FI-10,region,,0.9,190,190,4,Europe/Helsinki,FALSE,1246385181
Vikajärvi,Vikajarvi,Vikaköngäs,66.6222,26.2000,Finland,FI,FIN,Lappi,Lappi,FI-10,region,,8.2,180,180,4,Europe/Helsinki,FALSE,1246802430
Raattama,Raattama,,68.1389,24.2208,Finland,FI,FIN,Lappi,Lappi,FI-10,region,,0.9,160,160,4,Europe/Helsinki,FALSE,1246640504
Olhava,Olhava,,65.4069,25.3475,Finland,FI,FIN,Pohjois-Pohjanmaa,Pohjois-Pohjanmaa,FI-14,region,,6.7,150,150,4,Europe/Helsinki,FALSE,1246086770
Vintturi,Vintturi,,63.6108,23.7700,Finland,FI,FIN,Keski-Pohjanmaa,Keski-Pohjanmaa,FI-07,region,,12.2,150,150,4,Europe/Helsinki,FALSE,1246757348
Moksinkylä,Moksinkyla,Moksi,62.0981,25.4242,Finland,FI,FIN,Keski-Suomi,Keski-Suomi,FI-08,region,,122.1,141,141,4,Europe/Helsinki,FALSE,1246129335
Kaaresuvanto,Kaaresuvanto,Karesuando|Karasâvvon|Karesuanto|Gárasavvon,68.4492,22.4844,Finland,FI,FIN,Lappi,Lappi,FI-10,region,,0.2,140,140,3,Europe/Helsinki,FALSE,1246678126
Kilpisjärvi,Kilpisjarvi,Gilbbesjávri,69.0472,20.7972,Finland,FI,FIN,Lappi,Lappi,FI-10,region,,0.6,114,114,3,Europe/Helsinki,FALSE,1246161528
Oravi,Oravi,,62.1147,28.6056,Finland,FI,FIN,Etelä-Savo,Etela-Savo,FI-04,region,,21.0,100,100,4,Europe/Helsinki,FALSE,1246182039
Palojoensuu,Palojoensuu,Bálojohnjálbmi,68.2833,23.0667,Finland,FI,FIN,Lappi,Lappi,FI-10,region,,0.2,100,100,3,Europe/Helsinki,FALSE,1246482485
Lokka,Lokka,,67.8182,27.7394,Finland,FI,FIN,Lappi,Lappi,FI-10,region,,0.8,100,100,4,Europe/Helsinki,FALSE,1246673876
Nunnanen,Nunnanen,Njunnás,68.3983,24.4983,Finland,FI,FIN,Lappi,Lappi,FI-10,region,,0.2,100,100,4,Europe/Helsinki,FALSE,1246709460
Kätkäsuvanto,Katkasuvanto,Kätkesuanto|Geatkesavvon|Kotkasuvanto,68.1116,23.3422,Finland,FI,FIN,Lappi,Lappi,FI-10,region,,0.7,100,100,4,Europe/Helsinki,FALSE,1246208539
Illoinen,Illoinen,,60.4111,22.1889,Finland,FI,FIN,Varsinais-Suomi,Varsinais-Suomi,FI-19,region,,785.3,93,93,3,Europe/Helsinki,FALSE,1246225329
Sottunga,Sottunga,,60.1333,20.6667,Finland,FI,FIN,Åland,Aland,FI-01,region,minor,0.3,92,92,3,Europe/Mariehamn,FALSE,1246367670
Onkamo,Onkamo,Onkamojärvi,66.7403,29.0692,Finland,FI,FIN,Lappi,Lappi,FI-10,region,,0.6,80,80,4,Europe/Helsinki,FALSE,1246374346
Konnunsuo,Konnunsuo,,61.0300,28.5399,Finland,FI,FIN,Etelä-Karjala,Etela-Karjala,FI-02,region,,51.2,73,73,3,Europe/Helsinki,FALSE,1246236740
Unari,Unari,,67.1431,25.7292,Finland,FI,FIN,Lappi,Lappi,FI-10,region,,0.8,67,67,3,Europe/Helsinki,FALSE,1246703644
Haapasaari,Haapasaari,,60.2879,27.1958,Finland,FI,FIN,Kymenlaakso,Kymenlaakso,FI-09,region,,13.2,66,66,4,Europe/Helsinki,FALSE,1246137049
Rautuskylä,Rautuskyla,Rautusjärvi|Rouduskylä,67.8664,24.9571,Finland,FI,FIN,Lappi,Lappi,FI-10,region,,0.9,57,57,4,Europe/Helsinki,FALSE,1246809310
Utö,Uto,,59.7833,21.3667,Finland,FI,FIN,Varsinais-Suomi,Varsinais-Suomi,FI-19,region,,19.9,40,40,3,Europe/Helsinki,FALSE,1246975432
Niinisaari,Niinisaari,,61.4273,28.1581,Finland,FI,FIN,Etelä-Savo,Etela-Savo,FI-04,region,,3.9,39,39,4,Europe/Helsinki,FALSE,1246096939
Kärilä,Karila,Kärlä,60.6467,23.3660,Finland,FI,FIN,Varsinais-Suomi,Varsinais-Suomi,FI-19,region,,13.4,21,21,4,Europe/Helsinki,FALSE,1246216206
Kuttura,Kuttura,Uusitalo|Guhtur,68.4069,26.4594,Finland,FI,FIN,Lappi,Lappi,FI-10,region,,0.4,17,17,3,Europe/Helsinki,FALSE,1246000183
Pokka,Pokka,,68.1583,25.7667,Finland,FI,FIN,Lappi,Lappi,FI-10,region,,0.9,7,7,4,Europe/Helsinki,FALSE,1246921372
Helsinki,Helsinki,Helsingkiranta|Helsinge|Helsinkiranta|Helsinginkylä,60.6072,21.4450,Finland,FI,FIN,Varsinais-Suomi,Varsinais-Suomi,FI-19,region,,11.7,6,6,3,Europe/Helsinki,FALSE,1246474183
Pylväsjoki,Pylvasjoki,,64.0333,24.7167,Finland,FI,FIN,Pohjois-Pohjanmaa,Pohjois-Pohjanmaa,FI-14,region,,29.3,,,4,Europe/Helsinki,FALSE,1246332267
Köylypolvi,Koylypolvi,,61.2167,22.0667,Finland,FI,FIN,Satakunta,Satakunta,FI-17,region,,21.2,,,4,Europe/Helsinki,FALSE,1246577697
Kopsamo,Kopsamo,,61.8000,24.4500,Finland,FI,FIN,Pirkanmaa,Pirkanmaa,FI-11,region,,7.0,,,5,Europe/Helsinki,FALSE,1246210290
Repoharju,Repoharju,,64.1833,28.3500,Finland,FI,FIN,Kainuu,Kainuu,FI-05,region,,4.0,,,5,Europe/Helsinki,FALSE,1246197635
Viilala,Viilala,,60.6500,22.6000,Finland,FI,FIN,Varsinais-Suomi,Varsinais-Suomi,FI-19,region,,41.3,,,4,Europe/Helsinki,FALSE,1246076106
Ristijärvi,Ristijarvi,,62.4500,26.3500,Finland,FI,FIN,Keski-Suomi,Keski-Suomi,FI-08,region,,9.0,,,5,Europe/Helsinki,FALSE,1246906925
Järvenkylä,Jarvenkyla,,61.6833,23.1667,Finland,FI,FIN,Pirkanmaa,Pirkanmaa,FI-11,region,,22.0,,,4,Europe/Helsinki,FALSE,1246169342
Lylykoski,Lylykoski,,62.7667,30.6833,Finland,FI,FIN,Pohjois-Karjala,Pohjois-Karjala,FI-13,region,,1.7,,,5,Europe/Helsinki,FALSE,1246652605
Hyynilä,Hyynila,,61.5346,22.9538,Finland,FI,FIN,Pirkanmaa,Pirkanmaa,FI-11,region,,18.7,,,4,Europe/Helsinki,FALSE,1246797887
Järvenkylä,Jarvenkyla,,60.2138,22.9170,Finland,FI,FIN,Varsinais-Suomi,Varsinais-Suomi,FI-19,region,,25.9,,,4,Europe/Helsinki,FALSE,1246000366
Voiluoto,Voiluoto,,61.0667,21.4667,Finland,FI,FIN,Satakunta,Satakunta,FI-17,region,,81.1,,,4,Europe/Helsinki,FALSE,1246067667
Koskenjoki,Koskenjoki,Koskenkylä,63.6833,26.5333,Finland,FI,FIN,Pohjois-Savo,Pohjois-Savo,FI-15,region,,6.3,,,5,Europe/Helsinki,FALSE,1246479232
Toivola,Toivola,,61.5000,26.7167,Finland,FI,FIN,Etelä-Savo,Etela-Savo,FI-04,region,,6.0,,,5,Europe/Helsinki,FALSE,1246994440
Talpia,Talpia,,60.7500,23.5333,Finland,FI,FIN,Kanta-Häme,Kanta-Hame,FI-06,region,,10.0,,,5,Europe/Helsinki,FALSE,1246094844
Toivola,Toivola,,62.7667,26.1833,Finland,FI,FIN,Keski-Suomi,Keski-Suomi,FI-08,region,,5.3,,,5,Europe/Helsinki,FALSE,1246458358
Hyrvälä,Hyrvala,Hyrralä,60.9833,24.2667,Finland,FI,FIN,Kanta-Häme,Kanta-Hame,FI-06,region,,28.2,,,4,Europe/Helsinki,FALSE,1246553852
Pälsi,Palsi,,60.6833,24.4667,Finland,FI,FIN,Kanta-Häme,Kanta-Hame,FI-06,region,,13.3,,,4,Europe/Helsinki,FALSE,1246466132
Pöllänperä,Pollanpera,Pölläniemi,64.7500,24.6000,Finland,FI,FIN,Pohjois-Pohjanmaa,Pohjois-Pohjanmaa,FI-14,region,,41.8,,,4,Europe/Helsinki,FALSE,1246565371
Karpinvaara,Karpinvaara,,64.6167,28.3167,Finland,FI,FIN,Kainuu,Kainuu,FI-05,region,,1.5,,,5,Europe/Helsinki,FALSE,1246903199
Virttaa,Virttaa,Virtsanoja,60.9417,22.6750,Finland,FI,FIN,Varsinais-Suomi,Varsinais-Suomi,FI-19,region,,18.4,,,4,Europe/Helsinki,FALSE,1246775120
Koivumäki,Koivumaki,Koivumäenkylä,62.3167,22.5667,Finland,FI,FIN,Etelä-Pohjanmaa,Etela-Pohjanmaa,FI-03,region,,10.8,,,4,Europe/Helsinki,FALSE,1246926580
Koivumäki,Koivumaki,,62.0853,29.3548,Finland,FI,FIN,Etelä-Savo,Etela-Savo,FI-04,region,,9.2,,,5,Europe/Helsinki,FALSE,1246000846
Koivumäki,Koivumaki,,62.4167,28.6667,Finland,FI,FIN,Etelä-Savo,Etela-Savo,FI-04,region,,3.0,,,5,Europe/Helsinki,TRUE,1246184089
Iskola,Iskola,,60.4333,21.8000,Finland,FI,FIN,Varsinais-Suomi,Varsinais-Suomi,FI-19,region,,61.5,,,4,Europe/Helsinki,FALSE,1246217297
Makkaraperä,Makkarapera,Makkeraperä,63.8167,26.3500,Finland,FI,FIN,Pohjois-Savo,Pohjois-Savo,FI-15,region,,6.3,,,5,Europe/Helsinki,FALSE,1246627738
Vääräkoski,Vaarakoski,,62.2167,30.5000,Finland,FI,FIN,Pohjois-Karjala,Pohjois-Karjala,FI-13,region,,5.0,,,5,Europe/Helsinki,FALSE,1246341288
Mämmilä,Mammila,Mämmelä,66.7221,23.9132,Finland,FI,FIN,Lappi,Lappi,FI-10,region,,1.8,,,5,Europe/Helsinki,FALSE,1246476122
Hällinmäki,Hallinmaki,,62.0833,27.5333,Finland,FI,FIN,Etelä-Savo,Etela-Savo,FI-04,region,,10.8,,,4,Europe/Helsinki,FALSE,1246687941
Sikkilä,Sikkila,,61.8333,23.6500,Finland,FI,FIN,Pirkanmaa,Pirkanmaa,FI-11,region,,32.0,,,4,Europe/Helsinki,FALSE,1246762505
Rainebäck,Raineback,,62.7667,21.5500,Finland,FI,FIN,Pohjanmaa,Pohjanmaa,FI-12,region,,10.5,,,4,Europe/Helsinki,FALSE,1246000051
Antinlahti,Antinlahti,,64.3833,27.6000,Finland,FI,FIN,Kainuu,Kainuu,FI-05,region,,3.5,,,5,Europe/Helsinki,FALSE,1246172350
Korja,Korja,,61.0167,27.1000,Finland,FI,FIN,Kymenlaakso,Kymenlaakso,FI-09,region,,32.8,,,4,Europe/Helsinki,FALSE,1246246540
Lintuniemi,Lintuniemi,,61.4667,27.3000,Finland,FI,FIN,Etelä-Savo,Etela-Savo,FI-04,region,,8.3,,,5,Europe/Helsinki,FALSE,1246000060
Ruhkala,Ruhkala,,63.8333,25.8667,Finland,FI,FIN,Pohjois-Pohjanmaa,Pohjois-Pohjanmaa,FI-14,region,,4.2,,,5,Europe/Helsinki,FALSE,1246427898
Kansela,Kansela,,65.9667,29.1833,Finland,FI,FIN,Pohjois-Pohjanmaa,Pohjois-Pohjanmaa,FI-14,region,,2.9,,,5,Europe/Helsinki,FALSE,1246194997
Vilniemi,Vilniemi,,60.2642,22.9571,Finland,FI,FIN,Varsinais-Suomi,Varsinais-Suomi,FI-19,region,,25.9,,,4,Europe/Helsinki,FALSE,1246000212
Haikkaanlahti,Haikkaanlahti,,61.1833,28.0000,Finland,FI,FIN,Etelä-Karjala,Etela-Karjala,FI-02,region,,13.9,,,4,Europe/Helsinki,FALSE,1246546363
Kalajärvi,Kalajarvi,,61.7000,29.4833,Finland,FI,FIN,Etelä-Savo,Etela-Savo,FI-04,region,,7.3,,,5,Europe/Helsinki,FALSE,1246842914
Kurikkala,Kurikkala,Kurikka,64.1500,23.8333,Finland,FI,FIN,Pohjois-Pohjanmaa,Pohjois-Pohjanmaa,FI-14,region,,13.8,,,4,Europe/Helsinki,FALSE,1246608215
Särkijärvi,Sarkijarvi,,62.2000,30.0667,Finland,FI,FIN,Pohjois-Karjala,Pohjois-Karjala,FI-13,region,,9.2,,,5,Europe/Helsinki,FALSE,1246961557
Särkijärvi,Sarkijarvi,,67.9122,23.9340,Finland,FI,FIN,Lappi,Lappi,FI-10,region,,1.4,,,5,Europe/Helsinki,FALSE,1246456239
Särkijärvi,Sarkijarvi,,61.2667,25.6500,Finland,FI,FIN,Päijät-Häme,Paijat-Hame,FI-16,region,,14.4,,,4,Europe/Helsinki,FALSE,1246805096
Nyby,Nyby,,62.6167,21.6167,Finland,FI,FIN,Etelä-Pohjanmaa,Etela-Pohjanmaa,FI-03,region,,9.4,,,5,Europe/Helsinki,FALSE,1246979448
Kahaluoto,Kahaluoto,,61.5667,21.7167,Finland,FI,FIN,Satakunta,Satakunta,FI-17,region,,101.5,,,4,Europe/Helsinki,FALSE,1246115757
Hankavaara,Hankavaara,,62.2167,29.3000,Finland,FI,FIN,Etelä-Savo,Etela-Savo,FI-04,region,,21.0,,,4,Europe/Helsinki,FALSE,1246922512
Nikara,Nikara,,62.5333,25.1500,Finland,FI,FIN,Keski-Suomi,Keski-Suomi,FI-08,region,,2.1,,,5,Europe/Helsinki,FALSE,1246426117
Erämaa,Eramaa,,62.0500,22.1167,Finland,FI,FIN,Etelä-Pohjanmaa,Etela-Pohjanmaa,FI-03,region,,2.9,,,5,Europe/Helsinki,FALSE,1246892505
Nikkaroinen,Nikkaroinen,,61.4000,25.6500,Finland,FI,FIN,Päijät-Häme,Paijat-Hame,FI-16,region,,5.3,,,5,Europe/Helsinki,FALSE,1246651180
Långåsmossen,Langasmossen,,62.3333,21.4500,Finland,FI,FIN,Pohjanmaa,Pohjanmaa,FI-12,region,,9.9,,,5,Europe/Helsinki,FALSE,1246175946
Anttila,Anttila,,63.2667,23.1000,Finland,FI,FIN,Etelä-Pohjanmaa,Etela-Pohjanmaa,FI-03,region,,12.8,,,4,Europe/Helsinki,FALSE,1246944825
Anttila,Anttila,,63.0167,23.6500,Finland,FI,FIN,Etelä-Pohjanmaa,Etela-Pohjanmaa,FI-03,region,,9.7,,,5,Europe/Helsinki,TRUE,1246914597
Anttila,Anttila,,62.5667,22.7000,Finland,FI,FIN,Etelä-Pohjanmaa,Etela-Pohjanmaa,FI-03,region,,9.3,,,5,Europe/Helsinki,TRUE,1246325807
Hirvasvaara,Hirvasvaara,,66.5500,28.6000,Finland,FI,FIN,Lappi,Lappi,FI-10,region,,0.6,,,5,Europe/Helsinki,FALSE,1246251585
Anttila,Anttila,,64.2333,28.0833,Finland,FI,FIN,Kainuu,Kainuu,FI-05,region,,4.0,,,5,Europe/Helsinki,FALSE,1246833479
Anttila,Anttila,,64.2000,28.4833,Finland,FI,FIN,Kainuu,Kainuu,FI-05,region,,4.0,,,5,Europe/Helsinki,TRUE,1246439465
Anttila,Anttila,,65.1333,29.8000,Finland,FI,FIN,Kainuu,Kainuu,FI-05,region,,1.5,,,5,Europe/Helsinki,TRUE,1246596308
Horjankylä,Horjankyla,Horja,61.9333,26.9833,Finland,FI,FIN,Etelä-Savo,Etela-Savo,FI-04,region,,5.2,,,5,Europe/Helsinki,FALSE,1246854117
Sampaanala,Sampaanala,,61.1000,21.5000,Finland,FI,FIN,Satakunta,Satakunta,FI-17,region,,81.1,,,4,Europe/Helsinki,FALSE,1246575252
Anttila,Anttila,Aro,61.0500,26.8333,Finland,FI,FIN,Kymenlaakso,Kymenlaakso,FI-09,region,,32.8,,,4,Europe/Helsinki,FALSE,1246533901
Anttila,Anttila,,63.3833,26.0500,Finland,FI,FIN,Keski-Suomi,Keski-Suomi,FI-08,region,,3.7,,,5,Europe/Helsinki,FALSE,1246770250
Koskenkylä,Koskenkyla,Koskonkylä,65.9333,24.7000,Finland,FI,FIN,Lappi,Lappi,FI-10,region,,13.9,,,4,Europe/Helsinki,FALSE,1246794373
Koskenkylä,Koskenkyla,Koski,61.2667,23.6667,Finland,FI,FIN,Pirkanmaa,Pirkanmaa,FI-11,region,,16.0,,,4,Europe/Helsinki,FALSE,1246208325
Vaaraniemi,Vaaraniemi,,63.3500,29.6500,Finland,FI,FIN,Pohjois-Karjala,Pohjois-Karjala,FI-13,region,,3.1,,,5,Europe/Helsinki,FALSE,1246567763
Koskenkylä,Koskenkyla,Koskisenkylä,62.8167,27.2000,Finland,FI,FIN,Pohjois-Savo,Pohjois-Savo,FI-15,region,,67.0,,,4,Europe/Helsinki,FALSE,1246035326
Pelo,Pelo,,63.7167,23.3333,Finland,FI,FIN,Pohjanmaa,Pohjanmaa,FI-12,region,,9.1,,,5,Europe/Helsinki,FALSE,1246076348
Sarsala,Sarsala,,60.5833,21.6667,Finland,FI,FIN,Varsinais-Suomi,Varsinais-Suomi,FI-19,region,,11.7,,,4,Europe/Helsinki,FALSE,1246683882
Vuonisjärvi,Vuonisjarvi,,63.1500,30.1167,Finland,FI,FIN,Pohjois-Karjala,Pohjois-Karjala,FI-13,region,,3.1,,,5,Europe/Helsinki,FALSE,1246173295
Sikalanmäki,Sikalanmaki,,61.0500,23.6333,Finland,FI,FIN,Pirkanmaa,Pirkanmaa,FI-11,region,,9.8,,,5,Europe/Helsinki,FALSE,1246417113
Jutila,Jutila,,63.2500,23.2833,Finland,FI,FIN,Etelä-Pohjanmaa,Etela-Pohjanmaa,FI-03,region,,12.8,,,4,Europe/Helsinki,FALSE,1246541018
Petääjärvi,Petaajarvi,,61.7833,24.5500,Finland,FI,FIN,Pirkanmaa,Pirkanmaa,FI-11,region,,7.0,,,5,Europe/Helsinki,FALSE,1246852106
Haapalahti,Haapalahti,,65.1833,25.4167,Finland,FI,FIN,Pohjois-Pohjanmaa,Pohjois-Pohjanmaa,FI-14,region,,48.4,,,4,Europe/Helsinki,FALSE,1246873489
Suoniala,Suoniala,,61.0167,27.8167,Finland,FI,FIN,Etelä-Karjala,Etela-Karjala,FI-02,region,,13.7,,,4,Europe/Helsinki,FALSE,1246324601
Korhoskylä,Korhoskyla,,62.2167,23.1833,Finland,FI,FIN,Pirkanmaa,Pirkanmaa,FI-11,region,,5.3,,,5,Europe/Helsinki,FALSE,1246558327
Kontiainen,Kontiainen,,62.5333,23.4667,Finland,FI,FIN,Etelä-Pohjanmaa,Etela-Pohjanmaa,FI-03,region,,11.3,,,4,Europe/Helsinki,FALSE,1246309186
Skravsö,Skravso,,60.2203,22.3633,Finland,FI,FIN,Varsinais-Suomi,Varsinais-Suomi,FI-19,region,,19.9,,,4,Europe/Helsinki,FALSE,1246353362
Terttilä,Terttila,,60.5500,23.5500,Finland,FI,FIN,Varsinais-Suomi,Varsinais-Suomi,FI-19,region,,13.4,,,4,Europe/Helsinki,FALSE,1246349589
Vassor,Vassor,Wassor,63.1820,22.0054,Finland,FI,FIN,Pohjanmaa,Pohjanmaa,FI-12,region,,24.1,,,4,Europe/Helsinki,FALSE,1246399224
Savikulma,Savikulma,,60.2173,23.0818,Finland,FI,FIN,Varsinais-Suomi,Varsinais-Suomi,FI-19,region,,25.9,,,4,Europe/Helsinki,FALSE,1246000161
Murennusmäki,Murennusmaki,,63.8000,26.9167,Finland,FI,FIN,Pohjois-Savo,Pohjois-Savo,FI-15,region,,4.0,,,5,Europe/Helsinki,FALSE,1246667523
Skräbböle,Skrabbole,,60.2800,22.2781,Finland,FI,FIN,Varsinais-Suomi,Varsinais-Suomi,FI-19,region,,19.9,,,4,Europe/Helsinki,FALSE,1246383654
Myllykangas,Myllykangas,,63.0333,23.6167,Finland,FI,FIN,Etelä-Pohjanmaa,Etela-Pohjanmaa,FI-03,region,,9.7,,,5,Europe/Helsinki,FALSE,1246679795
Myllykangas,Myllykangas,,62.9667,24.0833,Finland,FI,FIN,Etelä-Pohjanmaa,Etela-Pohjanmaa,FI-03,region,,8.4,,,5,Europe/Helsinki,TRUE,1246457322
Ruokovirta,Ruokovirta,,63.1000,27.3833,Finland,FI,FIN,Pohjois-Savo,Pohjois-Savo,FI-15,region,,7.9,,,5,Europe/Helsinki,FALSE,1246702680
Horja,Horja,,60.4703,21.8803,Finland,FI,FIN,Varsinais-Suomi,Varsinais-Suomi,FI-19,region,,61.5,,,4,Europe/Helsinki,FALSE,1246290564
Seppämäki,Seppamaki,,60.1500,23.0000,Finland,FI,FIN,Varsinais-Suomi,Varsinais-Suomi,FI-19,region,,25.9,,,4,Europe/Helsinki,FALSE,1246428912
Åminne,Aminne,Åminneberg|Åminneborg,62.9667,21.5000,Finland,FI,FIN,Pohjanmaa,Pohjanmaa,FI-12,region,,10.5,,,4,Europe/Helsinki,FALSE,1246508419
Åminne,Aminne,Åmiune,63.5500,22.5167,Finland,FI,FIN,Pohjanmaa,Pohjanmaa,FI-12,region,,10.4,,,4,Europe/Helsinki,TRUE,1246066980
Karhumäki,Karhumaki,,62.8167,27.4667,Finland,FI,FIN,Pohjois-Savo,Pohjois-Savo,FI-15,region,,67.0,,,4,Europe/Helsinki,FALSE,1246899456
Naskarla,Naskarla,,60.4313,22.6809,Finland,FI,FIN,Varsinais-Suomi,Varsinais-Suomi,FI-19,region,,48.2,,,4,Europe/Helsinki,FALSE,1246000312
Kaltsila,Kaltsila,,61.3000,23.1000,Finland,FI,FIN,Pirkanmaa,Pirkanmaa,FI-11,region,,18.7,,,4,Europe/Helsinki,FALSE,1246798525
Teerivaara,Teerivaara,,64.2833,28.6333,Finland,FI,FIN,Kainuu,Kainuu,FI-05,region,,4.0,,,5,Europe/Helsinki,FALSE,1246322380
Kukkoniemi,Kukkoniemi,,64.1500,27.2833,Finland,FI,FIN,Kainuu,Kainuu,FI-05,region,,20.3,,,4,Europe/Helsinki,FALSE,1246099755
Tvärminne,Tvarminne,Tverminne,59.8419,23.2017,Finland,FI,FIN,Uusimaa,Uusimaa,FI-18,region,,74.2,,,4,Europe/Helsinki,FALSE,1246581790
Hakovaara,Hakovaara,,62.7667,30.7667,Finland,FI,FIN,Pohjois-Karjala,Pohjois-Karjala,FI-13,region,,1.7,,,5,Europe/Helsinki,FALSE,1246089760
Butsbacken,Butsbacken,,62.3000,21.4500,Finland,FI,FIN,Pohjanmaa,Pohjanmaa,FI-12,region,,9.9,,,5,Europe/Helsinki,FALSE,1246573449
Marjovaara,Marjovaara,,62.6000,30.7333,Finland,FI,FIN,Pohjois-Karjala,Pohjois-Karjala,FI-13,region,,1.7,,,5,Europe/Helsinki,FALSE,1246809282
Västergränden,Vastergranden,,63.0500,21.5333,Finland,FI,FIN,Pohjanmaa,Pohjanmaa,FI-12,region,,350.4,,,3,Europe/Helsinki,FALSE,1246333059
Turajärvi,Turajarvi,,61.1333,21.9500,Finland,FI,FIN,Satakunta,Satakunta,FI-17,region,,21.2,,,4,Europe/Helsinki,FALSE,1246449737
Kiusala,Kiusala,,61.2833,22.2167,Finland,FI,FIN,Satakunta,Satakunta,FI-17,region,,49.4,,,4,Europe/Helsinki,FALSE,1246327047
Ylä-Vääri,Yla-Vaari,,61.9500,24.3167,Finland,FI,FIN,Pirkanmaa,Pirkanmaa,FI-11,region,,5.5,,,5,Europe/Helsinki,FALSE,1246486408
