city,city_ascii,city_alt,lat,lng,country,iso2,iso3,admin_name,admin_name_ascii,admin_code,admin_type,capital,density,population,population_proper,ranking,timezone,same_name,id
Cayenne,Cayenne,,4.9330,-52.3300,"French Guiana",GF,GUF,,,,,primary,2611.7,61550,61550,1,America/Cayenne,FALSE,1254304969
Saint-Laurent-du-Maroni,Saint-Laurent-du-Maroni,"Laurent|Maroni|Saint Laurent|Sainte Laurent",5.4976,-54.0325,"French Guiana",GF,GUF,,,,,minor,19.2,24287,24287,3,America/Cayenne,FALSE,1254543638
Kourou,Kourou,"Bourg de Kourou|Kouro",5.1600,-52.6499,"French Guiana",GF,GUF,,,,,minor,15.3,24029,24029,3,America/Cayenne,FALSE,1254317561
Sinnamary,Sinnamary,Sinnamari|Sinamary|Sinnama,5.3800,-52.9600,"French Guiana",GF,GUF,,,,,minor,2.9,3180,3180,3,America/Cayenne,FALSE,1254385870
Saint-Georges,Saint-Georges,"Oyapock|Saint Georges",3.9105,-51.8100,"French Guiana",GF,GUF,,,,,minor,3.1,2742,2742,3,America/Cayenne,FALSE,1254726319
Roura,Roura,,4.7300,-52.3300,"French Guiana",GF,GUF,,,,,minor,1.1,2229,2229,3,America/Cayenne,FALSE,1254511393
Iracoubo,Iracoubo,,5.4804,-53.2200,"French Guiana",GF,GUF,,,,,minor,1.1,1536,1536,3,America/Cayenne,FALSE,1254480447
Senkinen,Senkinen,,5.1000,-54.3667,"French Guiana",GF,GUF,,,,,,6.0,,,5,America/Cayenne,FALSE,1254948324
"Antécume Pata","Antecume Pata",,3.2864,-54.0694,"French Guiana",GF,GUF,,,,,,0.9,,,5,America/Cayenne,FALSE,1254424486
"Niewe Rust","Niewe Rust",,5.5833,-55.0333,"French Guiana",GF,GUF,,,,,,16.6,,,4,America/Paramaribo,FALSE,1254639478
"Mont Louis","Mont Louis",,5.1985,-54.3147,"French Guiana",GF,GUF,,,,,,6.0,,,5,America/Cayenne,FALSE,1254838908
Collery,Collery,,4.9041,-52.3248,"French Guiana",GF,GUF,,,,,,2611.7,,,2,America/Cayenne,FALSE,1254642844
Picard,Picard,"Lieu-dit Picard",4.2051,-52.2607,"French Guiana",GF,GUF,,,,,,0.1,,,5,America/Cayenne,FALSE,1254665964
Adotian,Adotian,,4.5293,-54.4431,"French Guiana",GF,GUF,,,,,,2.0,,,5,America/Cayenne,FALSE,1254724987
"Deux Branches","Deux Branches",,4.8781,-52.9924,"French Guiana",GF,GUF,,,,,,0.2,,,5,America/Cayenne,FALSE,1254465264
Anton,Anton,,5.5418,-53.4264,"French Guiana",GF,GUF,,,,,,1.1,,,5,America/Cayenne,FALSE,1254325116
Apatou,Apatou,,5.0426,-54.0443,"French Guiana",GF,GUF,,,,,,19.2,,,4,America/Cayenne,FALSE,1254012994
Apatou,Apatou,,5.1553,-54.3431,"French Guiana",GF,GUF,,,,,,6.0,,,5,America/Cayenne,TRUE,1254380614
Palassissi,Palassissi,,3.2841,-54.0842,"French Guiana",GF,GUF,,,,,,0.9,,,5,America/Cayenne,FALSE,1254642659
"Les Îlets de Macrabo","Les Ilets de Macrabo",,4.7994,-52.3523,"French Guiana",GF,GUF,,,,,,294.1,,,3,America/Cayenne,FALSE,1254000054
"Crique Anguille","Crique Anguille",,4.8327,-52.5097,"French Guiana",GF,GUF,,,,,,7.4,,,5,America/Cayenne,FALSE,1254297257
"Penki Avo","Penki Avo",,4.9760,-54.4373,"French Guiana",GF,GUF,,,,,,6.0,,,5,America/Cayenne,FALSE,1254186495
"Relais du Galion","Relais du Galion",,4.7578,-52.4273,"French Guiana",GF,GUF,,,,,,6.1,,,5,America/Cayenne,FALSE,1254000009
"Camp Caïman","Camp Caiman","Camp Caïmans",4.5694,-52.2172,"French Guiana",GF,GUF,,,,,,1.1,,,5,America/Cayenne,FALSE,1254147021
"Lanti Wani","Lanti Wani",,5.0690,-54.4105,"French Guiana",GF,GUF,,,,,,1.9,,,5,America/Cayenne,FALSE,1254575949
Maryflore,Maryflore,,5.4894,-54.0286,"French Guiana",GF,GUF,,,,,,19.2,,,4,America/Cayenne,FALSE,1254000029
"Savane Manuel","Savane Manuel",,5.3500,-52.9500,"French Guiana",GF,GUF,,,,,,2.9,,,5,America/Cayenne,FALSE,1254834459
"Dégrad des Cannes","Degrad des Cannes",,4.8564,-52.2748,"French Guiana",GF,GUF,,,,,,508.6,,,3,America/Cayenne,FALSE,1254242335
Kanaa,Kanaa,,4.9613,-54.4367,"French Guiana",GF,GUF,,,,,,6.0,,,5,America/Cayenne,FALSE,1254719285
Maripasoula,Maripasoula,,3.6416,-54.0317,"French Guiana",GF,GUF,,,,,minor,0.9,,,3,America/Cayenne,FALSE,1254187323
Barkarel,Barkarel,,3.5602,-54.0018,"French Guiana",GF,GUF,,,,,,0.7,,,5,America/Cayenne,FALSE,1254042591
Couachi,Couachi,Kouachi,5.6186,-53.6981,"French Guiana",GF,GUF,,,,,,2.2,,,5,America/Cayenne,FALSE,1254282875
Mofina,Mofina,Monfina,4.1827,-54.3828,"French Guiana",GF,GUF,,,,,,2.4,,,5,America/Cayenne,FALSE,1254441720
"Paul Isnard","Paul Isnard","Placer Paul Isnard",4.7761,-54.0085,"French Guiana",GF,GUF,,,,,,19.2,,,4,America/Cayenne,FALSE,1254815143
"Moussoué Santi Tabiki","Moussoue Santi Tabiki",,4.5821,-54.4193,"French Guiana",GF,GUF,,,,,,1.6,,,5,America/Cayenne,FALSE,1254549484
"Pilipi Wono","Pilipi Wono",,3.1081,-54.1726,"French Guiana",GF,GUF,,,,,,0.8,,,5,America/Cayenne,FALSE,1254946259
Cabassou,Cabassou,,4.8871,-52.3001,"French Guiana",GF,GUF,,,,,,508.6,,,3,America/Cayenne,FALSE,1254630214
Kouman-Kouman,Kouman-Kouman,Couman-Couman,4.0350,-51.6877,"French Guiana",GF,GUF,,,,,,3.1,,,5,America/Cayenne,FALSE,1254187098
"Belle Humeur","Belle Humeur",,4.9166,-52.3791,"French Guiana",GF,GUF,,,,,,52.4,,,4,America/Cayenne,FALSE,1254000052
Repentir,Repentir,,3.8383,-53.3921,"French Guiana",GF,GUF,,,,,,0.0,,,5,America/Cayenne,FALSE,1254201778
Gusomani,Gusomani,,5.3296,-54.0764,"French Guiana",GF,GUF,,,,,,19.2,,,4,America/Cayenne,FALSE,1254322184
"Roche Brigandin","Roche Brigandin",,5.4500,-53.0000,"French Guiana",GF,GUF,,,,,,2.9,,,5,America/Cayenne,FALSE,1254957421
Rococoua,Rococoua,Rocoucoua,5.4424,-53.3056,"French Guiana",GF,GUF,,,,,,1.1,,,5,America/Cayenne,FALSE,1254231834
Providence,Providence,,4.6200,-54.4148,"French Guiana",GF,GUF,,,,,,5.3,,,5,America/Cayenne,FALSE,1254380369
"Domaine Boulanger","Domaine Boulanger",,4.6050,-52.3671,"French Guiana",GF,GUF,,,,,,1.1,,,5,America/Cayenne,FALSE,1254000021
Saint-Paul,Saint-Paul,"Village Saint-Paul|Dégrad Saint-Paul",4.3955,-54.3828,"French Guiana",GF,GUF,,,,,,3.4,,,5,America/Cayenne,FALSE,1254900633
Bossoé,Bossoe,Bossou,5.0271,-54.4297,"French Guiana",GF,GUF,,,,,,2.6,,,5,America/Cayenne,FALSE,1254827284
"Dégrad Saint-Antoine","Degrad Saint-Antoine",,4.6705,-52.3328,"French Guiana",GF,GUF,,,,,,1.1,,,5,America/Cayenne,FALSE,1254168574
"Nouveau Assissi","Nouveau Assissi",,3.8220,-54.1945,"French Guiana",GF,GUF,,,,,,2.2,,,5,America/Cayenne,FALSE,1254646043
Loka,Loka,Loca,3.8299,-54.1908,"French Guiana",GF,GUF,,,,,,4.0,,,5,America/Cayenne,FALSE,1254731160
Zénith,Zenith,,4.9008,-52.3371,"French Guiana",GF,GUF,,,,,,316.1,,,3,America/Cayenne,FALSE,1254000018
"Les Jardins de Sainte-Agathe","Les Jardins de Sainte-Agathe",,5.0011,-52.4716,"French Guiana",GF,GUF,,,,,,52.4,,,4,America/Cayenne,FALSE,1254000063
"Le Solitaire","Le Solitaire",,4.7980,-52.4374,"French Guiana",GF,GUF,,,,,,7.4,,,5,America/Cayenne,FALSE,1254134880
"La Désirée","La Desiree",,4.8489,-52.3395,"French Guiana",GF,GUF,,,,,,294.1,,,3,America/Cayenne,FALSE,1254795407
"Dégrad Savane","Degrad Savane",,5.4871,-53.2406,"French Guiana",GF,GUF,,,,,,1.1,,,5,America/Cayenne,FALSE,1254168380
Boudet,Boudet,,4.9276,-52.4444,"French Guiana",GF,GUF,,,,,,52.4,,,4,America/Cayenne,FALSE,1254000053
Bonidoro,Bonidoro,,4.9146,-54.4584,"French Guiana",GF,GUF,,,,,,6.0,,,5,America/Cayenne,FALSE,1254764106
Flore,Flore,,5.4880,-54.0286,"French Guiana",GF,GUF,,,,,,19.2,,,4,America/Cayenne,FALSE,1254000030
"Morne Coco","Morne Coco",,4.8983,-52.2772,"French Guiana",GF,GUF,,,,,,508.6,,,3,America/Cayenne,FALSE,1254000042
Chatonnet,Chatonnet,,4.8819,-53.0189,"French Guiana",GF,GUF,,,,,,0.2,,,5,America/Cayenne,FALSE,1254364519
Adala,Adala,,3.6355,-54.0485,"French Guiana",GF,GUF,,,,,,0.7,,,5,America/Cayenne,FALSE,1254956364
"Trois Palétuviers","Trois Paletuviers",,4.0565,-51.6621,"French Guiana",GF,GUF,,,,,,3.1,,,5,America/Cayenne,FALSE,1254074606
Opoya,Opoya,,3.3722,-54.0526,"French Guiana",GF,GUF,,,,,,0.5,,,5,America/Cayenne,FALSE,1254189463
"Lotissement Yarde","Lotissement Yarde",,4.8266,-52.3146,"French Guiana",GF,GUF,,,,,,294.1,,,3,America/Cayenne,FALSE,1254000011
Ayamidé,Ayamide,,5.1948,-54.3166,"French Guiana",GF,GUF,,,,,,6.0,,,5,America/Cayenne,FALSE,1254096035
Dorlin,Dorlin,,3.7492,-53.5579,"French Guiana",GF,GUF,,,,,,0.9,,,5,America/Cayenne,FALSE,1254282172
Saint-Antoine,Saint-Antoine,,5.5960,-53.8885,"French Guiana",GF,GUF,,,,,,2.2,,,5,America/Cayenne,FALSE,1254452836
Sophie,Sophie,"Village Sophie",3.9622,-53.4922,"French Guiana",GF,GUF,,,,,,0.0,,,5,America/Cayenne,FALSE,1254231608
Balisié,Balisie,,5.2735,-54.2559,"French Guiana",GF,GUF,,,,,,13.7,,,4,America/Cayenne,FALSE,1254664006
Lamonet,Lamonet,,3.6500,-54.0167,"French Guiana",GF,GUF,,,,,,0.9,,,5,America/Cayenne,FALSE,1254154914
Medeyre,Medeyre,,5.6061,-53.6569,"French Guiana",GF,GUF,,,,,,2.2,,,5,America/Cayenne,FALSE,1254154722
Ouanary,Ouanary,,4.2087,-51.6741,"French Guiana",GF,GUF,,,,,,3.1,,,5,America/Cayenne,FALSE,1254120649
Sissilia,Sissilia,,4.9810,-54.4390,"French Guiana",GF,GUF,,,,,,6.0,,,5,America/Cayenne,FALSE,1254468119
Labombe,Labombe,,3.9288,-51.8203,"French Guiana",GF,GUF,,,,,,3.1,,,5,America/Cayenne,FALSE,1254466712
Alikoto,Alikoto,"Alicoto|Oyampis|Indiens Oyampis",3.1152,-52.3444,"French Guiana",GF,GUF,,,,,,0.2,,,4,America/Cayenne,FALSE,1254607525
"Mont Diable","Mont Diable",,4.6321,-52.3917,"French Guiana",GF,GUF,,,,,,1.1,,,5,America/Cayenne,FALSE,1254555779
"Le Califourchon","Le Califourchon",,4.8392,-52.3409,"French Guiana",GF,GUF,,,,,,294.1,,,3,America/Cayenne,FALSE,1254971702
Gaston,Gaston,"Village Gaston",4.2868,-52.1257,"French Guiana",GF,GUF,,,,,,0.1,,,5,America/Cayenne,FALSE,1254901835
Péléa,Pelea,,3.2725,-54.1193,"French Guiana",GF,GUF,,,,,,0.9,,,5,America/Cayenne,FALSE,1254384311
"Niou Kampou","Niou Kampou",,5.2324,-54.2920,"French Guiana",GF,GUF,,,,,,6.0,,,5,America/Cayenne,FALSE,1254620784
"Le Quartorzième","Le Quartorzieme",,4.8380,-52.3444,"French Guiana",GF,GUF,,,,,,294.1,,,3,America/Cayenne,FALSE,1254796967
"Village Saramaca","Village Saramaca",,4.4013,-52.3923,"French Guiana",GF,GUF,,,,,,1.1,,,5,America/Cayenne,FALSE,1254926563
Paramana,Paramana,,4.8193,-52.3400,"French Guiana",GF,GUF,,,,,,294.1,,,3,America/Cayenne,FALSE,1254734401
Matoury,Matoury,Matoary,4.8492,-52.3235,"French Guiana",GF,GUF,,,,,minor,294.1,,,3,America/Cayenne,FALSE,1254081143
Simili,Simili,,5.7449,-53.9345,"French Guiana",GF,GUF,,,,,,12.3,,,4,America/Cayenne,FALSE,1254000057
Guatemala,Guatemala,,5.1442,-52.6276,"French Guiana",GF,GUF,,,,,,15.3,,,4,America/Cayenne,FALSE,1254854313
"La Mirande","La Mirande","La Mirande Distillerie",4.8750,-52.3377,"French Guiana",GF,GUF,,,,,,294.1,,,3,America/Cayenne,FALSE,1254341336
Quesnel,Quesnel,,4.9363,-52.4977,"French Guiana",GF,GUF,,,,,,7.4,,,5,America/Cayenne,FALSE,1254834844
Bastien,Bastien,Mayo,5.2921,-54.2283,"French Guiana",GF,GUF,,,,,,18.8,,,4,America/Cayenne,FALSE,1254269212
"La Bastide","La Bastide",,5.3214,-54.0691,"French Guiana",GF,GUF,,,,,,19.2,,,4,America/Cayenne,FALSE,1254129643
Assouna,Assouna,,5.2892,-54.2123,"French Guiana",GF,GUF,,,,,,19.2,,,4,America/Cayenne,FALSE,1254181944
Farnous,Farnous,,4.9481,-52.4227,"French Guiana",GF,GUF,,,,,,52.4,,,4,America/Cayenne,FALSE,1254714008
Portal,Portal,"Village Portal",5.4190,-54.0994,"French Guiana",GF,GUF,,,,,,19.2,,,4,America/Cayenne,FALSE,1254194903
"Camp Rochambeau","Camp Rochambeau",,4.8333,-52.3833,"French Guiana",GF,GUF,,,,,,7.4,,,5,America/Cayenne,FALSE,1254443829
Saint-Louis,Saint-Louis,,5.4743,-54.0462,"French Guiana",GF,GUF,,,,,,19.2,,,4,America/Cayenne,FALSE,1254998080
Saint-Louis,Saint-Louis,,4.0317,-51.6882,"French Guiana",GF,GUF,,,,,,0.8,,,5,America/Belem,TRUE,1254252311
Loulouïe,Loulouie,,4.8667,-53.0333,"French Guiana",GF,GUF,,,,,,0.2,,,5,America/Cayenne,FALSE,1254543677
Saint-Martin,Saint-Martin,,4.9235,-52.2870,"French Guiana",GF,GUF,,,,,,706.2,,,3,America/Cayenne,FALSE,1254000023
"Malaïtawa Patatpe","Malaitawa Patatpe",Malaïtawa,3.1419,-54.1982,"French Guiana",GF,GUF,,,,,,0.9,,,5,America/Cayenne,FALSE,1254298399
Méziac,Meziac,,4.4864,-52.0631,"French Guiana",GF,GUF,,,,,,0.1,,,5,America/Cayenne,FALSE,1254000038
Fortuné,Fortune,,4.5583,-52.2984,"French Guiana",GF,GUF,,,,,,1.1,,,5,America/Cayenne,FALSE,1254683532
Piliwa,Piliwa,,5.7316,-53.8979,"French Guiana",GF,GUF,,,,,,12.3,,,4,America/Cayenne,FALSE,1254080497
Combi,Combi,,5.3433,-52.9395,"French Guiana",GF,GUF,,,,,,2.9,,,5,America/Cayenne,FALSE,1254762399
"Village Pierre","Village Pierre",,5.4677,-54.0473,"French Guiana",GF,GUF,,,,,,19.2,,,4,America/Cayenne,FALSE,1254458095
Ondiayé,Ondiaye,,5.2089,-54.3087,"French Guiana",GF,GUF,,,,,,5.0,,,5,America/Cayenne,FALSE,1254585689
Counamama,Counamama,Conamama,5.4500,-53.1362,"French Guiana",GF,GUF,,,,,,1.1,,,5,America/Cayenne,FALSE,1254138264
Chire,Chire,,5.5122,-53.5391,"French Guiana",GF,GUF,,,,,,2.2,,,5,America/Cayenne,FALSE,1254494478
"Bois Martin","Bois Martin",,4.9889,-54.4357,"French Guiana",GF,GUF,,,,,,5.9,,,5,America/Cayenne,FALSE,1254664574
"Sainte-Rose de Lima","Sainte-Rose de Lima",,4.8248,-52.3385,"French Guiana",GF,GUF,,,,,,294.1,,,3,America/Cayenne,FALSE,1254253374
Agodé,Agode,Boniville,3.8367,-54.1878,"French Guiana",GF,GUF,,,,,,3.6,,,5,America/Cayenne,FALSE,1254595396
Namiwawang,Namiwawang,,5.0174,-54.4372,"French Guiana",GF,GUF,,,,,,0.9,,,5,America/Cayenne,FALSE,1254307659
"Lotissement Gay","Lotissement Gay",,4.8805,-52.3635,"French Guiana",GF,GUF,,,,,,294.1,,,3,America/Cayenne,FALSE,1254649618
"Mission Saint-Antoine","Mission Saint-Antoine",,4.6684,-52.3372,"French Guiana",GF,GUF,,,,,,1.1,,,5,America/Cayenne,FALSE,1254119152
"La Dame Blanche","La Dame Blanche",,4.9194,-52.3662,"French Guiana",GF,GUF,,,,,,52.4,,,4,America/Cayenne,FALSE,1254356327
Loulette,Loulette,,5.6244,-53.8791,"French Guiana",GF,GUF,,,,,,2.4,,,5,America/Cayenne,FALSE,1254475537
"Petit Laussat","Petit Laussat",,5.4500,-53.8833,"French Guiana",GF,GUF,,,,,,2.2,,,5,America/Cayenne,FALSE,1254571100
"Petit Laussat","Petit Laussat",,5.4482,-53.5826,"French Guiana",GF,GUF,,,,,,2.2,,,5,America/Cayenne,TRUE,1254400668
Macrabo,Macrabo,,4.7921,-52.3543,"French Guiana",GF,GUF,,,,,,294.1,,,3,America/Cayenne,FALSE,1254000001
"Nouveau Wapakou","Nouveau Wapakou",,3.6740,-54.0774,"French Guiana",GF,GUF,,,,,,0.7,,,5,America/Cayenne,FALSE,1254874437
Lobo,Lobo,,4.9575,-54.4362,"French Guiana",GF,GUF,,,,,,6.0,,,5,America/Cayenne,FALSE,1254871650
"Placer Trésor","Placer Tresor",,4.5863,-52.2654,"French Guiana",GF,GUF,,,,,,1.1,,,5,America/Cayenne,FALSE,1254199203
"Grand Bala","Grand Bala",,4.3930,-54.3034,"French Guiana",GF,GUF,,,,,,3.4,,,5,America/Cayenne,FALSE,1254165429
"Mont Valérien","Mont Valerien",,4.9332,-53.0461,"French Guiana",GF,GUF,,,,,,0.2,,,5,America/Cayenne,FALSE,1254710857
Maliéti,Malieti,,5.2033,-54.3107,"French Guiana",GF,GUF,,,,,,6.0,,,5,America/Cayenne,FALSE,1254469186
"Gaa Kaba","Gaa Kaba","Gaa Caba|Village Gaa Caba",4.4887,-54.4422,"French Guiana",GF,GUF,,,,,,3.4,,,5,America/Cayenne,FALSE,1254994978
Bellevue,Bellevue,,3.7682,-54.1103,"French Guiana",GF,GUF,,,,,,1.9,,,5,America/Cayenne,FALSE,1254664422
Bellevue,Bellevue,,5.4769,-53.2606,"French Guiana",GF,GUF,,,,,,1.1,,,5,America/Cayenne,TRUE,1254744138
Bellevue,Bellevue,,4.5791,-52.4345,"French Guiana",GF,GUF,,,,,,1.1,,,5,America/Cayenne,TRUE,1254000012
"Îlet Tortue","Ilet Tortue",,5.2000,-52.9667,"French Guiana",GF,GUF,,,,,,2.9,,,5,America/Cayenne,FALSE,1254887321
Tonate,Tonate,Tonale,5.0124,-52.4737,"French Guiana",GF,GUF,,,,,minor,52.4,,,3,America/Cayenne,FALSE,1254043314
Wilfried,Wilfried,,3.7099,-54.0761,"French Guiana",GF,GUF,,,,,,0.5,,,5,America/Cayenne,FALSE,1254975288
Adieu-Vat,Adieu-Vat,"Placer A Dieu Vat|Placer Dieu Va",4.8724,-53.0076,"French Guiana",GF,GUF,,,,,,0.2,,,5,America/Cayenne,FALSE,1254244078
"Pointe Pinot","Pointe Pinot",,4.9334,-53.0233,"French Guiana",GF,GUF,,,,,,0.2,,,5,America/Cayenne,FALSE,1254911751
Tindali,Tindali,,5.4245,-54.0576,"French Guiana",GF,GUF,,,,,,19.2,,,4,America/Cayenne,FALSE,1254967765
"Saut Sabbat","Saut Sabbat",,5.3900,-53.6720,"French Guiana",GF,GUF,,,,,,2.2,,,5,America/Cayenne,FALSE,1254371241
"Chemin Pascal","Chemin Pascal",,5.3796,-52.9759,"French Guiana",GF,GUF,,,,,,2.9,,,5,America/Cayenne,FALSE,1254756869
"La Bouverie","La Bouverie",,5.7273,-53.8944,"French Guiana",GF,GUF,,,,,,12.3,,,4,America/Cayenne,FALSE,1254898931
"Domaine de Stoupan","Domaine de Stoupan",,4.7755,-52.3350,"French Guiana",GF,GUF,,,,,,294.1,,,3,America/Cayenne,FALSE,1254000002
Cogneau,Cogneau,,4.8699,-52.3235,"French Guiana",GF,GUF,,,,,,294.1,,,3,America/Cayenne,FALSE,1254439775
Godebert,Godebert,Godedert,5.5202,-53.9600,"French Guiana",GF,GUF,,,,,,19.2,,,4,America/Cayenne,FALSE,1254892051
Yiyi,Yiyi,,5.4234,-53.0745,"French Guiana",GF,GUF,,,,,,1.1,,,5,America/Cayenne,FALSE,1254412217
"Grand Village","Grand Village",,5.5806,-53.7206,"French Guiana",GF,GUF,,,,,,2.2,,,5,America/Cayenne,FALSE,1254331633
Saül,Saul,,3.6295,-53.2049,"French Guiana",GF,GUF,,,,,,0.0,,,5,America/Cayenne,FALSE,1254537466
Aquavilla,Aquavilla,Aquavilla-Cogneau,4.8769,-52.3165,"French Guiana",GF,GUF,,,,,,313.2,,,3,America/Cayenne,FALSE,1254514010
Ayawande,Ayawande,,5.6728,-53.9503,"French Guiana",GF,GUF,,,,,,12.3,,,4,America/Cayenne,FALSE,1254000059
"Mine Espérance","Mine Esperance","Espérance|Village Espérance",4.6506,-54.3138,"French Guiana",GF,GUF,,,,,,6.0,,,5,America/Cayenne,FALSE,1254265190
"La Persévérance","La Perseverance",,4.8994,-52.3483,"French Guiana",GF,GUF,,,,,,294.1,,,3,America/Cayenne,FALSE,1254000017
"Les Malgaches","Les Malgaches",,5.4937,-54.0118,"French Guiana",GF,GUF,,,,,,19.2,,,4,America/Cayenne,FALSE,1254756776
Samuel,Samuel,,4.8798,-52.3312,"French Guiana",GF,GUF,,,,,,294.1,,,3,America/Cayenne,FALSE,1254202619
Zidok,Zidok,,2.2593,-52.8757,"French Guiana",GF,GUF,,,,,,0.2,,,5,America/Cayenne,FALSE,1254666096
Paradis,Paradis,,5.5099,-54.0145,"French Guiana",GF,GUF,,,,,,19.2,,,4,America/Cayenne,FALSE,1254000028
"Village Créole","Village Creole","Madame Yeyenne",3.2200,-53.7063,"French Guiana",GF,GUF,,,,,,0.9,,,5,America/Cayenne,FALSE,1254663684
Soula,Soula,,4.9306,-52.4079,"French Guiana",GF,GUF,,,,,,52.4,,,4,America/Cayenne,FALSE,1254000048
Maya,Maya,,4.8829,-52.3274,"French Guiana",GF,GUF,,,,,,294.1,,,3,America/Cayenne,FALSE,1254000014
"Auberge de l’Approuague","Auberge de l'Approuague",,4.2812,-52.1701,"French Guiana",GF,GUF,,,,,,0.1,,,5,America/Cayenne,FALSE,1254000040
Rabottin,Rabottin,,5.3607,-53.0100,"French Guiana",GF,GUF,,,,,,2.9,,,5,America/Cayenne,FALSE,1254455238
Toulouse,Toulouse,,4.9008,-52.5160,"French Guiana",GF,GUF,,,,,,7.4,,,5,America/Cayenne,FALSE,1254778043
Concorde,Concorde,,4.8364,-52.3491,"French Guiana",GF,GUF,,,,,,294.1,,,3,America/Cayenne,FALSE,1254000000
Junique,Junique,,5.1667,-54.0333,"French Guiana",GF,GUF,,,,,,2.2,,,5,America/Cayenne,FALSE,1254326896
"Dégrad Pierre","Degrad Pierre",,4.9500,-53.1833,"French Guiana",GF,GUF,,,,,,0.2,,,5,America/Cayenne,FALSE,1254877786
"Village Jérôme","Village Jerome",,5.0600,-54.4152,"French Guiana",GF,GUF,,,,,,5.7,,,5,America/Cayenne,FALSE,1254143642
"Le Dix-Septième","Le Dix-Septieme",,4.8333,-52.3500,"French Guiana",GF,GUF,,,,,,294.1,,,3,America/Cayenne,FALSE,1254667313
"Bassin Mine d’Or","Bassin Mine d'Or",,5.5962,-53.6365,"French Guiana",GF,GUF,,,,,,2.2,,,5,America/Cayenne,FALSE,1254981197
"Jé Vrédé","Je Vrede",,5.1216,-54.3661,"French Guiana",GF,GUF,,,,,,6.0,,,5,America/Cayenne,FALSE,1254044267
Eskol,Eskol,"Dégrad Eskhol",4.7174,-52.2823,"French Guiana",GF,GUF,,,,,,1.1,,,5,America/Cayenne,FALSE,1254099672
Samapaï,Samapai,,5.3140,-54.1827,"French Guiana",GF,GUF,,,,,,19.2,,,4,America/Cayenne,FALSE,1254077762
"La Marguerite","La Marguerite",,4.9959,-52.4511,"French Guiana",GF,GUF,,,,,,52.4,,,4,America/Cayenne,FALSE,1254537765
Pinot,Pinot,,4.7890,-52.3308,"French Guiana",GF,GUF,,,,,,294.1,,,3,America/Cayenne,FALSE,1254000008
"Tombe Got","Tombe Got",,4.9343,-52.5070,"French Guiana",GF,GUF,,,,,,7.4,,,5,America/Cayenne,FALSE,1254137479
Tonnégrande,Tonnegrande,Tonnigrande|Tonégrande,4.8309,-52.4432,"French Guiana",GF,GUF,,,,,,7.4,,,5,America/Cayenne,FALSE,1254505924
"Grand Carbet","Grand Carbet",,3.6500,-53.8333,"French Guiana",GF,GUF,,,,,,0.9,,,5,America/Cayenne,FALSE,1254416802
Kwassié,Kwassie,,4.9510,-54.4363,"French Guiana",GF,GUF,,,,,,6.0,,,5,America/Cayenne,FALSE,1254667141
Espérance,Esperance,,5.4324,-54.0511,"French Guiana",GF,GUF,,,,,,19.2,,,4,America/Cayenne,FALSE,1254264156
"Savane Nango","Savane Nango",,5.3691,-52.9494,"French Guiana",GF,GUF,,,,,,2.9,,,5,America/Cayenne,FALSE,1254449013
Macouria,Macouria,,4.9143,-52.3642,"French Guiana",GF,GUF,,,,,,52.4,,,4,America/Cayenne,FALSE,1254283769
Macouria,Macouria,,5.0167,-52.4833,"French Guiana",GF,GUF,,,,,,52.4,,,4,America/Cayenne,TRUE,1254694224
"Sable Blanc","Sable Blanc",,5.4851,-53.2178,"French Guiana",GF,GUF,,,,,,1.1,,,5,America/Cayenne,FALSE,1254897022
"Camp de Rémire","Camp de Remire",Rémire-Camp,4.8970,-52.2630,"French Guiana",GF,GUF,,,,,,508.6,,,3,America/Cayenne,FALSE,1254183109
"Montagne Lagrue","Montagne Lagrue",,5.5639,-53.5987,"French Guiana",GF,GUF,,,,,,2.2,,,5,America/Cayenne,FALSE,1254240404
Sonnelle,Sonnelle,Soneelle|Soncelle,3.6628,-53.9645,"French Guiana",GF,GUF,,,,,,0.9,,,5,America/Cayenne,FALSE,1254002050
Montabo,Montabo,Montjoyeux,4.9460,-52.3053,"French Guiana",GF,GUF,,,,,,2611.7,,,2,America/Cayenne,FALSE,1254067547
"Roche Tablon","Roche Tablon",,4.6333,-52.3833,"French Guiana",GF,GUF,,,,,,1.1,,,5,America/Cayenne,FALSE,1254672247
Iuéry,Iuery,,4.3030,-52.1419,"French Guiana",GF,GUF,,,,,,0.1,,,5,America/Cayenne,FALSE,1254000039
Abagaï,Abagai,,5.3325,-54.1730,"French Guiana",GF,GUF,,,,,,19.2,,,4,America/Cayenne,FALSE,1254210057
Edmond,Edmond,Edmont,4.6017,-52.4443,"French Guiana",GF,GUF,,,,,,1.1,,,5,America/Cayenne,FALSE,1254635309
"Trois Sauts","Trois Sauts",,2.2450,-52.8772,"French Guiana",GF,GUF,,,,,,0.2,,,5,America/Cayenne,FALSE,1254785821
Biguiston,Biguiston,,5.3568,-54.1389,"French Guiana",GF,GUF,,,,,,19.2,,,4,America/Cayenne,FALSE,1254964368
Changement,Changement,,4.4833,-52.4167,"French Guiana",GF,GUF,,,,,,1.1,,,5,America/Cayenne,FALSE,1254289161
"Amapa I","Amapa I",,5.4858,-54.0181,"French Guiana",GF,GUF,,,,,,19.2,,,4,America/Cayenne,FALSE,1254000046
Patient,Patient,,5.6049,-53.6573,"French Guiana",GF,GUF,,,,,,2.2,,,5,America/Cayenne,FALSE,1254157089
Angoulême,Angouleme,"Nouvelle Angouleme",5.4111,-53.6553,"French Guiana",GF,GUF,,,,,,2.2,,,5,America/Cayenne,FALSE,1254601232
Pascal,Pascal,,4.2558,-54.3811,"French Guiana",GF,GUF,,,,,,2.6,,,5,America/Cayenne,FALSE,1254234224
"La Valère","La Valere",,4.8336,-52.3233,"French Guiana",GF,GUF,,,,,,294.1,,,3,America/Cayenne,FALSE,1254788938
"Les Rivages","Les Rivages",,5.4700,-54.0467,"French Guiana",GF,GUF,,,,,,19.2,,,4,America/Cayenne,FALSE,1254000035
"Terre Rouge","Terre Rouge",,5.4506,-54.0499,"French Guiana",GF,GUF,,,,,,19.2,,,4,America/Cayenne,FALSE,1254700851
"Terre Rouge","Terre Rouge",,5.6378,-53.7454,"French Guiana",GF,GUF,,,,,,2.2,,,5,America/Cayenne,TRUE,1254016314
Mamaribo,Mamaribo,,5.5109,-53.3520,"French Guiana",GF,GUF,,,,,,1.1,,,5,America/Cayenne,FALSE,1254637166
"Les Écoles","Les Ecoles",,5.4777,-54.0300,"French Guiana",GF,GUF,,,,,,19.2,,,4,America/Cayenne,FALSE,1254000033
"Central Bief","Central Bief","Placer Bief",4.5104,-52.4637,"French Guiana",GF,GUF,,,,,,1.1,,,5,America/Cayenne,FALSE,1254523806
Diane,Diane,,5.2505,-52.8057,"French Guiana",GF,GUF,,,,,,15.3,,,4,America/Cayenne,FALSE,1254893665
Moucaya,Moucaya,,5.4874,-54.0369,"French Guiana",GF,GUF,,,,,,19.2,,,4,America/Cayenne,FALSE,1254000032
Moucaya,Moucaya,,5.5242,-53.3816,"French Guiana",GF,GUF,,,,,,1.1,,,5,America/Cayenne,TRUE,1254188141
Brigandin,Brigandin,,5.4191,-52.9838,"French Guiana",GF,GUF,,,,,,2.9,,,5,America/Cayenne,FALSE,1254804305
Cogneau-Ouest,Cogneau-Ouest,,4.8771,-52.3310,"French Guiana",GF,GUF,,,,,,294.1,,,3,America/Cayenne,FALSE,1254718322
Mamaï,Mamai,,5.3899,-54.1219,"French Guiana",GF,GUF,,,,,,19.2,,,4,America/Cayenne,FALSE,1254850412
Capon,Capon,,3.9154,-51.8431,"French Guiana",GF,GUF,,,,,,3.1,,,5,America/Cayenne,FALSE,1254130906
Akilengui,Akilengui,,5.0833,-54.4000,"French Guiana",GF,GUF,,,,,,6.0,,,5,America/Cayenne,FALSE,1254197678
"Petite Patience","Petite Patience",,5.2205,-54.3035,"French Guiana",GF,GUF,,,,,,6.0,,,5,America/Cayenne,FALSE,1254741731
Lavaud,Lavaud,,3.0029,-54.1692,"French Guiana",GF,GUF,,,,,,0.7,,,5,America/Cayenne,FALSE,1254170666
"Camp Béatrice","Camp Beatrice",,4.9482,-54.4371,"French Guiana",GF,GUF,,,,,,6.0,,,5,America/Cayenne,FALSE,1254574686
Doling,Doling,,5.3215,-54.1784,"French Guiana",GF,GUF,,,,,,19.2,,,4,America/Cayenne,FALSE,1254585605
Naiman,Naiman,,5.4893,-54.0377,"French Guiana",GF,GUF,,,,,,19.2,,,4,America/Cayenne,FALSE,1254000031
Saulnier,Saulnier,,5.2698,-52.9644,"French Guiana",GF,GUF,,,,,,2.9,,,5,America/Cayenne,FALSE,1254678755
Risquetout,Risquetout,,4.9164,-52.5125,"French Guiana",GF,GUF,,,,,,7.4,,,5,America/Cayenne,FALSE,1254814182
Théophane,Theophane,,3.7150,-54.0779,"French Guiana",GF,GUF,,,,,,0.5,,,5,America/Cayenne,FALSE,1254406557
"Pays Indien","Pays Indien",,4.1653,-51.7782,"French Guiana",GF,GUF,,,,,,0.1,,,5,America/Cayenne,FALSE,1254405481
"Village Inipi","Village Inipi",Inipi,3.2500,-52.9500,"French Guiana",GF,GUF,,,,,,0.2,,,5,America/Cayenne,FALSE,1254719574
"Maman Valentin","Maman Valentin",,5.3268,-53.6611,"French Guiana",GF,GUF,,,,,,2.2,,,5,America/Cayenne,FALSE,1254897980
Balata-Est,Balata-Est,,4.8861,-52.3332,"French Guiana",GF,GUF,,,,,,294.1,,,3,America/Cayenne,FALSE,1254215467
"Aéroplane Kondé","Aeroplane Konde","Aéroplane Condé",4.4274,-54.4338,"French Guiana",GF,GUF,,,,,,3.3,,,5,America/Cayenne,FALSE,1254279791
"Grosse Roche","Grosse Roche",,5.2505,-53.4116,"French Guiana",GF,GUF,,,,,,1.1,,,5,America/Cayenne,FALSE,1254301355
"Abouna Sounga","Abouna Sounga",,4.0538,-54.3574,"French Guiana",GF,GUF,,,,,,4.1,,,5,America/Paramaribo,FALSE,1254754759
Patience,Patience,,5.2260,-54.2990,"French Guiana",GF,GUF,,,,,,6.0,,,5,America/Cayenne,FALSE,1254194980
Chantal,Chantal,"Placer Chantal",4.4035,-54.3674,"French Guiana",GF,GUF,,,,,,3.4,,,5,America/Cayenne,FALSE,1254623222
Préfontaine,Prefontaine,,4.9770,-52.4987,"French Guiana",GF,GUF,,,,,,52.4,,,4,America/Cayenne,FALSE,1254000004
Romain,Romain,,5.6928,-53.8296,"French Guiana",GF,GUF,,,,,,2.2,,,5,America/Cayenne,FALSE,1254364269
Awala,Awala,Awara|Aouara|Awala-Yalimapo,5.7364,-53.9087,"French Guiana",GF,GUF,,,,,,12.3,,,4,America/Cayenne,FALSE,1254979790
"Amékan Tabiki","Amekan Tabiki",,4.8167,-54.4667,"French Guiana",GF,GUF,,,,,,6.0,,,5,America/Cayenne,FALSE,1254813347
"Vieux Grand-Santi","Vieux Grand-Santi","Grand Santi",4.3190,-54.3866,"French Guiana",GF,GUF,,,,,,3.4,,,5,America/Cayenne,FALSE,1254410935
Javouhey,Javouhey,,5.6066,-53.8185,"French Guiana",GF,GUF,,,,,,2.2,,,5,America/Cayenne,FALSE,1254768935
Midénangalanti,Midenangalanti,,5.0416,-54.4210,"French Guiana",GF,GUF,,,,,,6.0,,,5,America/Cayenne,FALSE,1254983236
"Roches Blanches","Roches Blanches",,5.4944,-53.3210,"French Guiana",GF,GUF,,,,,,1.1,,,5,America/Cayenne,FALSE,1254554881
Montsinéry,Montsinery,,4.8919,-52.4938,"French Guiana",GF,GUF,,,,,minor,7.4,,,3,America/Cayenne,FALSE,1254571281
"Habitation Rozé","Habitation Roze",,3.8140,-51.8711,"French Guiana",GF,GUF,,,,,,3.0,,,5,America/Cayenne,FALSE,1254517256
"Résidence Cogneau-Larivot","Residence Cogneau-Larivot",,4.8938,-52.3412,"French Guiana",GF,GUF,,,,,,294.1,,,3,America/Cayenne,FALSE,1254000015
"Kofi Kamiza","Kofi Kamiza",,4.1833,-54.4000,"French Guiana",GF,GUF,,,,,,2.5,,,5,America/Paramaribo,FALSE,1254114077
"La Levée","La Levee",,4.8319,-52.3083,"French Guiana",GF,GUF,,,,,,294.1,,,3,America/Cayenne,FALSE,1254000045
"Grand Marquis","Grand Marquis",,3.7241,-53.5800,"French Guiana",GF,GUF,,,,,,0.9,,,5,America/Cayenne,FALSE,1254433099
Raban,Raban,,4.9077,-52.2980,"French Guiana",GF,GUF,,,,,,508.6,,,3,America/Cayenne,FALSE,1254331184
Almaric,Almaric,,4.9279,-52.2826,"French Guiana",GF,GUF,,,,,,746.0,,,3,America/Cayenne,FALSE,1254186839
"Grand Siton","Grand Siton","Grand Citron",4.2800,-54.3876,"French Guiana",GF,GUF,,,,,,2.8,,,5,America/Cayenne,FALSE,1254087362
"Le Gallion","Le Gallion",,4.7831,-52.4290,"French Guiana",GF,GUF,,,,,,7.4,,,5,America/Cayenne,FALSE,1254966423
Acarouany,Acarouany,"Village Saramaka",5.4518,-53.7859,"French Guiana",GF,GUF,,,,,,2.2,,,5,America/Cayenne,FALSE,1254548728
Acarouany,Acarouany,Acarouani,5.5925,-53.8145,"French Guiana",GF,GUF,,,,,,2.2,,,5,America/Cayenne,TRUE,1254086684
Mofiéna,Mofiena,,5.0752,-54.4068,"French Guiana",GF,GUF,,,,,,5.2,,,5,America/Cayenne,FALSE,1254379764
"Nouveau Camp","Nouveau Camp",,5.5637,-53.9183,"French Guiana",GF,GUF,,,,,,19.2,,,4,America/Cayenne,FALSE,1254198481
"Bois Diable","Bois Diable",,5.5897,-53.8329,"French Guiana",GF,GUF,,,,,,2.2,,,5,America/Cayenne,FALSE,1254000019
"Montagne Sable","Montagne Sable",,5.5782,-53.6003,"French Guiana",GF,GUF,,,,,,2.2,,,5,America/Cayenne,FALSE,1254448404
Akati,Akati,,5.0145,-54.4375,"French Guiana",GF,GUF,,,,,,3.2,,,5,America/Cayenne,FALSE,1254436844
Balaté,Balate,,5.4816,-54.0412,"French Guiana",GF,GUF,,,,,,19.2,,,4,America/Cayenne,FALSE,1254869037
"Petit Placer","Petit Placer",,4.5100,-52.4862,"French Guiana",GF,GUF,,,,,,1.1,,,5,America/Cayenne,FALSE,1254840052
"Village Tintin","Village Tintin","Tintin|Lieu-dit Tintin",4.2380,-52.2569,"French Guiana",GF,GUF,,,,,,0.1,,,5,America/Cayenne,FALSE,1254626603
Yédi,Yedi,,4.9780,-54.4396,"French Guiana",GF,GUF,,,,,,6.0,,,5,America/Cayenne,FALSE,1254860173
Macoua,Macoua,Macouba,5.5307,-53.4059,"French Guiana",GF,GUF,,,,,,1.1,,,5,America/Cayenne,FALSE,1254147592
"Carbet Toukan","Carbet Toukan",,5.2000,-52.7667,"French Guiana",GF,GUF,,,,,,15.3,,,4,America/Cayenne,FALSE,1254276352
"Nouvelle Alliance","Nouvelle Alliance",,4.0109,-51.7408,"French Guiana",GF,GUF,,,,,,3.1,,,5,America/Cayenne,FALSE,1254762711
"Trois Rois","Trois Rois",,4.9482,-52.5310,"French Guiana",GF,GUF,,,,,,52.4,,,4,America/Cayenne,FALSE,1254157324
"Amapa II","Amapa II",,5.4837,-54.0158,"French Guiana",GF,GUF,,,,,,19.2,,,4,America/Cayenne,FALSE,1254000047
"Paa Chton","Paa Chton",,3.7234,-54.0812,"French Guiana",GF,GUF,,,,,,0.7,,,5,America/Cayenne,FALSE,1254313181
"Domaine de Soula","Domaine de Soula",,4.9261,-52.4014,"French Guiana",GF,GUF,,,,,,52.4,,,4,America/Cayenne,FALSE,1254599826
Tapoékoé,Tapoekoe,,5.0632,-54.4149,"French Guiana",GF,GUF,,,,,,5.7,,,5,America/Cayenne,FALSE,1254273961
Baticane,Baticane,,5.4822,-53.6640,"French Guiana",GF,GUF,,,,,,2.2,,,5,America/Cayenne,FALSE,1254044881
"Saleli Condé","Saleli Conde",,3.5719,-53.9951,"French Guiana",GF,GUF,,,,,,0.7,,,5,America/Cayenne,FALSE,1254100191
Laussat,Laussat,,5.4883,-53.5588,"French Guiana",GF,GUF,,,,,,2.2,,,5,America/Cayenne,FALSE,1254452518
Calumet,Calumet,,4.9656,-52.5341,"French Guiana",GF,GUF,,,,,,52.4,,,4,America/Cayenne,FALSE,1254619954
"Crique Jacques","Crique Jacques",,5.6522,-53.8322,"French Guiana",GF,GUF,,,,,,2.2,,,5,America/Cayenne,FALSE,1254362004
Maripa,Maripa,Féno,5.3024,-54.1961,"French Guiana",GF,GUF,,,,,,19.2,,,4,America/Cayenne,FALSE,1254822183
Maripa,Maripa,,4.8526,-52.5191,"French Guiana",GF,GUF,,,,,,7.4,,,5,America/Cayenne,TRUE,1254000050
Maripa,Maripa,,4.6770,-52.3467,"French Guiana",GF,GUF,,,,,,1.1,,,5,America/Cayenne,TRUE,1254000020
Poupon,Poupon,,4.9224,-52.2784,"French Guiana",GF,GUF,,,,,,508.6,,,3,America/Cayenne,FALSE,1254890354
Aloïké,Aloike,"Village Roucouyenne|Alowike",3.3283,-54.0541,"French Guiana",GF,GUF,,,,,,0.9,,,5,America/Cayenne,FALSE,1254166583
Aloïké,Aloike,,3.6276,-53.9914,"French Guiana",GF,GUF,,,,,,0.7,,,5,America/Cayenne,TRUE,1254350803
"Route de Saint-Jean","Route de Saint-Jean",,5.4376,-54.0375,"French Guiana",GF,GUF,,,,,,19.2,,,4,America/Cayenne,FALSE,1254000036
Montravel,Montravel,,4.9091,-52.2668,"French Guiana",GF,GUF,,,,,,508.6,,,3,America/Cayenne,FALSE,1254180300
"Palimino Pata","Palimino Pata",,3.2946,-54.1004,"French Guiana",GF,GUF,,,,,,0.9,,,5,America/Cayenne,FALSE,1254929360
Dégourdi,Degourdi,,4.9712,-53.0912,"French Guiana",GF,GUF,,,,,,2.9,,,5,America/Cayenne,FALSE,1254784214
Régina,Regina,,4.3130,-52.1308,"French Guiana",GF,GUF,,,,,minor,0.1,,,3,America/Cayenne,FALSE,1254145221
Jojo,Jojo,Jejo,5.4064,-52.9994,"French Guiana",GF,GUF,,,,,,2.9,,,5,America/Cayenne,FALSE,1254872181
"Camp Maïpouri","Camp Maipouri",,5.1490,-53.9809,"French Guiana",GF,GUF,,,,,,2.2,,,5,America/Cayenne,FALSE,1254307390
Balata-Ouest,Balata-Ouest,"Cité Balata|Balata",4.8867,-52.3419,"French Guiana",GF,GUF,,,,,,294.1,,,3,America/Cayenne,FALSE,1254879186
Ouaqui,Ouaqui,,3.4536,-53.9920,"French Guiana",GF,GUF,,,,,,0.9,,,5,America/Cayenne,FALSE,1254800127
Cacao,Cacao,"Dégrad Cacao",4.5712,-52.4683,"French Guiana",GF,GUF,,,,,,1.1,,,5,America/Cayenne,FALSE,1254952266
Balalou,Balalou,,5.3960,-53.0043,"French Guiana",GF,GUF,,,,,,2.9,,,5,America/Cayenne,FALSE,1254139073
Pina,Pina,,2.2831,-52.8593,"French Guiana",GF,GUF,,,,,,0.2,,,5,America/Cayenne,FALSE,1254137793
Pimpin,Pimpin,"Doffi Anicet",5.3180,-54.1815,"French Guiana",GF,GUF,,,,,,19.2,,,4,America/Cayenne,FALSE,1254562608
Kialiondo,Kialiondo,,5.2307,-54.2945,"French Guiana",GF,GUF,,,,,,6.0,,,5,America/Cayenne,FALSE,1254889976
Dadanki,Dadanki,Danké,4.3754,-54.3685,"French Guiana",GF,GUF,,,,,,3.4,,,5,America/Cayenne,FALSE,1254833990
Matoupan,Matoupan,,4.7662,-52.3310,"French Guiana",GF,GUF,,,,,,294.1,,,3,America/Cayenne,FALSE,1254000062
Doudou,Doudou,,5.1906,-54.3210,"French Guiana",GF,GUF,,,,,,6.0,,,5,America/Cayenne,FALSE,1254750169
"Village Yofé","Village Yofe",Yofé,5.4329,-53.6754,"French Guiana",GF,GUF,,,,,,2.2,,,5,America/Cayenne,FALSE,1254329727
Tampak,Tampak,Tampac,3.9455,-51.7859,"French Guiana",GF,GUF,,,,,,3.1,,,5,America/Cayenne,FALSE,1254789699
Bananes,Bananes,,4.9747,-52.4466,"French Guiana",GF,GUF,,,,,,52.4,,,4,America/Cayenne,FALSE,1254000010
Rémire,Remire,Ramire|Rémiré,4.8858,-52.2786,"French Guiana",GF,GUF,,,,,minor,508.6,,,3,America/Cayenne,FALSE,1254064224
Akouménaï,Akoumenai,Akoumenaye|Akouménay,3.0010,-52.3676,"French Guiana",GF,GUF,,,,,,0.2,,,5,America/Cayenne,FALSE,1254132589
Patawa,Patawa,"Mac Donald",4.8385,-52.5113,"French Guiana",GF,GUF,,,,,,7.4,,,5,America/Cayenne,FALSE,1254498979
Patawa,Patawa,,4.5445,-52.1526,"French Guiana",GF,GUF,,,,,,0.1,,,5,America/Cayenne,TRUE,1254000037
"Papi Kondé","Papi Konde",,5.0954,-54.3867,"French Guiana",GF,GUF,,,,,,6.0,,,5,America/Cayenne,FALSE,1254070625
Organabo,Organabo,,5.5474,-53.4546,"French Guiana",GF,GUF,,,,,,1.2,,,5,America/Cayenne,FALSE,1254039623
Lissa,Lissa,,4.9789,-54.4400,"French Guiana",GF,GUF,,,,,,6.0,,,5,America/Cayenne,FALSE,1254622580
"Amékan Kampou","Amekan Kampou",,4.9679,-54.4360,"French Guiana",GF,GUF,,,,,,6.0,,,5,America/Cayenne,FALSE,1254377978
"Petit Fouet","Petit Fouet",,4.8998,-54.4736,"French Guiana",GF,GUF,,,,,,5.9,,,5,America/Cayenne,FALSE,1254617990
Réséda,Reseda,,4.8759,-52.2785,"French Guiana",GF,GUF,,,,,,508.6,,,3,America/Cayenne,FALSE,1254000041
Charvein,Charvein,"Camp Charvein",5.5755,-53.8963,"French Guiana",GF,GUF,,,,,,11.4,,,4,America/Cayenne,FALSE,1254276656
Mafi,Mafi,"Village Maffi",4.2988,-52.1145,"French Guiana",GF,GUF,,,,,,0.1,,,5,America/Cayenne,FALSE,1254695157
Kouiakou,Kouiakou,,3.7322,-54.0908,"French Guiana",GF,GUF,,,,,,0.5,,,5,America/Cayenne,FALSE,1254921941
Grand-Santi,Grand-Santi,,4.2729,-54.3815,"French Guiana",GF,GUF,,,,,,3.4,,,5,America/Cayenne,FALSE,1254650977
Papinabo,Papinabo,,5.0917,-52.6924,"French Guiana",GF,GUF,,,,,,15.3,,,4,America/Cayenne,FALSE,1254000055
Carbets,Carbets,,3.4125,-53.8843,"French Guiana",GF,GUF,,,,,,0.9,,,5,America/Cayenne,FALSE,1254276529
"La Charbonnière","La Charbonniere",,5.4904,-54.0359,"French Guiana",GF,GUF,,,,,,19.2,,,4,America/Cayenne,FALSE,1254000044
Kodio,Kodio,,5.2006,-54.3122,"French Guiana",GF,GUF,,,,,,6.0,,,5,America/Cayenne,FALSE,1254105285
Foukatiami,Foukatiami,,5.2338,-54.2910,"French Guiana",GF,GUF,,,,,,6.0,,,5,America/Cayenne,FALSE,1254015387
"Eau Blanche","Eau Blanche",,5.0667,-53.4833,"French Guiana",GF,GUF,,,,,,1.1,,,5,America/Cayenne,FALSE,1254006977
Cigogne,Cigogne,,4.8021,-52.4729,"French Guiana",GF,GUF,,,,,,7.4,,,5,America/Cayenne,FALSE,1254000049
"Bigui Béligui","Bigui Beligui",,5.1882,-54.3225,"French Guiana",GF,GUF,,,,,,6.0,,,5,America/Cayenne,FALSE,1254701474
Dacca,Dacca,,4.7387,-52.3206,"French Guiana",GF,GUF,,,,,,1.1,,,5,America/Cayenne,FALSE,1254088630
Patou,Patou,"Dégrad Pimpin",5.3104,-54.1836,"French Guiana",GF,GUF,,,,,,19.2,,,4,America/Cayenne,FALSE,1254359730
Saint-Élie,Saint-Elie,"Sainte Élie",4.8243,-53.2882,"French Guiana",GF,GUF,,,,,,0.2,,,5,America/Cayenne,FALSE,1254211028
"Eau Coulie","Eau Coulie",,4.9333,-52.3167,"French Guiana",GF,GUF,,,,,,2611.7,,,2,America/Cayenne,FALSE,1254992571
Mayman,Mayman,,5.1818,-54.3246,"French Guiana",GF,GUF,,,,,,6.0,,,5,America/Cayenne,FALSE,1254933077
Nancibo,Nancibo,,4.6728,-52.4558,"French Guiana",GF,GUF,,,,,,1.5,,,5,America/Cayenne,FALSE,1254221466
Mogès,Moges,,4.7932,-52.3415,"French Guiana",GF,GUF,,,,,,294.1,,,3,America/Cayenne,FALSE,1254459395
Koyona,Koyona,,5.3917,-54.1171,"French Guiana",GF,GUF,,,,,,19.2,,,4,America/Cayenne,FALSE,1254005423
Kormontibo,Kormontibo,Cormontibo|Kormotibo|Cormotibo,3.8042,-54.1412,"French Guiana",GF,GUF,,,,,,3.3,,,4,America/Cayenne,FALSE,1254485521
Embouchure,Embouchure,,4.9740,-53.0323,"French Guiana",GF,GUF,,,,,,0.7,,,5,America/Cayenne,FALSE,1254768216
Austerlitz,Austerlitz,,4.8747,-52.3676,"French Guiana",GF,GUF,,,,,,294.1,,,3,America/Cayenne,FALSE,1254212447
Wangéa,Wangea,,5.0979,-54.3818,"French Guiana",GF,GUF,,,,,,6.0,,,5,America/Cayenne,FALSE,1254126075
"Montagne Maripa","Montagne Maripa",,4.4167,-52.3333,"French Guiana",GF,GUF,,,,,,1.1,,,5,America/Cayenne,FALSE,1254920288
"Village Indien Arawak","Village Indien Arawak","Village Cécilia|Village Indien",4.8996,-52.3424,"French Guiana",GF,GUF,,,,,,294.1,,,3,America/Cayenne,FALSE,1254173827
Sainte-Marie-les-Mines,Sainte-Marie-les-Mines,,4.5603,-52.4179,"French Guiana",GF,GUF,,,,,,1.1,,,5,America/Cayenne,FALSE,1254897318
"Îlet Lézard","Ilet Lezard",,5.0486,-53.7921,"French Guiana",GF,GUF,,,,,,4.2,,,5,America/Cayenne,FALSE,1254222258
Nataniel,Nataniel,,5.0907,-54.3930,"French Guiana",GF,GUF,,,,,,6.0,,,5,America/Cayenne,FALSE,1254235686
"Pointe Isère","Pointe Isere",,5.7361,-53.8577,"French Guiana",GF,GUF,,,,,,12.3,,,4,America/Cayenne,FALSE,1254718418
"Filon Doyle","Filon Doyle",,4.5087,-52.4617,"French Guiana",GF,GUF,,,,,,1.1,,,5,America/Cayenne,FALSE,1254930209
"Trou Caïmans","Trou Caimans",,5.4507,-53.1392,"French Guiana",GF,GUF,,,,,,1.1,,,5,America/Cayenne,FALSE,1254643376
Papaïchton,Papaichton,Pompidou,3.8058,-54.1446,"French Guiana",GF,GUF,,,,,,2.7,,,5,America/Cayenne,FALSE,1254653200
Sainte-Thérèse,Sainte-Therese,,4.7630,-52.3270,"French Guiana",GF,GUF,,,,,,294.1,,,3,America/Cayenne,FALSE,1254000013
Siguy,Siguy,,5.4730,-54.0328,"French Guiana",GF,GUF,,,,,,19.2,,,4,America/Cayenne,FALSE,1254000034
Ponta,Ponta,,5.2165,-54.3053,"French Guiana",GF,GUF,,,,,,6.0,,,5,America/Cayenne,FALSE,1254214423
Coralie,Coralie,,4.5107,-52.3512,"French Guiana",GF,GUF,,,,,,1.1,,,5,America/Cayenne,FALSE,1254631379
Elaé,Elae,,3.4657,-54.0057,"French Guiana",GF,GUF,,,,,,0.9,,,5,America/Cayenne,FALSE,1254550360
Kamadé,Kamade,,4.9645,-54.4363,"French Guiana",GF,GUF,,,,,,6.0,,,5,America/Cayenne,FALSE,1254826056
"Tcha Tcha","Tcha Tcha",,3.9057,-54.2506,"French Guiana",GF,GUF,,,,,,4.1,,,5,America/Paramaribo,FALSE,1254998174
Ankel,Ankel,,5.2945,-54.2086,"French Guiana",GF,GUF,,,,,,19.2,,,4,America/Cayenne,FALSE,1254467870
"Vieux Assissi","Vieux Assissi",Assisi|Assici|Asisie|Asisi|Assissi,3.8217,-54.1988,"French Guiana",GF,GUF,,,,,,2.2,,,4,America/Cayenne,FALSE,1254176347
Fourgassié,Fourgassie,"Dégrad Fourgassié",4.6251,-52.3096,"French Guiana",GF,GUF,,,,,,1.1,,,5,America/Cayenne,FALSE,1254682704
Itousanseng,Itousanseng,"Villages Oyampi",2.1963,-52.9189,"French Guiana",GF,GUF,,,,,,0.2,,,5,America/Cayenne,FALSE,1254430485
Lobimakani,Lobimakani,,5.0318,-54.4261,"French Guiana",GF,GUF,,,,,,2.6,,,5,America/Cayenne,FALSE,1254125649
"La Villette","La Villette",,4.9456,-53.1616,"French Guiana",GF,GUF,,,,,,0.2,,,5,America/Cayenne,FALSE,1254518088
"La Césarée","La Cesaree",,5.0213,-52.5250,"French Guiana",GF,GUF,,,,,,52.4,,,4,America/Cayenne,FALSE,1254266780
"Kola Assakio","Kola Assakio",Paramaka,5.2781,-54.2450,"French Guiana",GF,GUF,,,,,,19.2,,,4,America/Cayenne,FALSE,1254273939
Jean-Marie,Jean-Marie,,4.8853,-52.3341,"French Guiana",GF,GUF,,,,,,294.1,,,3,America/Cayenne,FALSE,1254179715
Twenké,Twenke,Toanke|Touanke,3.3797,-54.0575,"French Guiana",GF,GUF,,,,,,0.9,,,5,America/Cayenne,FALSE,1254202472
"Parcours Noir","Parcours Noir",,3.4112,-52.1339,"French Guiana",GF,GUF,,,,,,0.2,,,5,America/Cayenne,FALSE,1254863433
Flèche,Fleche,,5.5274,-53.3879,"French Guiana",GF,GUF,,,,,,1.1,,,5,America/Cayenne,FALSE,1254363219
Louvrier,Louvrier,,4.9283,-52.4644,"French Guiana",GF,GUF,,,,,,10.3,,,4,America/Cayenne,FALSE,1254094865
Sendilé,Sendile,,5.2863,-54.2169,"French Guiana",GF,GUF,,,,,,19.2,,,4,America/Cayenne,FALSE,1254868319
Couachinana,Couachinana,Kouachinana,5.6251,-53.6979,"French Guiana",GF,GUF,,,,,,2.2,,,5,America/Cayenne,FALSE,1254464947
Lioni,Lioni,"Village Lioni",4.0933,-54.3398,"French Guiana",GF,GUF,,,,,,4.1,,,5,America/Cayenne,FALSE,1254171029
Tolinga,Tolinga,,3.6646,-53.9309,"French Guiana",GF,GUF,,,,,,0.9,,,5,America/Cayenne,FALSE,1254101920
Marignan,Marignan,,4.7978,-52.4615,"French Guiana",GF,GUF,,,,,,7.4,,,5,America/Cayenne,FALSE,1254842101
Marignan,Marignan,,4.6333,-52.4500,"French Guiana",GF,GUF,,,,,,1.1,,,5,America/Cayenne,TRUE,1254407413
"Lipo Lipo","Lipo Lipo",,3.2980,-54.0547,"French Guiana",GF,GUF,,,,,,0.9,,,5,America/Cayenne,FALSE,1254536871
"La Bordelaise","La Bordelaise",,4.9593,-52.4757,"French Guiana",GF,GUF,,,,,,52.4,,,4,America/Cayenne,FALSE,1254767121
"Lotissement Maillard","Lotissement Maillard",,4.9708,-52.4419,"French Guiana",GF,GUF,,,,,,52.4,,,4,America/Cayenne,FALSE,1254000005
Pédima,Pedima,Malavate,3.3096,-54.0939,"French Guiana",GF,GUF,,,,,,0.8,,,5,America/Paramaribo,FALSE,1254403040
"Trou Poissons","Trou Poissons","Trou Poisson",5.4283,-53.0894,"French Guiana",GF,GUF,,,,,,1.2,,,5,America/Cayenne,FALSE,1254440210
"Pointe Combi","Pointe Combi",,5.3117,-52.9548,"French Guiana",GF,GUF,,,,,,2.9,,,5,America/Cayenne,FALSE,1254677166
Populo,Populo,,5.6127,-53.8171,"French Guiana",GF,GUF,,,,,,2.2,,,5,America/Cayenne,FALSE,1254353796
Ruben,Ruben,,5.3603,-54.1328,"French Guiana",GF,GUF,,,,,,19.2,,,4,America/Cayenne,FALSE,1254167447
"Dagou Edé","Dagou Ede",,4.1667,-52.2667,"French Guiana",GF,GUF,,,,,,0.1,,,5,America/Cayenne,FALSE,1254769152
Fatima,Fatima,,5.4999,-54.0129,"French Guiana",GF,GUF,,,,,,19.2,,,4,America/Cayenne,FALSE,1254000024
Mana,Mana,,5.6691,-53.7790,"French Guiana",GF,GUF,,,,,minor,2.2,,,3,America/Cayenne,FALSE,1254730761
"Wabouli Koulon","Wabouli Koulon",,5.2861,-54.2298,"French Guiana",GF,GUF,,,,,,19.2,,,4,America/Cayenne,FALSE,1254278629
Fazendinha,Fazendinha,,4.9692,-52.4759,"French Guiana",GF,GUF,,,,,,52.4,,,4,America/Cayenne,FALSE,1254321420
"Basse Terre","Basse Terre",,4.8365,-52.4829,"French Guiana",GF,GUF,,,,,,7.4,,,5,America/Cayenne,FALSE,1254000051
Devez,Devez,,4.5167,-52.4333,"French Guiana",GF,GUF,,,,,,1.1,,,5,America/Cayenne,FALSE,1254630224
Cariacou,Cariacou,Kariakou,4.8117,-53.1712,"French Guiana",GF,GUF,,,,,,0.2,,,5,America/Cayenne,FALSE,1254297853
Stoupan,Stoupan,,4.7791,-52.3435,"French Guiana",GF,GUF,,,,,,294.1,,,3,America/Cayenne,FALSE,1254881148
"Îlets Mogès","Ilets Moges",,4.7944,-52.3311,"French Guiana",GF,GUF,,,,,,294.1,,,3,America/Cayenne,FALSE,1254000007
Babel,Babel,,5.0167,-54.4333,"French Guiana",GF,GUF,,,,,,5.8,,,5,America/Cayenne,FALSE,1254265407
Nofrayan,Nofrayan,,4.9165,-52.5217,"French Guiana",GF,GUF,,,,,,7.4,,,5,America/Cayenne,FALSE,1254000006
Maripa-Village,Maripa-Village,,3.6333,-54.0500,"French Guiana",GF,GUF,,,,,,0.9,,,5,America/Paramaribo,FALSE,1254263839
"Village Coco","Village Coco",Soukoulobi,5.2587,-54.2736,"French Guiana",GF,GUF,,,,,,6.0,,,5,America/Cayenne,FALSE,1254865499
Baïno,Baino,,5.2781,-54.2426,"French Guiana",GF,GUF,,,,,,19.2,,,4,America/Cayenne,FALSE,1254559406
Baïno,Baino,,4.9333,-54.4500,"French Guiana",GF,GUF,,,,,,6.0,,,5,America/Paramaribo,TRUE,1254236934
"Crique Marguerite","Crique Marguerite",,4.6275,-52.3316,"French Guiana",GF,GUF,,,,,,1.1,,,5,America/Cayenne,FALSE,1254000022
"Camp du Tigre","Camp du Tigre",,4.9130,-52.3085,"French Guiana",GF,GUF,,,,,,2586.9,,,2,America/Cayenne,FALSE,1254563895
Sparouine,Sparouine,,5.2714,-54.2595,"French Guiana",GF,GUF,,,,,,6.0,,,5,America/Cayenne,FALSE,1254636471
"Mainia Ondo","Mainia Ondo",,5.0564,-54.4170,"French Guiana",GF,GUF,,,,,,0.6,,,5,America/Cayenne,FALSE,1254788297
"Deux Jours","Deux Jours",,5.0167,-53.1500,"French Guiana",GF,GUF,,,,,,2.2,,,5,America/Cayenne,FALSE,1254430045
"Dégrad Ménado","Degrad Menado",,4.6242,-52.4251,"French Guiana",GF,GUF,,,,,,1.1,,,5,America/Cayenne,FALSE,1254131791
"Langa Tabiki","Langa Tabiki",,4.9864,-54.4358,"French Guiana",GF,GUF,,,,,,5.9,,,5,America/Cayenne,FALSE,1254381825
Florissante,Florissante,,3.3906,-52.8991,"French Guiana",GF,GUF,,,,,,0.1,,,5,America/Cayenne,FALSE,1254984894
Sursaut,Sursaut,,4.9608,-53.1508,"French Guiana",GF,GUF,,,,,,0.2,,,5,America/Cayenne,FALSE,1254860205
Mentillé,Mentille,,5.2745,-54.2551,"French Guiana",GF,GUF,,,,,,13.7,,,4,America/Cayenne,FALSE,1254667211
Tampok,Tampok,,3.3236,-53.8353,"French Guiana",GF,GUF,,,,,,0.9,,,5,America/Cayenne,FALSE,1254394142
Sania,Sania,,5.1919,-54.3194,"French Guiana",GF,GUF,,,,,,6.0,,,5,America/Cayenne,FALSE,1254501151
"Beau Soleil","Beau Soleil",,4.8666,-52.2522,"French Guiana",GF,GUF,,,,,,508.6,,,3,America/Cayenne,FALSE,1254928103
Sainte-Anne,Sainte-Anne,"Sainte Anne Dégrad",4.8042,-53.1101,"French Guiana",GF,GUF,,,,,,0.2,,,5,America/Cayenne,FALSE,1254025837
Prospérité,Prosperite,,5.4761,-53.9303,"French Guiana",GF,GUF,,,,,,11.7,,,4,America/Cayenne,FALSE,1254000027
"Le Grand Beauregard","Le Grand Beauregard",,4.8917,-52.2796,"French Guiana",GF,GUF,,,,,,508.6,,,3,America/Cayenne,FALSE,1254965283
Sokoumou,Sokoumou,"Socoumou|Chantier Forestier de Socoumou",5.0554,-52.6847,"French Guiana",GF,GUF,,,,,,15.3,,,4,America/Cayenne,FALSE,1254646921
"Ana Kondé","Ana Konde",,4.2464,-54.3842,"French Guiana",GF,GUF,,,,,,2.6,,,5,America/Cayenne,FALSE,1254511302
Kader,Kader,,4.9527,-54.4364,"French Guiana",GF,GUF,,,,,,6.0,,,5,America/Cayenne,FALSE,1254443914
Boussoussa,Boussoussa,,3.6524,-54.0136,"French Guiana",GF,GUF,,,,,,0.9,,,5,America/Cayenne,FALSE,1254080626
"Carrefour de Mana","Carrefour de Mana",,5.5000,-53.9833,"French Guiana",GF,GUF,,,,,,19.2,,,4,America/Cayenne,FALSE,1254262374
"Camp Voltaire","Camp Voltaire",,5.0533,-54.0898,"French Guiana",GF,GUF,,,,,,19.2,,,4,America/Cayenne,FALSE,1254747568
Abompé,Abompe,,5.2730,-54.2581,"French Guiana",GF,GUF,,,,,,13.7,,,4,America/Cayenne,FALSE,1254103172
Cogneau-Est,Cogneau-Est,,4.8772,-52.3233,"French Guiana",GF,GUF,,,,,,294.1,,,3,America/Cayenne,FALSE,1254876284
"La Chaumière","La Chaumiere",,4.8844,-52.3587,"French Guiana",GF,GUF,,,,,,294.1,,,3,America/Cayenne,FALSE,1254423586
"La Chaumière","La Chaumiere",,4.5987,-52.4047,"French Guiana",GF,GUF,,,,,,1.1,,,5,America/Cayenne,TRUE,1254000061
"La Colline Verte","La Colline Verte",,4.9197,-52.5376,"French Guiana",GF,GUF,,,,,,25.6,,,4,America/Cayenne,FALSE,1254000003
Rosa,Rosa,,5.0530,-54.4167,"French Guiana",GF,GUF,,,,,,0.6,,,5,America/Cayenne,FALSE,1254089722
"Village Indien Sainte-Rose de Lima","Village Indien Sainte-Rose de Lima","Village Indien",4.8327,-52.3370,"French Guiana",GF,GUF,,,,,,294.1,,,3,America/Cayenne,FALSE,1254827665
"Auberge des Orpailleurs","Auberge des Orpailleurs",,4.5116,-52.3513,"French Guiana",GF,GUF,,,,,,1.1,,,5,America/Cayenne,FALSE,1254945294
Janvier,Janvier,,5.1667,-54.1500,"French Guiana",GF,GUF,,,,,,19.2,,,4,America/Cayenne,FALSE,1254809869
Camélie,Camelie,,5.0500,-54.4167,"French Guiana",GF,GUF,,,,,,0.6,,,5,America/Cayenne,FALSE,1254769746
"Village Galibis","Village Galibis","Village Galibi",5.4000,-54.1167,"French Guiana",GF,GUF,,,,,,19.2,,,4,America/Cayenne,FALSE,1254406203
"Dégrad Corrèze","Degrad Correze",,4.5189,-52.3219,"French Guiana",GF,GUF,,,,,,1.1,,,5,America/Cayenne,FALSE,1254831211
Édouard,Edouard,"Village Emerillons|Village Emérillon|Civet|Émerillon",3.3957,-53.8299,"French Guiana",GF,GUF,,,,,,0.9,,,4,America/Cayenne,FALSE,1254787025
Sablance,Sablance,,4.9415,-52.4042,"French Guiana",GF,GUF,,,,,,52.4,,,4,America/Cayenne,FALSE,1254510488
Otily,Otily,,5.2741,-54.2561,"French Guiana",GF,GUF,,,,,,13.7,,,4,America/Cayenne,FALSE,1254809379
Nasson,Nasson,,4.8122,-54.4645,"French Guiana",GF,GUF,,,,,,5.5,,,5,America/Cayenne,FALSE,1254321376
Citron,Citron,,4.7403,-53.9623,"French Guiana",GF,GUF,,,,,,19.2,,,4,America/Cayenne,FALSE,1254525791
Kaw,Kaw,Caux,4.4865,-52.0371,"French Guiana",GF,GUF,,,,,,0.1,,,5,America/Cayenne,FALSE,1254148929
"Carbet les Maripas","Carbet les Maripas",,5.0449,-52.6902,"French Guiana",GF,GUF,,,,,,15.3,,,4,America/Cayenne,FALSE,1254000056
Santonia,Santonia,,4.7368,-54.4594,"French Guiana",GF,GUF,,,,,,6.0,,,5,America/Cayenne,FALSE,1254610724
Banane,Banane,Banana,4.8723,-52.5319,"French Guiana",GF,GUF,,,,,,7.4,,,5,America/Cayenne,FALSE,1254194224
Matiti,Matiti,,5.0331,-52.5742,"French Guiana",GF,GUF,,,,,,28.8,,,4,America/Cayenne,FALSE,1254311242
"Les Sables Blancs","Les Sables Blancs",,5.4820,-54.0136,"French Guiana",GF,GUF,,,,,,19.2,,,4,America/Cayenne,FALSE,1254000025
Kantali,Kantali,,5.4167,-54.3167,"French Guiana",GF,GUF,,,,,,0.4,,,5,America/Paramaribo,FALSE,1254489672
Coco,Coco,"Crique Coco",4.8631,-52.5215,"French Guiana",GF,GUF,,,,,,7.4,,,5,America/Cayenne,FALSE,1254202482
Coco,Coco,"Village Coco",4.3049,-52.1171,"French Guiana",GF,GUF,,,,,,0.1,,,5,America/Cayenne,TRUE,1254147234
Saint-Maurice,Saint-Maurice,,5.4848,-54.0291,"French Guiana",GF,GUF,,,,,,19.2,,,4,America/Cayenne,FALSE,1254625112
Corossony,Corossony,,5.4167,-53.0318,"French Guiana",GF,GUF,,,,,,2.9,,,5,America/Cayenne,FALSE,1254992657
Délices,Delices,,4.7368,-53.7650,"French Guiana",GF,GUF,,,,,,2.2,,,5,America/Cayenne,FALSE,1254668778
Morpio,Morpio,,5.4877,-53.3064,"French Guiana",GF,GUF,,,,,,1.1,,,5,America/Cayenne,FALSE,1254118411
Gode,Gode,,5.3392,-54.1672,"French Guiana",GF,GUF,,,,,,19.2,,,4,America/Cayenne,FALSE,1254961959
"Les Loussaïs","Les Loussais",,4.8869,-52.3493,"French Guiana",GF,GUF,,,,,,294.1,,,3,America/Cayenne,FALSE,1254510801
"Camp Lorrain","Camp Lorrain",,5.4946,-54.0254,"French Guiana",GF,GUF,,,,,,19.2,,,4,America/Cayenne,FALSE,1254000043
Coswine,Coswine,"Camp de Coswine",5.6488,-53.8635,"French Guiana",GF,GUF,,,,,,2.2,,,5,America/Cayenne,FALSE,1254619836
Beauséjour,Beausejour,,4.7883,-52.4319,"French Guiana",GF,GUF,,,,,,7.4,,,5,America/Cayenne,FALSE,1254784160
Caussade,Caussade,,5.0700,-52.5914,"French Guiana",GF,GUF,,,,,,52.3,,,4,America/Cayenne,FALSE,1254700992
Emmanuel,Emmanuel,,4.9542,-54.4364,"French Guiana",GF,GUF,,,,,,6.0,,,5,America/Cayenne,FALSE,1254224835
Soké,Soke,,5.3258,-54.1770,"French Guiana",GF,GUF,,,,,,19.2,,,4,America/Cayenne,FALSE,1254160324
Boulanger,Boulanger,,4.5622,-52.4130,"French Guiana",GF,GUF,,,,,,1.1,,,5,America/Cayenne,FALSE,1254390450
Assenté,Assente,,5.2702,-54.2606,"French Guiana",GF,GUF,,,,,,6.0,,,5,America/Cayenne,FALSE,1254034413
"Pikinn Tabiki","Pikinn Tabiki",,3.2399,-54.0770,"French Guiana",GF,GUF,,,,,,0.9,,,5,America/Cayenne,FALSE,1254824908
"Dégrad Canard","Degrad Canard",,5.6413,-53.7271,"French Guiana",GF,GUF,,,,,,2.2,,,5,America/Cayenne,FALSE,1254587492
"Cogneau-la Mirande","Cogneau-la Mirande",,4.8839,-52.3192,"French Guiana",GF,GUF,,,,,,637.9,,,3,America/Cayenne,FALSE,1254000016
Doglis,Doglis,Docris,3.7943,-54.1255,"French Guiana",GF,GUF,,,,,,4.0,,,5,America/Paramaribo,FALSE,1254677874
"Les Hattes","Les Hattes","Les Halles",5.7440,-53.9437,"French Guiana",GF,GUF,,,,,,12.3,,,4,America/Cayenne,FALSE,1254132821
Camopi,Camopi,,3.2115,-52.4606,"French Guiana",GF,GUF,,,,,,0.2,,,5,America/Cayenne,FALSE,1254986403
Foster,Foster,,5.1013,-54.3774,"French Guiana",GF,GUF,,,,,,4.0,,,5,America/Cayenne,FALSE,1254059188
Akodo,Akodo,,5.1667,-54.3333,"French Guiana",GF,GUF,,,,,,6.0,,,5,America/Cayenne,FALSE,1254516702
Pascaud,Pascaud,,4.8651,-52.2735,"French Guiana",GF,GUF,,,,,,508.6,,,3,America/Cayenne,FALSE,1254739515
Poncel,Poncel,,4.9010,-52.2990,"French Guiana",GF,GUF,,,,,,508.6,,,3,America/Cayenne,FALSE,1254684499
Montjoly,Montjoly,Montjoli,4.9148,-52.2694,"French Guiana",GF,GUF,,,,,,508.6,,,3,America/Cayenne,FALSE,1254519463
Yalimapo,Yalimapo,,5.7460,-53.9433,"French Guiana",GF,GUF,,,,,,12.3,,,4,America/Cayenne,FALSE,1254000058
"Bœuf Bois","Boeuf Bois",,4.9711,-53.0603,"French Guiana",GF,GUF,,,,,,0.2,,,5,America/Cayenne,FALSE,1254429123
Ceïde,Ceide,,4.8976,-52.2615,"French Guiana",GF,GUF,,,,,,508.6,,,3,America/Cayenne,FALSE,1254787248
"Mompé Soula","Mompe Soula",,4.5554,-54.4105,"French Guiana",GF,GUF,,,,,,3.4,,,5,America/Cayenne,FALSE,1254969983
"Port Inini","Port Inini",,4.8165,-52.4823,"French Guiana",GF,GUF,,,,,,7.4,,,5,America/Cayenne,FALSE,1254161370
"Saut Tigre","Saut Tigre",,5.0131,-53.0292,"French Guiana",GF,GUF,,,,,,2.9,,,5,America/Cayenne,FALSE,1254587895
Saint-Jean,Saint-Jean,,5.4054,-54.0790,"French Guiana",GF,GUF,,,,,,19.2,,,4,America/Cayenne,FALSE,1254363995
"La Brande","La Brande",,4.8595,-52.3182,"French Guiana",GF,GUF,,,,,,294.1,,,3,America/Cayenne,FALSE,1254114762
"La Providence","La Providence",,4.9483,-52.4920,"French Guiana",GF,GUF,,,,,,7.9,,,5,America/Cayenne,FALSE,1254401840
"Dégrad Saramaka","Degrad Saramaka","Dégrad Saramaca",5.0149,-52.6988,"French Guiana",GF,GUF,,,,,,15.3,,,4,America/Cayenne,FALSE,1254651343
"Petit Saut","Petit Saut",,5.0718,-53.0512,"French Guiana",GF,GUF,,,,,,2.9,,,5,America/Cayenne,FALSE,1254369828
"Petit Saut","Petit Saut",,5.3608,-53.6795,"French Guiana",GF,GUF,,,,,,2.2,,,5,America/Cayenne,TRUE,1254698843
Saint-Eugène,Saint-Eugene,,4.8490,-53.0732,"French Guiana",GF,GUF,,,,,,0.2,,,5,America/Cayenne,FALSE,1254761397
"Le Larivot","Le Larivot",Larivot|Larivaut|Larivant,4.9025,-52.3591,"French Guiana",GF,GUF,,,,,,205.7,,,3,America/Cayenne,FALSE,1254597033
Combo,Combo,,4.8834,-52.3177,"French Guiana",GF,GUF,,,,,,637.9,,,3,America/Cayenne,FALSE,1254591987
"Pilima Pata","Pilima Pata",,3.2894,-54.1039,"French Guiana",GF,GUF,,,,,,0.8,,,5,America/Cayenne,FALSE,1254612456
"Le Lac Bleu","Le Lac Bleu",,5.4738,-54.0351,"French Guiana",GF,GUF,,,,,,19.2,,,4,America/Cayenne,FALSE,1254000026
Entoucas,Entoucas,Entouca,3.4833,-54.0167,"French Guiana",GF,GUF,,,,,,0.6,,,5,America/Paramaribo,FALSE,1254985528
"Les Âmes Claires","Les Ames Claires",,4.9124,-52.2840,"French Guiana",GF,GUF,,,,,,508.6,,,3,America/Cayenne,FALSE,1254517951
Piedsaut,Piedsaut,,3.8079,-51.8745,"French Guiana",GF,GUF,,,,,,3.0,,,5,America/Cayenne,FALSE,1254394533
"Le Moulin à Vent","Le Moulin a Vent",,4.9031,-52.2729,"French Guiana",GF,GUF,,,,,,508.6,,,3,America/Cayenne,FALSE,1254641584
Kepioudou,Kepioudou,,4.9787,-54.4387,"French Guiana",GF,GUF,,,,,,6.0,,,5,America/Cayenne,FALSE,1254058017
"L’Enfant Perdu","L'Enfant Perdu","Enfants perdus",3.8580,-54.2156,"French Guiana",GF,GUF,,,,,,3.7,,,5,America/Cayenne,FALSE,1254245347
