city,city_ascii,city_alt,lat,lng,country,iso2,iso3,admin_name,admin_name_ascii,admin_code,admin_type,capital,density,population,population_proper,ranking,timezone,same_name,id
Pointe-à-Pitre,Pointe-a-Pitre,"La Pointe à Pitre",16.2411,-61.5331,Guadeloupe,GP,GLP,,,,,,4631.8,250952,250952,2,America/Guadeloupe,FALSE,1312460524
Basse-Terre,Basse-Terre,,16.0104,-61.7055,Guadeloupe,GP,GLP,,,,,primary,1248.5,307,307,1,America/Guadeloupe,FALSE,1312938008
Soutoule,Soutoule,,16.3720,-61.4791,Guadeloupe,GP,GLP,,,,,,113.1,,,4,America/Guadeloupe,FALSE,1312000760
"La Grippière","La Grippiere",,16.2190,-61.6273,Guadeloupe,GP,GLP,,,,,,599.5,,,3,America/Guadeloupe,FALSE,1312000092
Codet,Codet,,16.2759,-61.4392,Guadeloupe,GP,GLP,,,,,,413.1,,,3,America/Guadeloupe,FALSE,1312000752
Mayolette,Mayolette,,15.9782,-61.2516,Guadeloupe,GP,GLP,,,,,,41.8,,,4,America/Guadeloupe,FALSE,1312000780
Dalciat,Dalciat,,16.2643,-61.6246,Guadeloupe,GP,GLP,,,,,,776.7,,,3,America/Guadeloupe,FALSE,1312000193
Kerloury,Kerloury,,16.2873,-61.4324,Guadeloupe,GP,GLP,,,,,,278.8,,,3,America/Guadeloupe,FALSE,1312000649
Terre-de-Haut,Terre-de-Haut,"Bourg des Saintes|Le Bourg des Saintes",15.8666,-61.5826,Guadeloupe,GP,GLP,,,,,,261.3,,,3,America/Guadeloupe,FALSE,1312941742
Fleurimont,Fleurimont,,15.9662,-61.2433,Guadeloupe,GP,GLP,,,,,,41.8,,,4,America/Guadeloupe,FALSE,1312000783
Petit-Bourg,Petit-Bourg,,16.1916,-61.5914,Guadeloupe,GP,GLP,,,,,,190.0,,,4,America/Guadeloupe,FALSE,1312645449
Creuilly,Creuilly,,16.3629,-61.4063,Guadeloupe,GP,GLP,,,,,,278.8,,,3,America/Guadeloupe,FALSE,1312574086
Médaille,Medaille,,16.2460,-61.4990,Guadeloupe,GP,GLP,,,,,,745.1,,,3,America/Guadeloupe,FALSE,1312001020
Saussaye,Saussaye,,16.1823,-61.6055,Guadeloupe,GP,GLP,,,,,,190.0,,,4,America/Guadeloupe,FALSE,1312000387
Dumonter,Dumonter,,16.2344,-61.6377,Guadeloupe,GP,GLP,,,,,,569.2,,,3,America/Guadeloupe,FALSE,1312000629
Tombeau,Tombeau,,16.2270,-61.4774,Guadeloupe,GP,GLP,,,,,,604.6,,,3,America/Guadeloupe,FALSE,1312000906
Tassy,Tassy,,16.2510,-61.4595,Guadeloupe,GP,GLP,,,,,,663.7,,,3,America/Guadeloupe,FALSE,1312000934
Joséphine,Josephine,,15.9644,-61.2860,Guadeloupe,GP,GLP,,,,,,41.8,,,4,America/Guadeloupe,FALSE,1312000796
Vilate,Vilate,,16.2562,-61.7816,Guadeloupe,GP,GLP,,,,,,106.7,,,4,America/Guadeloupe,FALSE,1312001002
Céligny,Celigny,,16.2645,-61.4645,Guadeloupe,GP,GLP,,,,,,757.3,,,3,America/Guadeloupe,FALSE,1312000048
Vezoux,Vezoux,Réunion|Vezou,16.2948,-61.2765,Guadeloupe,GP,GLP,,,,,,322.2,,,3,America/Guadeloupe,FALSE,1312301318
Périnet,Perinet,,16.2065,-61.4816,Guadeloupe,GP,GLP,,,,,,604.6,,,3,America/Guadeloupe,FALSE,1312000913
Malendure,Malendure,,16.1716,-61.7756,Guadeloupe,GP,GLP,,,,,,178.2,,,4,America/Guadeloupe,FALSE,1312000198
"Fond Vaillant","Fond Vaillant",,16.0207,-61.7126,Guadeloupe,GP,GLP,,,,,,321.5,,,3,America/Guadeloupe,FALSE,1312000294
Doyon,Doyon,,16.0765,-61.5627,Guadeloupe,GP,GLP,,,,,,177.7,,,4,America/Guadeloupe,FALSE,1312000637
Vitalis,Vitalis,,16.0674,-61.7316,Guadeloupe,GP,GLP,,,,,,129.1,,,4,America/Guadeloupe,FALSE,1312000319
Ruillier,Ruillier,,16.2667,-61.6500,Guadeloupe,GP,GLP,,,,,,288.7,,,3,America/Guadeloupe,FALSE,1312429729
Ruillier,Ruillier,,16.4384,-61.4436,Guadeloupe,GP,GLP,,,,,,118.2,,,4,America/Guadeloupe,TRUE,1312001140
Montval,Montval,,16.0591,-61.7241,Guadeloupe,GP,GLP,,,,,,188.8,,,4,America/Guadeloupe,FALSE,1312136021
Passonne,Passonne,,15.9084,-61.3156,Guadeloupe,GP,GLP,,,,,,95.3,,,4,America/Guadeloupe,FALSE,1312000020
"La Regrettée","La Regrettee",,15.9909,-61.6544,Guadeloupe,GP,GLP,,,,,,275.1,,,3,America/Guadeloupe,FALSE,1312000859
Latapie,Latapie,,15.9667,-61.6333,Guadeloupe,GP,GLP,,,,,,275.1,,,3,America/Guadeloupe,FALSE,1312608281
"La Souche","La Souche",,16.2699,-61.3732,Guadeloupe,GP,GLP,,,,,,341.9,,,3,America/Guadeloupe,FALSE,1312000674
Savane,Savane,,15.9796,-61.6322,Guadeloupe,GP,GLP,,,,,,275.1,,,3,America/Guadeloupe,FALSE,1312366826
Sainte-Marthe,Sainte-Marthe,"Sainte Marthe Sucrerie|Pauvert",16.2650,-61.2725,Guadeloupe,GP,GLP,,,,,,322.2,,,3,America/Guadeloupe,FALSE,1312973103
"Bon Goût","Bon Gout",,16.2707,-61.5616,Guadeloupe,GP,GLP,,,,,,776.7,,,3,America/Guadeloupe,FALSE,1312000001
L’Anglais,L'Anglais,Langlois|Lahglois,16.3384,-61.3866,Guadeloupe,GP,GLP,,,,,,278.8,,,3,America/Guadeloupe,FALSE,1312420460
"Cité Cadet","Cite Cadet",,16.2695,-61.6798,Guadeloupe,GP,GLP,,,,,,187.3,,,4,America/Guadeloupe,FALSE,1312000107
Kahouanne,Kahouanne,,16.2544,-61.2159,Guadeloupe,GP,GLP,,,,,,322.2,,,3,America/Guadeloupe,FALSE,1312112805
Jobéti,Jobeti,,16.3157,-61.7149,Guadeloupe,GP,GLP,,,,,,187.3,,,4,America/Guadeloupe,FALSE,1312000645
"Château Gaillard","Chateau Gaillard",Château-Gaillard,16.3095,-61.3973,Guadeloupe,GP,GLP,,,,,,278.8,,,3,America/Guadeloupe,FALSE,1312935708
Perrin,Perrin,,16.3299,-61.4842,Guadeloupe,GP,GLP,,,,,,249.2,,,3,America/Guadeloupe,FALSE,1312001111
Kermadec,Kermadec,Saint-Nicolas,16.3738,-61.4598,Guadeloupe,GP,GLP,,,,,,113.1,,,4,America/Guadeloupe,FALSE,1312000758
Plessis,Plessis,,16.0375,-61.7382,Guadeloupe,GP,GLP,,,,,,190.8,,,4,America/Guadeloupe,FALSE,1312000981
Bellevue-Darras,Bellevue-Darras,,16.2792,-61.6498,Guadeloupe,GP,GLP,,,,,,288.7,,,3,America/Guadeloupe,FALSE,1312000102
"Morne Lolo","Morne Lolo",,15.9067,-61.2793,Guadeloupe,GP,GLP,,,,,,95.3,,,4,America/Guadeloupe,FALSE,1312000006
Lemesle,Lemesle,,16.3218,-61.4889,Guadeloupe,GP,GLP,,,,,,249.2,,,3,America/Guadeloupe,FALSE,1312001109
"Habitation Grande Anse","Habitation Grande Anse",,15.9631,-61.6592,Guadeloupe,GP,GLP,,,,,,275.1,,,3,America/Guadeloupe,FALSE,1312001042
"Palais Royal","Palais Royal",,16.2919,-61.4917,Guadeloupe,GP,GLP,,,,,,757.3,,,3,America/Guadeloupe,FALSE,1312001056
"Cité Zanella","Cite Zanella",,16.0126,-61.7093,Guadeloupe,GP,GLP,,,,,,326.0,,,3,America/Guadeloupe,FALSE,1312000265
Philipsbourg,Philipsbourg,,16.4382,-61.4712,Guadeloupe,GP,GLP,,,,,,117.7,,,4,America/Guadeloupe,FALSE,1312279369
"Habitation Cantamerle","Habitation Cantamerle",,16.0148,-61.5992,Guadeloupe,GP,GLP,,,,,,177.7,,,4,America/Guadeloupe,FALSE,1312000233
"Moulin Belcourt","Moulin Belcourt",,16.2598,-61.3600,Guadeloupe,GP,GLP,,,,,,341.9,,,3,America/Guadeloupe,FALSE,1312000675
Mayoumbé,Mayoumbe,,15.9672,-61.2522,Guadeloupe,GP,GLP,,,,,,41.8,,,4,America/Guadeloupe,FALSE,1312270203
"Petit Étang","Petit Etang",,15.9599,-61.6760,Guadeloupe,GP,GLP,,,,,,273.0,,,3,America/Guadeloupe,FALSE,1312001039
Jabrun-du-Sud,Jabrun-du-Sud,,16.3044,-61.4593,Guadeloupe,GP,GLP,,,,,,251.0,,,3,America/Guadeloupe,FALSE,1312461914
"Les Mangles","Les Mangles",,16.3925,-61.4575,Guadeloupe,GP,GLP,,,,,,113.1,,,4,America/Guadeloupe,FALSE,1312340569
"Paul Aubin","Paul Aubin",,16.4344,-61.5178,Guadeloupe,GP,GLP,,,,,,118.3,,,4,America/Guadeloupe,FALSE,1312001107
"La Roche","La Roche",,16.3687,-61.4115,Guadeloupe,GP,GLP,,,,,,276.4,,,3,America/Guadeloupe,FALSE,1312001101
"La Roche","La Roche",,16.0192,-61.6034,Guadeloupe,GP,GLP,,,,,,177.7,,,4,America/Guadeloupe,TRUE,1312000615
Moreau,Moreau,,16.2522,-61.4527,Guadeloupe,GP,GLP,,,,,,565.8,,,3,America/Guadeloupe,FALSE,1312000877
Moreau,Moreau,,16.1283,-61.5949,Guadeloupe,GP,GLP,,,,,,212.0,,,3,America/Guadeloupe,TRUE,1312000587
Potier,Potier,,16.3252,-61.7754,Guadeloupe,GP,GLP,,,,,,148.9,,,4,America/Guadeloupe,FALSE,1312000025
Sarcelle,Sarcelle,,16.1589,-61.5881,Guadeloupe,GP,GLP,,,,,,198.2,,,4,America/Guadeloupe,FALSE,1312000336
Bory,Bory,,16.2951,-61.4167,Guadeloupe,GP,GLP,,,,,,278.8,,,3,America/Guadeloupe,FALSE,1312000656
Bel-Air,Bel-Air,,16.2498,-61.6202,Guadeloupe,GP,GLP,,,,,,776.7,,,3,America/Guadeloupe,FALSE,1312000080
Bel-Air,Bel-Air,,16.3000,-61.3622,Guadeloupe,GP,GLP,,,,,,280.0,,,3,America/Guadeloupe,TRUE,1312000698
Bel-Air,Bel-Air,,16.2838,-61.6635,Guadeloupe,GP,GLP,,,,,,259.7,,,3,America/Guadeloupe,TRUE,1312000189
Bel-Air,Bel-Air,"Bel Air",16.0698,-61.7574,Guadeloupe,GP,GLP,,,,,,129.1,,,4,America/Guadeloupe,TRUE,1312512641
Bel-Air,Bel-Air,,15.9313,-61.2903,Guadeloupe,GP,GLP,,,,,,95.3,,,4,America/Guadeloupe,TRUE,1312000035
Bel-Air,Bel-Air,,15.8903,-61.2271,Guadeloupe,GP,GLP,,,,,,69.2,,,4,America/Guadeloupe,TRUE,1312000510
Massicot,Massicot,,15.9700,-61.2968,Guadeloupe,GP,GLP,,,,,,41.8,,,4,America/Guadeloupe,FALSE,1312000633
Portland,Portland,,16.3228,-61.3236,Guadeloupe,GP,GLP,,,,,,278.8,,,3,America/Guadeloupe,FALSE,1312222899
Portland,Portland,,16.4621,-61.4372,Guadeloupe,GP,GLP,,,,,,65.2,,,4,America/Guadeloupe,TRUE,1312600872
Vallerat,Vallerat,,16.2776,-61.3987,Guadeloupe,GP,GLP,,,,,,341.9,,,3,America/Guadeloupe,FALSE,1312000672
"Rocade Maudette","Rocade Maudette",,16.2264,-61.4151,Guadeloupe,GP,GLP,,,,,,341.9,,,3,America/Guadeloupe,FALSE,1312000817
Muscade,Muscade,,16.1201,-61.7591,Guadeloupe,GP,GLP,,,,,,178.2,,,4,America/Guadeloupe,FALSE,1312000421
Saint-Félix,Saint-Felix,,16.2068,-61.4570,Guadeloupe,GP,GLP,,,,,,604.6,,,3,America/Guadeloupe,FALSE,1312229798
"Bois Bragelogne","Bois Bragelogne",,16.2697,-61.2870,Guadeloupe,GP,GLP,,,,,,322.2,,,3,America/Guadeloupe,FALSE,1312000326
Barthélémy,Barthelemy,,16.1227,-61.5856,Guadeloupe,GP,GLP,,,,,,212.0,,,3,America/Guadeloupe,FALSE,1312000588
Clugny,Clugny,,16.3135,-61.4066,Guadeloupe,GP,GLP,,,,,,260.0,,,3,America/Guadeloupe,FALSE,1312628484
Clugny,Clugny,,16.3553,-61.7471,Guadeloupe,GP,GLP,,,,,,187.3,,,4,America/Guadeloupe,TRUE,1312000625
Clugny,Clugny,,16.3972,-61.4821,Guadeloupe,GP,GLP,,,,,,113.1,,,4,America/Guadeloupe,TRUE,1312001094
Lagneau,Lagneau,,16.2459,-61.3994,Guadeloupe,GP,GLP,,,,,,341.9,,,3,America/Guadeloupe,FALSE,1312000677
Durocher,Durocher,,15.9154,-61.2734,Guadeloupe,GP,GLP,,,,,,95.3,,,4,America/Guadeloupe,FALSE,1312669968
"Le Gîte","Le Gite",,16.1797,-61.7251,Guadeloupe,GP,GLP,,,,,,190.0,,,4,America/Guadeloupe,FALSE,1312000884
Hubert,Hubert,,16.1815,-61.7792,Guadeloupe,GP,GLP,,,,,,178.2,,,4,America/Guadeloupe,FALSE,1312000209
Sevray,Sevray,,16.0500,-61.7500,Guadeloupe,GP,GLP,,,,,,129.1,,,4,America/Guadeloupe,FALSE,1312058224
"La Fontaine","La Fontaine",,16.3878,-61.4116,Guadeloupe,GP,GLP,,,,,,244.9,,,3,America/Guadeloupe,FALSE,1312000724
Létaye,Letaye,,16.3002,-61.3157,Guadeloupe,GP,GLP,,,,,,289.9,,,3,America/Guadeloupe,FALSE,1312000990
"Champ Fleuri","Champ Fleuri",,16.3104,-61.4900,Guadeloupe,GP,GLP,,,,,,249.2,,,3,America/Guadeloupe,FALSE,1312001058
"Grande Plaine","Grande Plaine","La Grande Plaine",16.2073,-61.7763,Guadeloupe,GP,GLP,,,,,,106.7,,,4,America/Guadeloupe,FALSE,1312172243
"La Martinière","La Martiniere",Martiniere,16.3167,-61.3667,Guadeloupe,GP,GLP,,,,,,278.8,,,3,America/Guadeloupe,FALSE,1312338116
Campry,Campry,,16.0238,-61.7301,Guadeloupe,GP,GLP,,,,,,197.3,,,4,America/Guadeloupe,FALSE,1312000301
Montchappé,Montchappe,,15.9903,-61.6288,Guadeloupe,GP,GLP,,,,,,275.1,,,3,America/Guadeloupe,FALSE,1312000225
Dubois,Dubois,,15.9540,-61.7072,Guadeloupe,GP,GLP,,,,,,263.1,,,3,America/Guadeloupe,FALSE,1312761523
Dubois,Dubois,,16.2000,-61.6000,Guadeloupe,GP,GLP,,,,,,190.0,,,4,America/Guadeloupe,TRUE,1312612971
Dubois,Dubois,,15.9023,-61.2853,Guadeloupe,GP,GLP,,,,,,95.3,,,4,America/Guadeloupe,TRUE,1312000554
Dubois,Dubois,,15.9188,-61.2309,Guadeloupe,GP,GLP,,,,,,69.2,,,4,America/Guadeloupe,TRUE,1312000738
Panga,Panga,,16.1069,-61.5676,Guadeloupe,GP,GLP,,,,,,177.7,,,4,America/Guadeloupe,FALSE,1312000438
Lacoste,Lacoste,,15.9602,-61.2797,Guadeloupe,GP,GLP,,,,,,41.8,,,4,America/Guadeloupe,FALSE,1312000790
Marie-Jeanne,Marie-Jeanne,,16.2123,-61.7600,Guadeloupe,GP,GLP,,,,,,106.7,,,4,America/Guadeloupe,FALSE,1312000137
Renard,Renard,,16.3000,-61.3167,Guadeloupe,GP,GLP,,,,,,278.9,,,3,America/Guadeloupe,FALSE,1312154001
Renard,Renard,Richelieu,16.4112,-61.4905,Guadeloupe,GP,GLP,,,,,,116.3,,,4,America/Guadeloupe,TRUE,1312000002
Boubers,Boubers,,16.2446,-61.6909,Guadeloupe,GP,GLP,,,,,,187.3,,,4,America/Guadeloupe,FALSE,1312000449
Concession,Concession,,16.0203,-61.6549,Guadeloupe,GP,GLP,,,,,,281.9,,,3,America/Guadeloupe,FALSE,1312000955
Gaigneron,Gaigneron,,15.9740,-61.6383,Guadeloupe,GP,GLP,,,,,,275.1,,,3,America/Guadeloupe,FALSE,1312001064
Roche,Roche,,16.2583,-61.3149,Guadeloupe,GP,GLP,,,,,,322.2,,,3,America/Guadeloupe,FALSE,1312000993
Richeplaine,Richeplaine,,16.2761,-61.3369,Guadeloupe,GP,GLP,,,,,,340.6,,,3,America/Guadeloupe,FALSE,1312230840
Major,Major,,16.3528,-61.7424,Guadeloupe,GP,GLP,,,,,,187.3,,,4,America/Guadeloupe,FALSE,1312000624
Rifflet,Rifflet,,16.3374,-61.7833,Guadeloupe,GP,GLP,,,,,,148.9,,,4,America/Guadeloupe,FALSE,1312774612
Grand-Anse,Grand-Anse,"Folle Anse|Grande Anse",15.9139,-61.3278,Guadeloupe,GP,GLP,,,,,,95.3,,,4,America/Guadeloupe,FALSE,1312540931
"Pierre Ferraye","Pierre Ferraye",,16.4252,-61.4996,Guadeloupe,GP,GLP,,,,,,118.3,,,4,America/Guadeloupe,FALSE,1312001071
"Habitation Thomas","Habitation Thomas",,16.1127,-61.7513,Guadeloupe,GP,GLP,,,,,,178.2,,,4,America/Guadeloupe,FALSE,1312000555
"Dos Marsolle","Dos Marsolle",,16.1375,-61.7678,Guadeloupe,GP,GLP,,,,,,178.2,,,4,America/Guadeloupe,FALSE,1312000591
"Vieille Case","Vieille Case",,16.2812,-61.4241,Guadeloupe,GP,GLP,,,,,,318.0,,,3,America/Guadeloupe,FALSE,1312000726
"Hauteurs Lézarde","Hauteurs Lezarde",Hauteurs-Lézarde|Lézarde,16.1976,-61.6300,Guadeloupe,GP,GLP,,,,,,190.0,,,4,America/Guadeloupe,FALSE,1312950877
"Cinq Cents Pas","Cinq Cents Pas",,16.2485,-61.3487,Guadeloupe,GP,GLP,,,,,,341.9,,,3,America/Guadeloupe,FALSE,1312000964
Damencourt,Damencourt,,16.3345,-61.3616,Guadeloupe,GP,GLP,,,,,,278.8,,,3,America/Guadeloupe,FALSE,1312000799
"Mathurin Noël","Mathurin Noel",,16.1000,-61.7667,Guadeloupe,GP,GLP,,,,,,178.2,,,4,America/Guadeloupe,FALSE,1312203619
Absalon,Absalon,,16.1172,-61.7358,Guadeloupe,GP,GLP,,,,,,178.2,,,4,America/Guadeloupe,FALSE,1312000248
Rocher,Rocher,,16.2136,-61.7771,Guadeloupe,GP,GLP,,,,,,106.7,,,4,America/Guadeloupe,FALSE,1312000362
Charneau,Charneau,,16.0000,-61.6667,Guadeloupe,GP,GLP,,,,,,370.6,,,3,America/Guadeloupe,FALSE,1312676731
Sainte-Sophie,Sainte-Sophie,,16.0459,-61.7284,Guadeloupe,GP,GLP,,,,,,197.3,,,4,America/Guadeloupe,FALSE,1312000287
"Plateau du Palmiste","Plateau du Palmiste",,16.0058,-61.6808,Guadeloupe,GP,GLP,,,,,,372.2,,,3,America/Guadeloupe,FALSE,1312000560
Providence,Providence,,16.2639,-61.5081,Guadeloupe,GP,GLP,,,,,,757.3,,,3,America/Guadeloupe,FALSE,1312000931
"Le Papillon","Le Papillon",,15.9996,-61.6895,Guadeloupe,GP,GLP,,,,,,372.2,,,3,America/Guadeloupe,FALSE,1312000254
"La Berthaudière","La Berthaudiere","La Bertaudière",16.4778,-61.4775,Guadeloupe,GP,GLP,,,,,,65.2,,,4,America/Guadeloupe,FALSE,1312091279
"Bel-Air Desrozières","Bel-Air Desrozieres",,16.2061,-61.6411,Guadeloupe,GP,GLP,,,,,,190.0,,,4,America/Guadeloupe,FALSE,1312000170
"Morne à Jules","Morne a Jules",,16.0732,-61.7636,Guadeloupe,GP,GLP,,,,,,129.1,,,4,America/Guadeloupe,FALSE,1312000467
Rosaire,Rosaire,,16.1967,-61.6604,Guadeloupe,GP,GLP,,,,,,190.0,,,4,America/Guadeloupe,FALSE,1312000927
Retz,Retz,,15.9167,-61.3333,Guadeloupe,GP,GLP,,,,,,95.3,,,4,America/Guadeloupe,FALSE,1312450367
Cocotier,Cocotier,,15.9486,-61.2968,Guadeloupe,GP,GLP,,,,,,41.8,,,4,America/Guadeloupe,FALSE,1312374491
Favreau,Favreau,,16.2500,-61.3000,Guadeloupe,GP,GLP,,,,,,322.2,,,3,America/Guadeloupe,FALSE,1312921010
"La Ramée","La Ramee",,16.3329,-61.7100,Guadeloupe,GP,GLP,,,,,,187.3,,,4,America/Guadeloupe,FALSE,1312502425
"La Ramée","La Ramee",,16.3003,-61.0928,Guadeloupe,GP,GLP,,,,,,66.8,,,4,America/Guadeloupe,TRUE,1312000928
Saint-Paul,Saint-Paul,,16.2609,-61.4018,Guadeloupe,GP,GLP,,,,,,341.9,,,3,America/Guadeloupe,FALSE,1312000721
Rousseau,Rousseau,,16.2938,-61.4358,Guadeloupe,GP,GLP,,,,,,265.1,,,3,America/Guadeloupe,FALSE,1312000750
Rousseau,Rousseau,,16.3305,-61.4633,Guadeloupe,GP,GLP,,,,,,249.2,,,3,America/Guadeloupe,TRUE,1312001048
Rousseau,Rousseau,,16.5333,-61.4167,Guadeloupe,GP,GLP,,,,,,65.2,,,4,America/Guadeloupe,TRUE,1312882719
Dessale,Dessale,,16.3115,-61.4553,Guadeloupe,GP,GLP,,,,,,249.2,,,3,America/Guadeloupe,FALSE,1312000892
Marigot,Marigot,,16.0828,-61.7671,Guadeloupe,GP,GLP,,,,,,129.1,,,4,America/Guadeloupe,FALSE,1312268886
"Grande Anse sur Morne","Grande Anse sur Morne","Grande Anse",15.9651,-61.6661,Guadeloupe,GP,GLP,,,,,,275.1,,,3,America/Guadeloupe,FALSE,1312677368
"Fonds Cacao","Fonds Cacao","Fond Cacao",16.0362,-61.5912,Guadeloupe,GP,GLP,,,,,,177.7,,,4,America/Guadeloupe,FALSE,1312428015
"Bel Étang","Bel Etang",,16.2921,-61.3690,Guadeloupe,GP,GLP,,,,,,322.5,,,3,America/Guadeloupe,FALSE,1312000806
"La Jaille","La Jaille",,16.2595,-61.5749,Guadeloupe,GP,GLP,,,,,,776.7,,,3,America/Guadeloupe,FALSE,1312600869
"Vieux Bourg","Vieux Bourg",,16.3419,-61.5111,Guadeloupe,GP,GLP,,,,,,249.2,,,3,America/Guadeloupe,FALSE,1312916903
Budan,Budan,,16.2433,-61.6088,Guadeloupe,GP,GLP,,,,,,776.7,,,3,America/Guadeloupe,FALSE,1312517516
Budan,Budan,,16.2804,-61.3806,Guadeloupe,GP,GLP,,,,,,341.9,,,3,America/Guadeloupe,TRUE,1312000705
Budan,Budan,,16.4965,-61.4685,Guadeloupe,GP,GLP,,,,,,65.2,,,4,America/Guadeloupe,TRUE,1312001077
Concessions,Concessions,,16.0538,-61.6171,Guadeloupe,GP,GLP,,,,,,177.7,,,4,America/Guadeloupe,FALSE,1312000597
Lafont-Charropin,Lafont-Charropin,,16.3991,-61.4712,Guadeloupe,GP,GLP,,,,,,113.1,,,4,America/Guadeloupe,FALSE,1312001096
Valeau,Valeau,,16.0033,-61.6848,Guadeloupe,GP,GLP,,,,,,372.2,,,3,America/Guadeloupe,FALSE,1312000607
"La Gare Titus","La Gare Titus",,16.2388,-61.6033,Guadeloupe,GP,GLP,,,,,,776.7,,,3,America/Guadeloupe,FALSE,1312000908
Gissac,Gissac,,16.2474,-61.3607,Guadeloupe,GP,GLP,,,,,,341.9,,,3,America/Guadeloupe,FALSE,1312000690
Bragelogne,Bragelogne,,16.2240,-61.6279,Guadeloupe,GP,GLP,,,,,,599.5,,,3,America/Guadeloupe,FALSE,1312000089
Bragelogne,Bragelogne,,16.2663,-61.3007,Guadeloupe,GP,GLP,,,,,,322.2,,,3,America/Guadeloupe,TRUE,1312000316
"Bois Gris","Bois Gris",,16.1826,-61.6486,Guadeloupe,GP,GLP,,,,,,190.0,,,4,America/Guadeloupe,FALSE,1312000360
Reizet-Sainte-Marie,Reizet-Sainte-Marie,Sainte-Marie|Reizet|Reixet|Reiset,16.2873,-61.6534,Guadeloupe,GP,GLP,,,,,,288.7,,,3,America/Guadeloupe,FALSE,1312535896
Bauzon,Bauzon,,16.2546,-61.4805,Guadeloupe,GP,GLP,,,,,,757.2,,,3,America/Guadeloupe,FALSE,1312000902
Viard,Viard,,16.1633,-61.5902,Guadeloupe,GP,GLP,,,,,,198.2,,,4,America/Guadeloupe,FALSE,1312000337
Viard,Viard,,16.3192,-61.6831,Guadeloupe,GP,GLP,,,,,,187.3,,,4,America/Guadeloupe,TRUE,1312000149
Montebello,Montebello,,16.1766,-61.6020,Guadeloupe,GP,GLP,,,,,,190.0,,,4,America/Guadeloupe,FALSE,1312947358
Pouzzole,Pouzzole,Pouzzol,16.4257,-61.5200,Guadeloupe,GP,GLP,,,,,,118.3,,,4,America/Guadeloupe,FALSE,1312597410
"La Plage Caraïbe","La Plage Caraibe",,16.2121,-61.7822,Guadeloupe,GP,GLP,,,,,,106.7,,,4,America/Guadeloupe,FALSE,1312000423
Tabaco,Tabaco,,16.0168,-61.6125,Guadeloupe,GP,GLP,,,,,,177.7,,,4,America/Guadeloupe,FALSE,1312000959
Tacy,Tacy,,15.9298,-61.2160,Guadeloupe,GP,GLP,,,,,,69.2,,,4,America/Guadeloupe,FALSE,1312000409
"La Tranchée aux Canons","La Tranchee aux Canons",,16.2968,-61.0963,Guadeloupe,GP,GLP,,,,,,66.8,,,4,America/Guadeloupe,FALSE,1312000664
Daubin,Daubin,,16.2241,-61.6107,Guadeloupe,GP,GLP,,,,,,203.9,,,3,America/Guadeloupe,FALSE,1312000088
Moringlane,Moringlane,,16.2539,-61.4340,Guadeloupe,GP,GLP,,,,,,341.9,,,3,America/Guadeloupe,FALSE,1312000849
Moringlane,Moringlane,,15.9250,-61.3036,Guadeloupe,GP,GLP,,,,,,95.3,,,4,America/Guadeloupe,TRUE,1312533174
Delor,Delor,,16.3383,-61.4875,Guadeloupe,GP,GLP,,,,,,249.2,,,3,America/Guadeloupe,FALSE,1312001112
Pontinette,Pontinette,,15.9725,-61.2420,Guadeloupe,GP,GLP,,,,,,41.8,,,4,America/Guadeloupe,FALSE,1312000782
"Le Petit Marigot","Le Petit Marigot","Petit Marigot",16.0333,-61.5667,Guadeloupe,GP,GLP,,,,,,177.7,,,4,America/Guadeloupe,FALSE,1312255644
Merlande,Merlande,,16.2454,-61.6673,Guadeloupe,GP,GLP,,,,,,288.5,,,3,America/Guadeloupe,FALSE,1312000132
Molière,Moliere,,16.4395,-61.4793,Guadeloupe,GP,GLP,,,,,,106.9,,,4,America/Guadeloupe,FALSE,1312001139
Bézard,Bezard,Bezard,15.9347,-61.2374,Guadeloupe,GP,GLP,,,,,,69.2,,,4,America/Guadeloupe,FALSE,1312316317
"Petite Anse","Petite Anse",,16.1000,-61.7667,Guadeloupe,GP,GLP,,,,,,178.2,,,4,America/Guadeloupe,FALSE,1312338887
Beaupin,Beaupin,,16.1011,-61.7371,Guadeloupe,GP,GLP,,,,,,129.1,,,4,America/Guadeloupe,FALSE,1312000256
Désiré,Desire,,16.0017,-61.6980,Guadeloupe,GP,GLP,,,,,,361.3,,,3,America/Guadeloupe,FALSE,1312000244
Désiré,Desire,,15.9029,-61.2271,Guadeloupe,GP,GLP,,,,,,69.2,,,4,America/Guadeloupe,TRUE,1312000551
Balin,Balin,,16.3694,-61.4587,Guadeloupe,GP,GLP,,,,,,113.1,,,4,America/Guadeloupe,FALSE,1312001146
"Bois de Lomard","Bois de Lomard",,16.2672,-61.3481,Guadeloupe,GP,GLP,,,,,,341.9,,,3,America/Guadeloupe,FALSE,1312000351
"Cité Lignières","Cite Lignieres",,16.0163,-61.7389,Guadeloupe,GP,GLP,,,,,,902.6,,,3,America/Guadeloupe,FALSE,1312000303
Bamboche,Bamboche,,16.2886,-61.3692,Guadeloupe,GP,GLP,,,,,,341.9,,,3,America/Guadeloupe,FALSE,1312000807
Gourbeyre,Gourbeyre,Gourbevre,15.9945,-61.6920,Guadeloupe,GP,GLP,,,,,,372.2,,,3,America/Guadeloupe,FALSE,1312955185
Carrère,Carrere,,16.2867,-61.4182,Guadeloupe,GP,GLP,,,,,,278.8,,,3,America/Guadeloupe,FALSE,1312000651
Carrère,Carrere,,16.1727,-61.5983,Guadeloupe,GP,GLP,,,,,,190.0,,,4,America/Guadeloupe,TRUE,1312000117
Morne-à-l’Eau,Morne-a-l'Eau,"Grippon|Bordeaux-Bourg|Le Morne a l’Eau",16.3334,-61.4588,Guadeloupe,GP,GLP,,,,,,249.2,,,3,America/Guadeloupe,FALSE,1312838277
"Chapelle Sainte-Thérèse","Chapelle Sainte-Therese",,15.9852,-61.2532,Guadeloupe,GP,GLP,,,,,,41.8,,,4,America/Guadeloupe,FALSE,1312786500
Faup,Faup,,15.9151,-61.3090,Guadeloupe,GP,GLP,,,,,,95.3,,,4,America/Guadeloupe,FALSE,1312419894
Chevalier,Chevalier,,16.3077,-61.5119,Guadeloupe,GP,GLP,,,,,,421.8,,,3,America/Guadeloupe,FALSE,1312000566
Moisan,Moisan,,15.9082,-61.2140,Guadeloupe,GP,GLP,,,,,,69.2,,,4,America/Guadeloupe,FALSE,1312000552
Bunel,Bunel,,16.0160,-61.6202,Guadeloupe,GP,GLP,,,,,,177.7,,,4,America/Guadeloupe,FALSE,1312000957
Bérard,Berard,"De Bérard",16.2588,-61.3563,Guadeloupe,GP,GLP,,,,,,341.9,,,3,America/Guadeloupe,FALSE,1312360537
Montauban,Montauban,,16.2104,-61.4999,Guadeloupe,GP,GLP,,,,,,604.6,,,3,America/Guadeloupe,FALSE,1312001031
Montauban,Montauban,,16.2387,-61.4561,Guadeloupe,GP,GLP,,,,,,604.6,,,3,America/Guadeloupe,TRUE,1312000879
Montauban,Montauban,,16.2130,-61.6559,Guadeloupe,GP,GLP,,,,,,256.2,,,3,America/Guadeloupe,TRUE,1312000628
"Petit Carbet","Petit Carbet",,15.9667,-61.6333,Guadeloupe,GP,GLP,,,,,,275.1,,,3,America/Guadeloupe,FALSE,1312975799
Montête,Montete,,16.2523,-61.4580,Guadeloupe,GP,GLP,,,,,,565.8,,,3,America/Guadeloupe,FALSE,1312000935
"Les Caps","Les Caps",,15.8963,-61.2154,Guadeloupe,GP,GLP,,,,,,69.2,,,4,America/Guadeloupe,FALSE,1312000380
Casaneuve,Casaneuve,,16.2797,-61.6319,Guadeloupe,GP,GLP,,,,,,288.7,,,3,America/Guadeloupe,FALSE,1312000358
Sainte-Marguerite,Sainte-Marguerite,,16.3556,-61.4040,Guadeloupe,GP,GLP,,,,,,278.8,,,3,America/Guadeloupe,FALSE,1312566397
Bébet,Bebet,,16.2706,-61.2774,Guadeloupe,GP,GLP,,,,,,322.2,,,3,America/Guadeloupe,FALSE,1312000318
Barthel,Barthel,,16.3012,-61.4268,Guadeloupe,GP,GLP,,,,,,269.8,,,3,America/Guadeloupe,FALSE,1312000657
L’Espérance,L'Esperance,,16.2914,-61.6594,Guadeloupe,GP,GLP,,,,,,259.7,,,3,America/Guadeloupe,FALSE,1312000478
Planel,Planel,,16.0514,-61.6936,Guadeloupe,GP,GLP,,,,,,300.7,,,3,America/Guadeloupe,FALSE,1312435677
"Trois Îlets","Trois Ilets",Trois-Îlets,15.9309,-61.3315,Guadeloupe,GP,GLP,,,,,,95.3,,,4,America/Guadeloupe,FALSE,1312429861
"Le Boulevard","Le Boulevard",,16.0581,-61.7631,Guadeloupe,GP,GLP,,,,,,129.1,,,4,America/Guadeloupe,FALSE,1312000282
Doublon,Doublon,,16.3280,-61.6925,Guadeloupe,GP,GLP,,,,,,187.3,,,4,America/Guadeloupe,FALSE,1312000572
Léonie,Leonie,,16.2980,-61.5065,Guadeloupe,GP,GLP,,,,,,757.3,,,3,America/Guadeloupe,FALSE,1312000909
"Haut de la Montagne","Haut de la Montagne",,16.4390,-61.4746,Guadeloupe,GP,GLP,,,,,,117.7,,,4,America/Guadeloupe,FALSE,1312511758
Laffite,Laffite,,16.0086,-61.6240,Guadeloupe,GP,GLP,,,,,,177.7,,,4,America/Guadeloupe,FALSE,1312000938
Sainte-Rose,Sainte-Rose,,16.2811,-61.3514,Guadeloupe,GP,GLP,,,,,,341.9,,,3,America/Guadeloupe,FALSE,1312000966
Sainte-Rose,Sainte-Rose,,16.3326,-61.6969,Guadeloupe,GP,GLP,,,,,,187.3,,,4,America/Guadeloupe,TRUE,1312196519
"Rivière des Pères","Riviere des Peres",,16.0091,-61.7420,Guadeloupe,GP,GLP,,,,,,666.5,,,3,America/Guadeloupe,FALSE,1312000480
Saint-Bernard,Saint-Bernard,,16.2560,-61.2494,Guadeloupe,GP,GLP,,,,,,322.2,,,3,America/Guadeloupe,FALSE,1312577505
Céleste,Celeste,,15.8768,-61.2420,Guadeloupe,GP,GLP,,,,,,69.2,,,4,America/Guadeloupe,FALSE,1312000511
Fadat,Fadat,,15.9815,-61.2453,Guadeloupe,GP,GLP,,,,,,41.8,,,4,America/Guadeloupe,FALSE,1312000777
Falaise,Falaise,,16.1379,-61.7717,Guadeloupe,GP,GLP,,,,,,178.2,,,4,America/Guadeloupe,FALSE,1312000200
Îlet,Ilet,,16.0930,-61.7533,Guadeloupe,GP,GLP,,,,,,130.3,,,4,America/Guadeloupe,FALSE,1312000522
Mora,Mora,,16.2189,-61.4649,Guadeloupe,GP,GLP,,,,,,604.6,,,3,America/Guadeloupe,FALSE,1312000917
Desmarais,Desmarais,,16.1420,-61.7649,Guadeloupe,GP,GLP,,,,,,178.2,,,4,America/Guadeloupe,FALSE,1312193431
Desmarais,Desmarais,,15.9560,-61.3080,Guadeloupe,GP,GLP,,,,,,41.8,,,4,America/Guadeloupe,TRUE,1312779124
L’Ermitage,L'Ermitage,,15.9915,-61.6398,Guadeloupe,GP,GLP,,,,,,275.1,,,3,America/Guadeloupe,FALSE,1312000858
L’Ermitage,L'Ermitage,,16.0247,-61.6030,Guadeloupe,GP,GLP,,,,,,177.7,,,4,America/Guadeloupe,TRUE,1312000236
L’Ermitage,L'Ermitage,L’Hermitage,16.4347,-61.4573,Guadeloupe,GP,GLP,,,,,,118.3,,,4,America/Guadeloupe,TRUE,1312012493
L’Ermitage,L'Ermitage,,15.8903,-61.2997,Guadeloupe,GP,GLP,,,,,,95.3,,,4,America/Guadeloupe,TRUE,1312000037
Belle-Vue,Belle-Vue,,16.1404,-61.5985,Guadeloupe,GP,GLP,,,,,,212.0,,,3,America/Guadeloupe,FALSE,1312000168
"La Houssaie","La Houssaie",,16.3324,-61.3871,Guadeloupe,GP,GLP,,,,,,278.8,,,3,America/Guadeloupe,FALSE,1312000665
Berlette,Berlette,,16.3060,-61.4909,Guadeloupe,GP,GLP,,,,,,458.4,,,3,America/Guadeloupe,FALSE,1312001057
Corot,Corot,,16.2797,-61.2991,Guadeloupe,GP,GLP,,,,,,322.2,,,3,America/Guadeloupe,FALSE,1312000312
Moscou,Moscou,,16.0153,-61.6558,Guadeloupe,GP,GLP,,,,,,275.1,,,3,America/Guadeloupe,FALSE,1312000954
Dumanoir,Dumanoir,,16.0420,-61.6110,Guadeloupe,GP,GLP,,,,,,177.7,,,4,America/Guadeloupe,FALSE,1312000431
Ballet,Ballet,,15.9046,-61.3264,Guadeloupe,GP,GLP,,,,,,95.3,,,4,America/Guadeloupe,FALSE,1312575558
Godet,Godet,,16.4037,-61.4847,Guadeloupe,GP,GLP,,,,,,113.1,,,4,America/Guadeloupe,FALSE,1312001089
"La Perle","La Perle",,16.3401,-61.7766,Guadeloupe,GP,GLP,,,,,,148.9,,,4,America/Guadeloupe,FALSE,1312000021
"Le Haut du Morne des Pères","Le Haut du Morne des Peres","Le Haut du Morne",15.9019,-61.2265,Guadeloupe,GP,GLP,,,,,,69.2,,,4,America/Guadeloupe,FALSE,1312106839
Gossain,Gossain,,16.2319,-61.6332,Guadeloupe,GP,GLP,,,,,,776.7,,,3,America/Guadeloupe,FALSE,1312000630
"Fort Royal","Fort Royal",,16.3486,-61.7745,Guadeloupe,GP,GLP,,,,,,148.9,,,4,America/Guadeloupe,FALSE,1312000412
Moustique,Moustique,,16.3044,-61.6720,Guadeloupe,GP,GLP,,,,,,187.3,,,4,America/Guadeloupe,FALSE,1312361756
Moustique,Moustique,,15.9786,-61.3051,Guadeloupe,GP,GLP,,,,,,41.8,,,4,America/Guadeloupe,TRUE,1312000743
Meynard,Meynard,,16.2028,-61.6303,Guadeloupe,GP,GLP,,,,,,190.0,,,4,America/Guadeloupe,FALSE,1312000169
Ribourgeon,Ribourgeon,,15.9763,-61.2671,Guadeloupe,GP,GLP,,,,,,41.8,,,4,America/Guadeloupe,FALSE,1312646350
"Habitation Bordenave","Habitation Bordenave",,16.2712,-61.7787,Guadeloupe,GP,GLP,,,,,,120.2,,,4,America/Guadeloupe,FALSE,1312001001
Rollier,Rollier,,16.1316,-61.7655,Guadeloupe,GP,GLP,,,,,,178.2,,,4,America/Guadeloupe,FALSE,1312000417
Levens,Levens,,16.2998,-61.6540,Guadeloupe,GP,GLP,,,,,,233.1,,,3,America/Guadeloupe,FALSE,1312000355
"Habitation Déravin","Habitation Deravin",,16.1435,-61.7533,Guadeloupe,GP,GLP,,,,,,178.2,,,4,America/Guadeloupe,FALSE,1312000557
Engerville,Engerville,,16.3078,-61.4275,Guadeloupe,GP,GLP,,,,,,269.8,,,3,America/Guadeloupe,FALSE,1312000658
"La Plaine","La Plaine",,15.9953,-61.6249,Guadeloupe,GP,GLP,,,,,,192.3,,,4,America/Guadeloupe,FALSE,1312865215
"La Haut","La Haut",,15.9534,-61.2468,Guadeloupe,GP,GLP,,,,,,43.1,,,4,America/Guadeloupe,FALSE,1312000545
Fexland,Fexland,Fextand,16.3500,-61.4667,Guadeloupe,GP,GLP,,,,,,167.1,,,4,America/Guadeloupe,FALSE,1312013821
Joubert,Joubert,,15.8899,-61.2777,Guadeloupe,GP,GLP,,,,,,95.3,,,4,America/Guadeloupe,FALSE,1312000740
"L’Étang Paille","L'Etang Paille",,16.0058,-61.6545,Guadeloupe,GP,GLP,,,,,,275.1,,,3,America/Guadeloupe,FALSE,1312000864
Duval,Duval,,16.4003,-61.4445,Guadeloupe,GP,GLP,,,,,,113.1,,,4,America/Guadeloupe,FALSE,1312001088
"Grande Case","Grande Case",,16.2868,-61.4217,Guadeloupe,GP,GLP,,,,,,278.8,,,3,America/Guadeloupe,FALSE,1312000650
Jarry,Jarry,,16.2359,-61.5580,Guadeloupe,GP,GLP,,,,,,776.7,,,3,America/Guadeloupe,FALSE,1312529305
"La Fréchou","La Frechou",,16.2186,-61.4744,Guadeloupe,GP,GLP,,,,,,604.6,,,3,America/Guadeloupe,FALSE,1312000910
"Bois Rouge","Bois Rouge",,15.9655,-61.2867,Guadeloupe,GP,GLP,,,,,,41.8,,,4,America/Guadeloupe,FALSE,1312000795
"Basse Lézarde","Basse Lezarde",,16.1982,-61.6092,Guadeloupe,GP,GLP,,,,,,190.0,,,4,America/Guadeloupe,FALSE,1312000124
Boisvin,Boisvin,Boivin,16.2654,-61.4524,Guadeloupe,GP,GLP,,,,,,730.6,,,3,America/Guadeloupe,FALSE,1312172518
Boisvin,Boisvin,,16.2604,-61.2664,Guadeloupe,GP,GLP,,,,,,322.2,,,3,America/Guadeloupe,TRUE,1312000872
Maurailles,Maurailles,,15.9080,-61.2575,Guadeloupe,GP,GLP,,,,,,79.8,,,4,America/Guadeloupe,FALSE,1312000010
Mercier,Mercier,,16.2694,-61.4615,Guadeloupe,GP,GLP,,,,,,757.3,,,3,America/Guadeloupe,FALSE,1312000045
Bourdon,Bourdon,,16.3030,-61.4593,Guadeloupe,GP,GLP,,,,,,251.0,,,3,America/Guadeloupe,FALSE,1312001024
Cousinière,Cousiniere,,16.0438,-61.7427,Guadeloupe,GP,GLP,,,,,,129.1,,,4,America/Guadeloupe,FALSE,1312000280
Saint-Prix,Saint-Prix,,16.0713,-61.7483,Guadeloupe,GP,GLP,,,,,,129.1,,,4,America/Guadeloupe,FALSE,1312000641
Saint-Prix,Saint-Prix,,16.4167,-61.4333,Guadeloupe,GP,GLP,,,,,,100.7,,,4,America/Guadeloupe,TRUE,1312662326
Riché,Riche,,16.2611,-61.5962,Guadeloupe,GP,GLP,,,,,,776.7,,,3,America/Guadeloupe,FALSE,1312000157
L’Official,L'Official,,16.2402,-61.6244,Guadeloupe,GP,GLP,,,,,,776.7,,,3,America/Guadeloupe,FALSE,1312000085
Sansot,Sansot,,15.9598,-61.2601,Guadeloupe,GP,GLP,,,,,,41.8,,,4,America/Guadeloupe,FALSE,1312000787
"Morne Savon","Morne Savon",,16.0385,-61.6994,Guadeloupe,GP,GLP,,,,,,326.0,,,3,America/Guadeloupe,FALSE,1312000276
Lachaise,Lachaise,,16.3177,-61.6974,Guadeloupe,GP,GLP,,,,,,187.3,,,4,America/Guadeloupe,FALSE,1312000145
"La Rosette","La Rosette",,16.3386,-61.3783,Guadeloupe,GP,GLP,,,,,,278.8,,,3,America/Guadeloupe,FALSE,1312163098
Nouille,Nouille,,16.0575,-61.5897,Guadeloupe,GP,GLP,,,,,,177.7,,,4,America/Guadeloupe,FALSE,1312000322
Cima,Cima,,16.4204,-61.5121,Guadeloupe,GP,GLP,,,,,,118.3,,,4,America/Guadeloupe,FALSE,1312001072
"Le Prince","Le Prince",,16.2469,-61.4330,Guadeloupe,GP,GLP,,,,,,341.9,,,3,America/Guadeloupe,FALSE,1312000843
Richebois,Richebois,,16.0656,-61.5932,Guadeloupe,GP,GLP,,,,,,177.7,,,4,America/Guadeloupe,FALSE,1312000434
"Gros Cap","Gros Cap",,16.4060,-61.4181,Guadeloupe,GP,GLP,,,,,,113.1,,,4,America/Guadeloupe,FALSE,1312822972
"Ma Source","Ma Source",,16.2448,-61.4668,Guadeloupe,GP,GLP,,,,,,604.6,,,3,America/Guadeloupe,FALSE,1312000933
"Sergent Alleaume","Sergent Alleaume",,16.3130,-61.2895,Guadeloupe,GP,GLP,,,,,,278.8,,,3,America/Guadeloupe,FALSE,1312000459
"La Coulée","La Coulee",,16.2578,-61.2555,Guadeloupe,GP,GLP,,,,,,322.2,,,3,America/Guadeloupe,FALSE,1312119544
"Grands Fonds","Grands Fonds",,16.2631,-61.4240,Guadeloupe,GP,GLP,,,,,,341.9,,,3,America/Guadeloupe,FALSE,1312058298
Macaille,Macaille,,16.4691,-61.4992,Guadeloupe,GP,GLP,,,,,,65.2,,,4,America/Guadeloupe,FALSE,1312000833
Monplaisir,Monplaisir,,16.2932,-61.3220,Guadeloupe,GP,GLP,,,,,,296.7,,,3,America/Guadeloupe,FALSE,1312000991
Monplaisir,Monplaisir,Montplaisir,16.3207,-61.6906,Guadeloupe,GP,GLP,,,,,,187.3,,,4,America/Guadeloupe,TRUE,1312441598
"Camp Jacob","Camp Jacob",,16.0289,-61.6917,Guadeloupe,GP,GLP,,,,,,326.0,,,3,America/Guadeloupe,FALSE,1312703669
"Pointe à Retz","Pointe a Retz",,16.3429,-61.4660,Guadeloupe,GP,GLP,,,,,,249.2,,,3,America/Guadeloupe,FALSE,1312000662
Saint-Charles,Saint-Charles,,15.9952,-61.7019,Guadeloupe,GP,GLP,,,,,,371.8,,,3,America/Guadeloupe,FALSE,1312365480
Saint-Charles,Saint-Charles,,16.2696,-61.3248,Guadeloupe,GP,GLP,,,,,,322.2,,,3,America/Guadeloupe,TRUE,1312000443
Saint-Charles,Saint-Charles,,15.9416,-61.3077,Guadeloupe,GP,GLP,,,,,,64.1,,,4,America/Guadeloupe,TRUE,1312580471
"Quatrième Portel","Quatrieme Portel",Portel,15.9119,-61.3028,Guadeloupe,GP,GLP,,,,,,95.3,,,4,America/Guadeloupe,FALSE,1312029338
Richeval,Richeval,,16.3457,-61.4544,Guadeloupe,GP,GLP,,,,,,249.2,,,3,America/Guadeloupe,FALSE,1312699756
Campêche,Campeche,,16.4431,-61.4381,Guadeloupe,GP,GLP,,,,,,65.2,,,4,America/Guadeloupe,FALSE,1312409475
Lasserre,Lasserre,,16.3191,-61.4302,Guadeloupe,GP,GLP,,,,,,249.2,,,3,America/Guadeloupe,FALSE,1312109298
Bellemont,Bellemont,,15.9708,-61.6472,Guadeloupe,GP,GLP,,,,,,275.1,,,3,America/Guadeloupe,FALSE,1312001065
Hurel,Hurel,,16.2035,-61.6488,Guadeloupe,GP,GLP,,,,,,190.0,,,4,America/Guadeloupe,FALSE,1312000171
"La Pointe à Chemise","La Pointe a Chemise",,16.2630,-61.6045,Guadeloupe,GP,GLP,,,,,,776.7,,,3,America/Guadeloupe,FALSE,1312000391
"Bois David","Bois David",,16.3093,-61.3480,Guadeloupe,GP,GLP,,,,,,278.8,,,3,America/Guadeloupe,FALSE,1312000969
"Hauteurs Bananier","Hauteurs Bananier",,16.0084,-61.6023,Guadeloupe,GP,GLP,,,,,,177.7,,,4,America/Guadeloupe,FALSE,1312000614
"Val Kanaërs","Val Kanaers",,15.9941,-61.6884,Guadeloupe,GP,GLP,,,,,,372.2,,,3,America/Guadeloupe,FALSE,1312000253
"Belle Eau","Belle Eau",,16.0219,-61.6180,Guadeloupe,GP,GLP,,,,,,177.7,,,4,America/Guadeloupe,FALSE,1312000958
Salmon,Salmon,,16.3263,-61.3177,Guadeloupe,GP,GLP,,,,,,278.8,,,3,America/Guadeloupe,FALSE,1312000309
Bielle,Bielle,,15.9180,-61.2668,Guadeloupe,GP,GLP,,,,,,95.3,,,4,America/Guadeloupe,FALSE,1312687874
"Morne Major","Morne Major",,16.3566,-61.7409,Guadeloupe,GP,GLP,,,,,,187.3,,,4,America/Guadeloupe,FALSE,1312000620
Doubs,Doubs,,16.2913,-61.4805,Guadeloupe,GP,GLP,,,,,,757.3,,,3,America/Guadeloupe,FALSE,1312001115
Poyen,Poyen,,16.2833,-61.6667,Guadeloupe,GP,GLP,,,,,,207.9,,,3,America/Guadeloupe,FALSE,1312299880
Poyen,Poyen,,16.3500,-61.4500,Guadeloupe,GP,GLP,,,,,,139.1,,,4,America/Guadeloupe,TRUE,1312022638
Poyen,Poyen,,16.4030,-61.4927,Guadeloupe,GP,GLP,,,,,,114.2,,,4,America/Guadeloupe,TRUE,1312000713
"Fond Cabre","Fond Cabre",,16.0183,-61.6971,Guadeloupe,GP,GLP,,,,,,326.0,,,3,America/Guadeloupe,FALSE,1312000268
Condrécourt,Condrecourt,,16.3161,-61.3882,Guadeloupe,GP,GLP,,,,,,278.8,,,3,America/Guadeloupe,FALSE,1312000708
"Port Louis","Port Louis",,15.9132,-61.2878,Guadeloupe,GP,GLP,,,,,,95.3,,,4,America/Guadeloupe,FALSE,1312869621
Comon,Comon,,16.0288,-61.7369,Guadeloupe,GP,GLP,,,,,,197.3,,,4,America/Guadeloupe,FALSE,1312000977
Saint-Guillaume,Saint-Guillaume,,16.2977,-61.3998,Guadeloupe,GP,GLP,,,,,,278.8,,,3,America/Guadeloupe,FALSE,1312000669
Saint-Georges,Saint-Georges,,15.9331,-61.2858,Guadeloupe,GP,GLP,,,,,,95.3,,,4,America/Guadeloupe,FALSE,1312000050
Lorger,Lorger,,16.3165,-61.4530,Guadeloupe,GP,GLP,,,,,,249.2,,,3,America/Guadeloupe,FALSE,1312000893
"Morne Marigot","Morne Marigot",,16.0884,-61.7637,Guadeloupe,GP,GLP,,,,,,129.9,,,4,America/Guadeloupe,FALSE,1312000471
"Port Blanc","Port Blanc",,16.2334,-61.4562,Guadeloupe,GP,GLP,,,,,,604.6,,,3,America/Guadeloupe,FALSE,1312199663
Bébel,Bebel,,16.3274,-61.6884,Guadeloupe,GP,GLP,,,,,,187.3,,,4,America/Guadeloupe,FALSE,1312000573
Gélas,Gelas,,16.3920,-61.4481,Guadeloupe,GP,GLP,,,,,,113.1,,,4,America/Guadeloupe,FALSE,1312000723
"La Violette","La Violette",,15.9842,-61.6548,Guadeloupe,GP,GLP,,,,,,275.1,,,3,America/Guadeloupe,FALSE,1312001123
Solitude,Solitude,,16.2705,-61.6398,Guadeloupe,GP,GLP,,,,,,288.7,,,3,America/Guadeloupe,FALSE,1312000103
Belair-Leborgne,Belair-Leborgne,,16.4188,-61.4674,Guadeloupe,GP,GLP,,,,,,118.3,,,4,America/Guadeloupe,FALSE,1312000692
Lolo,Lolo,,16.3126,-61.4328,Guadeloupe,GP,GLP,,,,,,249.2,,,3,America/Guadeloupe,FALSE,1312000734
"Camp la Jaille","Camp la Jaille",,16.2571,-61.5686,Guadeloupe,GP,GLP,,,,,,776.7,,,3,America/Guadeloupe,FALSE,1312000323
"Le Trou à Cochons","Le Trou a Cochons",,16.2204,-61.6682,Guadeloupe,GP,GLP,,,,,,288.7,,,3,America/Guadeloupe,FALSE,1312000626
Dubic,Dubic,,16.3115,-61.6841,Guadeloupe,GP,GLP,,,,,,187.3,,,4,America/Guadeloupe,FALSE,1312000151
"Quatre Chemins","Quatre Chemins",,16.2811,-61.4928,Guadeloupe,GP,GLP,,,,,,757.3,,,3,America/Guadeloupe,FALSE,1312791769
Gallo,Gallo,,16.3487,-61.4455,Guadeloupe,GP,GLP,,,,,,234.9,,,3,America/Guadeloupe,FALSE,1312000767
"La Boucan","La Boucan",Boucan,16.2825,-61.6698,Guadeloupe,GP,GLP,,,,,,207.9,,,3,America/Guadeloupe,FALSE,1312394841
Saint-Robert,Saint-Robert,,16.0463,-61.7308,Guadeloupe,GP,GLP,,,,,,197.3,,,4,America/Guadeloupe,FALSE,1312000285
Frontin,Frontin,,16.2691,-61.2588,Guadeloupe,GP,GLP,,,,,,322.2,,,3,America/Guadeloupe,FALSE,1312000994
Rodrigue,Rodrigue,,16.4230,-61.5254,Guadeloupe,GP,GLP,,,,,,118.3,,,4,America/Guadeloupe,FALSE,1312001091
"Grand’ Case","Grand' Case",,16.2167,-61.7833,Guadeloupe,GP,GLP,,,,,,106.7,,,4,America/Guadeloupe,FALSE,1312420583
Blain,Blain,,16.3303,-61.4931,Guadeloupe,GP,GLP,,,,,,249.2,,,3,America/Guadeloupe,FALSE,1312001008
Carangaise,Carangaise,,16.0801,-61.5707,Guadeloupe,GP,GLP,,,,,,177.7,,,4,America/Guadeloupe,FALSE,1312533232
Saint-Louis,Saint-Louis,,16.2990,-61.2827,Guadeloupe,GP,GLP,,,,,,322.2,,,3,America/Guadeloupe,FALSE,1312000331
Saint-Louis,Saint-Louis,,16.0332,-61.7155,Guadeloupe,GP,GLP,,,,,,285.0,,,3,America/Guadeloupe,TRUE,1312000983
Saint-Louis,Saint-Louis,,15.9548,-61.3176,Guadeloupe,GP,GLP,,,,,,41.8,,,4,America/Guadeloupe,TRUE,1312356564
Bone,Bone,,16.2597,-61.6832,Guadeloupe,GP,GLP,,,,,,187.3,,,4,America/Guadeloupe,FALSE,1312000105
Duzer,Duzer,,16.3433,-61.7363,Guadeloupe,GP,GLP,,,,,,187.3,,,4,America/Guadeloupe,FALSE,1312882286
Port-Louis,Port-Louis,,16.4175,-61.5305,Guadeloupe,GP,GLP,,,,,,118.3,,,4,America/Guadeloupe,FALSE,1312807274
Beausoleil,Beausoleil,,16.0549,-61.7595,Guadeloupe,GP,GLP,,,,,,129.1,,,4,America/Guadeloupe,FALSE,1312000281
Beausoleil,Beausoleil,,16.2596,-61.7922,Guadeloupe,GP,GLP,,,,,,106.7,,,4,America/Guadeloupe,TRUE,1312153172
"Dame Jeanne Cassée","Dame Jeanne Cassee",,16.0913,-61.5899,Guadeloupe,GP,GLP,,,,,,177.7,,,4,America/Guadeloupe,FALSE,1312000479
Chazeau,Chazeau,Chazeaux,16.2956,-61.4592,Guadeloupe,GP,GLP,,,,,,658.5,,,3,America/Guadeloupe,FALSE,1312055941
Deumeuille,Deumeuille,,16.2843,-61.2721,Guadeloupe,GP,GLP,,,,,,322.2,,,3,America/Guadeloupe,FALSE,1312000329
"Habitation Bois Debout","Habitation Bois Debout","Bois Debout",16.0245,-61.5869,Guadeloupe,GP,GLP,,,,,,177.7,,,4,America/Guadeloupe,FALSE,1312762071
"Savane Desrosières","Savane Desrosieres",,16.5031,-61.4744,Guadeloupe,GP,GLP,,,,,,65.2,,,4,America/Guadeloupe,FALSE,1312001075
Burat,Burat,,16.2343,-61.3978,Guadeloupe,GP,GLP,,,,,,341.9,,,3,America/Guadeloupe,FALSE,1312000815
Redeau,Redeau,,16.2372,-61.7913,Guadeloupe,GP,GLP,,,,,,106.7,,,4,America/Guadeloupe,FALSE,1312000215
Croustère,Croustere,,16.3067,-61.4724,Guadeloupe,GP,GLP,,,,,,304.3,,,3,America/Guadeloupe,FALSE,1312001025
Martin,Martin,,15.9848,-61.2539,Guadeloupe,GP,GLP,,,,,,41.8,,,4,America/Guadeloupe,FALSE,1312000775
Nolivier,Nolivier,,16.2972,-61.6657,Guadeloupe,GP,GLP,,,,,,189.1,,,4,America/Guadeloupe,FALSE,1312000192
Marieulle,Marieulle,,16.3262,-61.4723,Guadeloupe,GP,GLP,,,,,,249.2,,,3,America/Guadeloupe,FALSE,1312001047
Morel,Morel,,16.3305,-61.3289,Guadeloupe,GP,GLP,,,,,,278.8,,,3,America/Guadeloupe,FALSE,1312000971
Hérisson,Herisson,,15.9038,-61.2750,Guadeloupe,GP,GLP,,,,,,95.3,,,4,America/Guadeloupe,FALSE,1312000011
Pagès,Pages,,16.2446,-61.5136,Guadeloupe,GP,GLP,,,,,,757.3,,,3,America/Guadeloupe,FALSE,1312000538
Charropin,Charropin,,16.3967,-61.4765,Guadeloupe,GP,GLP,,,,,,113.1,,,4,America/Guadeloupe,FALSE,1312001095
Seforge,Seforge,,16.2667,-61.3667,Guadeloupe,GP,GLP,,,,,,341.9,,,3,America/Guadeloupe,FALSE,1312744015
Bacoul,Bacoul,,15.8943,-61.2588,Guadeloupe,GP,GLP,,,,,,95.3,,,4,America/Guadeloupe,FALSE,1312000519
"Bas Carrère","Bas Carrere",,16.1758,-61.5946,Guadeloupe,GP,GLP,,,,,,190.0,,,4,America/Guadeloupe,FALSE,1312000339
Routa,Routa,,16.2459,-61.6370,Guadeloupe,GP,GLP,,,,,,308.6,,,3,America/Guadeloupe,FALSE,1312000097
Quirine,Quirine,,16.3260,-61.5030,Guadeloupe,GP,GLP,,,,,,249.2,,,3,America/Guadeloupe,FALSE,1312000490
Pavillot,Pavillot,,16.4571,-61.4974,Guadeloupe,GP,GLP,,,,,,65.2,,,4,America/Guadeloupe,FALSE,1312001137
Tambour,Tambour,,16.1684,-61.6409,Guadeloupe,GP,GLP,,,,,,190.0,,,4,America/Guadeloupe,FALSE,1312000120
Goyavier,Goyavier,,16.2982,-61.6905,Guadeloupe,GP,GLP,,,,,,187.3,,,4,America/Guadeloupe,FALSE,1312000152
Lafont-Gouttière,Lafont-Gouttiere,,16.4369,-61.4821,Guadeloupe,GP,GLP,,,,,,106.9,,,4,America/Guadeloupe,FALSE,1312001138
"Bel Arbre du Malgré Tout","Bel Arbre du Malgre Tout","Malgré Tout",16.2659,-61.2644,Guadeloupe,GP,GLP,,,,,,322.2,,,3,America/Guadeloupe,FALSE,1312810366
Bouillante,Bouillante,,16.1304,-61.7690,Guadeloupe,GP,GLP,,,,,,178.2,,,4,America/Guadeloupe,FALSE,1312190978
Barricade,Barricade,,16.2602,-61.6093,Guadeloupe,GP,GLP,,,,,,776.7,,,3,America/Guadeloupe,FALSE,1312000390
Vital,Vital,,15.9150,-61.2191,Guadeloupe,GP,GLP,,,,,,69.2,,,4,America/Guadeloupe,FALSE,1312416713
Goulin,Goulin,,16.2707,-61.4397,Guadeloupe,GP,GLP,,,,,,341.9,,,3,America/Guadeloupe,FALSE,1312000753
Sauvia,Sauvia,,16.3270,-61.4863,Guadeloupe,GP,GLP,,,,,,249.2,,,3,America/Guadeloupe,FALSE,1312001110
Gagneron,Gagneron,,15.9143,-61.2601,Guadeloupe,GP,GLP,,,,,,95.3,,,4,America/Guadeloupe,FALSE,1312000008
Cambourg,Cambourg,,16.2794,-61.4160,Guadeloupe,GP,GLP,,,,,,336.0,,,3,America/Guadeloupe,FALSE,1312000647
"La Baie Sainte-Marie","La Baie Sainte-Marie",,16.2729,-61.2543,Guadeloupe,GP,GLP,,,,,,322.2,,,3,America/Guadeloupe,FALSE,1312000869
Marie-Louise,Marie-Louise,,15.9356,-61.3088,Guadeloupe,GP,GLP,,,,,,88.6,,,4,America/Guadeloupe,FALSE,1312000049
Visca,Visca,,16.2485,-61.4248,Guadeloupe,GP,GLP,,,,,,341.9,,,3,America/Guadeloupe,FALSE,1312000846
Malescot,Malescot,,16.2909,-61.4138,Guadeloupe,GP,GLP,,,,,,279.3,,,3,America/Guadeloupe,FALSE,1312000652
"Val de l’Orge","Val de l'Orge",,16.0406,-61.7516,Guadeloupe,GP,GLP,,,,,,132.6,,,4,America/Guadeloupe,FALSE,1312000289
Saint-Hilaire,Saint-Hilaire,,16.2214,-61.4567,Guadeloupe,GP,GLP,,,,,,604.6,,,3,America/Guadeloupe,FALSE,1312000918
Vince,Vince,,16.2333,-61.6000,Guadeloupe,GP,GLP,,,,,,190.0,,,4,America/Guadeloupe,FALSE,1312401576
"La Motte","La Motte",,16.2556,-61.6874,Guadeloupe,GP,GLP,,,,,,187.3,,,4,America/Guadeloupe,FALSE,1312000111
Baimbridge,Baimbridge,,16.2431,-61.5188,Guadeloupe,GP,GLP,,,,,,757.3,,,3,America/Guadeloupe,FALSE,1312481581
Baimbridge,Baimbridge,,16.2262,-61.6588,Guadeloupe,GP,GLP,,,,,,288.7,,,3,America/Guadeloupe,TRUE,1312000473
Bréfort,Brefort,,16.2670,-61.6403,Guadeloupe,GP,GLP,,,,,,288.7,,,3,America/Guadeloupe,FALSE,1312720995
Douënel,Douenel,,16.1508,-61.7665,Guadeloupe,GP,GLP,,,,,,178.2,,,4,America/Guadeloupe,FALSE,1312000203
"Grande Mare","Grande Mare",,16.2252,-61.4479,Guadeloupe,GP,GLP,,,,,,604.6,,,3,America/Guadeloupe,FALSE,1312000881
Capharnaüm,Capharnaum,,15.9026,-61.2073,Guadeloupe,GP,GLP,,,,,,69.2,,,4,America/Guadeloupe,FALSE,1312000377
Barot,Barot,,16.2520,-61.4465,Guadeloupe,GP,GLP,,,,,,379.0,,,3,America/Guadeloupe,FALSE,1312000755
Nouy,Nouy,,16.2769,-61.6179,Guadeloupe,GP,GLP,,,,,,656.8,,,3,America/Guadeloupe,FALSE,1312000359
"Bois Plaisir","Bois Plaisir",,16.2633,-61.4180,Guadeloupe,GP,GLP,,,,,,341.9,,,3,America/Guadeloupe,FALSE,1312000722
Barthole,Barthole,,16.0813,-61.7261,Guadeloupe,GP,GLP,,,,,,129.1,,,4,America/Guadeloupe,FALSE,1312000275
Varin,Varin,,16.2333,-61.7869,Guadeloupe,GP,GLP,,,,,,106.7,,,4,America/Guadeloupe,FALSE,1312000213
Morphy,Morphy,,16.2455,-61.7973,Guadeloupe,GP,GLP,,,,,,106.7,,,4,America/Guadeloupe,FALSE,1312380952
Massé,Masse,,16.2906,-61.4299,Guadeloupe,GP,GLP,,,,,,278.8,,,3,America/Guadeloupe,FALSE,1312000653
Masselas,Masselas,,16.2615,-61.4449,Guadeloupe,GP,GLP,,,,,,474.8,,,3,America/Guadeloupe,FALSE,1312000754
Cazalis,Cazalis,,15.9220,-61.2870,Guadeloupe,GP,GLP,,,,,,95.3,,,4,America/Guadeloupe,FALSE,1312000044
"Bas Village","Bas Village",,16.1000,-61.7669,Guadeloupe,GP,GLP,,,,,,178.2,,,4,America/Guadeloupe,FALSE,1312000464
"Four à Chaux","Four a Chaux",,16.1026,-61.5692,Guadeloupe,GP,GLP,,,,,,177.7,,,4,America/Guadeloupe,FALSE,1312000578
Boisvins,Boisvins,,15.9554,-61.2410,Guadeloupe,GP,GLP,,,,,,58.8,,,4,America/Guadeloupe,FALSE,1312000784
Champfleury,Champfleury,,15.9836,-61.6803,Guadeloupe,GP,GLP,,,,,,372.2,,,3,America/Guadeloupe,FALSE,1312895016
L’Hermine,L'Hermine,,16.0916,-61.7533,Guadeloupe,GP,GLP,,,,,,129.1,,,4,America/Guadeloupe,FALSE,1312000523
Delair,Delair,,16.2413,-61.3794,Guadeloupe,GP,GLP,,,,,,341.9,,,3,America/Guadeloupe,FALSE,1312000813
"Morne Salé","Morne Sale",,15.9969,-61.6068,Guadeloupe,GP,GLP,,,,,,177.7,,,4,America/Guadeloupe,FALSE,1312000229
"Les Plaines","Les Plaines",,16.2251,-61.7642,Guadeloupe,GP,GLP,,,,,,106.7,,,4,America/Guadeloupe,FALSE,1312161792
"Le Gretouf","Le Gretouf",,15.8978,-61.2860,Guadeloupe,GP,GLP,,,,,,95.3,,,4,America/Guadeloupe,FALSE,1312000553
Laurette,Laurette,,16.3059,-61.6498,Guadeloupe,GP,GLP,,,,,,187.3,,,4,America/Guadeloupe,FALSE,1312000155
"Petit Bélair","Petit Belair",,16.0697,-61.5671,Guadeloupe,GP,GLP,,,,,,177.7,,,4,America/Guadeloupe,FALSE,1312000638
Salette,Salette,Saiette,16.3244,-61.4606,Guadeloupe,GP,GLP,,,,,,249.2,,,3,America/Guadeloupe,FALSE,1312009839
Moléon,Moleon,,16.0117,-61.7013,Guadeloupe,GP,GLP,,,,,,326.0,,,3,America/Guadeloupe,FALSE,1312000293
Ricard,Ricard,,16.1484,-61.7582,Guadeloupe,GP,GLP,,,,,,178.2,,,4,America/Guadeloupe,FALSE,1312000527
Thibault,Thibault,,15.8793,-61.2649,Guadeloupe,GP,GLP,,,,,,95.3,,,4,America/Guadeloupe,FALSE,1312000746
Richemont,Richemont,,16.4000,-61.4667,Guadeloupe,GP,GLP,,,,,,113.2,,,4,America/Guadeloupe,FALSE,1312205230
Soldat,Soldat,,15.9887,-61.6655,Guadeloupe,GP,GLP,,,,,,293.0,,,3,America/Guadeloupe,FALSE,1312000860
Bourgelac,Bourgelac,,15.9548,-61.2258,Guadeloupe,GP,GLP,,,,,,69.2,,,4,America/Guadeloupe,FALSE,1312000785
Jacotière,Jacotiere,,16.2369,-61.4342,Guadeloupe,GP,GLP,,,,,,602.9,,,3,America/Guadeloupe,FALSE,1312000823
Radelin,Radelin,,16.3167,-61.7833,Guadeloupe,GP,GLP,,,,,,148.9,,,4,America/Guadeloupe,FALSE,1312591543
Boissière,Boissiere,,16.3173,-61.3664,Guadeloupe,GP,GLP,,,,,,278.8,,,3,America/Guadeloupe,FALSE,1312000897
"Petit Marquisat","Petit Marquisat",,16.0453,-61.6096,Guadeloupe,GP,GLP,,,,,,177.7,,,4,America/Guadeloupe,FALSE,1312000321
Bois-Sec,Bois-Sec,,16.1280,-61.5900,Guadeloupe,GP,GLP,,,,,,212.0,,,3,America/Guadeloupe,FALSE,1312000586
Bovis,Bovis,,16.0303,-61.7289,Guadeloupe,GP,GLP,,,,,,197.3,,,4,America/Guadeloupe,FALSE,1312000976
Bovis,Bovis,,16.1866,-61.5898,Guadeloupe,GP,GLP,,,,,,190.0,,,4,America/Guadeloupe,TRUE,1312000341
Vaughenlieu,Vaughenlieu,,16.2467,-61.6355,Guadeloupe,GP,GLP,,,,,,308.6,,,3,America/Guadeloupe,FALSE,1312000096
Métivier,Metivier,,16.0833,-61.7500,Guadeloupe,GP,GLP,,,,,,129.1,,,4,America/Guadeloupe,FALSE,1312519840
Caillou,Caillou,,16.2708,-61.6667,Guadeloupe,GP,GLP,,,,,,241.9,,,3,America/Guadeloupe,FALSE,1312000131
Rigaud,Rigaud,,16.3364,-61.4652,Guadeloupe,GP,GLP,,,,,,249.2,,,3,America/Guadeloupe,FALSE,1312001049
Émilien,Emilien,,16.3167,-61.4333,Guadeloupe,GP,GLP,,,,,,249.2,,,3,America/Guadeloupe,FALSE,1312000000
Mahault,Mahault,,16.1906,-61.6526,Guadeloupe,GP,GLP,,,,,,190.0,,,4,America/Guadeloupe,FALSE,1312000173
Saint-Jean,Saint-Jean,,16.0092,-61.7041,Guadeloupe,GP,GLP,,,,,,326.0,,,3,America/Guadeloupe,FALSE,1312000241
Saint-Jean,Saint-Jean,,16.1928,-61.5978,Guadeloupe,GP,GLP,,,,,,190.0,,,4,America/Guadeloupe,TRUE,1312000388
Saint-Jean,Saint-Jean,,15.9545,-61.2682,Guadeloupe,GP,GLP,,,,,,41.8,,,4,America/Guadeloupe,TRUE,1312000789
Moravie,Moravie,,16.0743,-61.5865,Guadeloupe,GP,GLP,,,,,,177.7,,,4,America/Guadeloupe,FALSE,1312000634
Fauvette,Fauvette,,16.4243,-61.5216,Guadeloupe,GP,GLP,,,,,,118.3,,,4,America/Guadeloupe,FALSE,1312001092
Beautiran,Beautiran,,16.3866,-61.5034,Guadeloupe,GP,GLP,,,,,,113.7,,,4,America/Guadeloupe,FALSE,1312000714
Saint-Val,Saint-Val,,16.3079,-61.7017,Guadeloupe,GP,GLP,,,,,,187.3,,,4,America/Guadeloupe,FALSE,1312000147
"Grand Beauséjour","Grand Beausejour",,15.9130,-61.2081,Guadeloupe,GP,GLP,,,,,,69.2,,,4,America/Guadeloupe,FALSE,1312000375
Trianon,Trianon,,16.1629,-61.6231,Guadeloupe,GP,GLP,,,,,,190.0,,,4,America/Guadeloupe,FALSE,1312000383
Trianon,Trianon,,15.9053,-61.3213,Guadeloupe,GP,GLP,,,,,,95.3,,,4,America/Guadeloupe,TRUE,1312000005
Beaujean,Beaujean,,16.2274,-61.7628,Guadeloupe,GP,GLP,,,,,,106.7,,,4,America/Guadeloupe,FALSE,1312000138
"Morne d’Or","Morne d'Or",,16.0574,-61.5831,Guadeloupe,GP,GLP,,,,,,177.7,,,4,America/Guadeloupe,FALSE,1312000333
"La Grange","La Grange",,16.1333,-61.5667,Guadeloupe,GP,GLP,,,,,,212.0,,,3,America/Guadeloupe,FALSE,1312944136
Dorville,Dorville,,16.2594,-61.6291,Guadeloupe,GP,GLP,,,,,,524.6,,,3,America/Guadeloupe,FALSE,1312000074
"Le Souffleur","Le Souffleur",Souffleur,16.3145,-61.0410,Guadeloupe,GP,GLP,,,,,,66.8,,,4,America/Guadeloupe,FALSE,1312577446
"La Lise","La Lise",Lise,16.1588,-61.7746,Guadeloupe,GP,GLP,,,,,,178.2,,,4,America/Guadeloupe,FALSE,1312563962
Catherine,Catherine,,15.9945,-61.2962,Guadeloupe,GP,GLP,,,,,,41.8,,,4,America/Guadeloupe,FALSE,1312000771
Lalung,Lalung,,16.2152,-61.6439,Guadeloupe,GP,GLP,,,,,,312.4,,,3,America/Guadeloupe,FALSE,1312000179
Manceau,Manceau,,16.0535,-61.6001,Guadeloupe,GP,GLP,,,,,,177.7,,,4,America/Guadeloupe,FALSE,1312000596
Guyot,Guyot,Guillot,16.2874,-61.2687,Guadeloupe,GP,GLP,,,,,,322.2,,,3,America/Guadeloupe,FALSE,1312652970
"Fonds Vapeur","Fonds Vapeur",,16.2604,-61.3677,Guadeloupe,GP,GLP,,,,,,341.9,,,3,America/Guadeloupe,FALSE,1312000676
Cabout,Cabout,,16.1711,-61.6310,Guadeloupe,GP,GLP,,,,,,190.0,,,4,America/Guadeloupe,FALSE,1312000119
Princesse,Princesse,,16.2813,-61.2802,Guadeloupe,GP,GLP,,,,,,322.2,,,3,America/Guadeloupe,FALSE,1312000328
Dunoyer,Dunoyer,,16.2080,-61.4653,Guadeloupe,GP,GLP,,,,,,604.6,,,3,America/Guadeloupe,FALSE,1312000915
"Bas Schœlcher","Bas Schoelcher",,15.9788,-61.6225,Guadeloupe,GP,GLP,,,,,,275.1,,,3,America/Guadeloupe,FALSE,1312001134
Destrellan,Destrellan,Destrelland|Destrelan|Destréland,16.2558,-61.5811,Guadeloupe,GP,GLP,,,,,,776.7,,,3,America/Guadeloupe,FALSE,1312405173
Bonneveine,Bonneveine,,16.4301,-61.4256,Guadeloupe,GP,GLP,,,,,,76.3,,,4,America/Guadeloupe,FALSE,1312001141
"Morne à Gomme","Morne a Gomme",,16.1414,-61.5796,Guadeloupe,GP,GLP,,,,,,212.0,,,3,America/Guadeloupe,FALSE,1312000343
"La Retraite","La Retraite",,16.2296,-61.6183,Guadeloupe,GP,GLP,,,,,,776.7,,,3,America/Guadeloupe,FALSE,1312629599
"La Retraite","La Retraite",,16.2167,-61.7667,Guadeloupe,GP,GLP,,,,,,106.7,,,4,America/Guadeloupe,TRUE,1312156070
"Le Comté de Lohéac","Le Comte de Loheac",,16.3366,-61.7191,Guadeloupe,GP,GLP,,,,,,187.3,,,4,America/Guadeloupe,FALSE,1312000495
Lami,Lami,,15.8925,-61.3118,Guadeloupe,GP,GLP,,,,,,95.3,,,4,America/Guadeloupe,FALSE,1312750967
William,William,,16.2469,-61.3030,Guadeloupe,GP,GLP,,,,,,322.2,,,3,America/Guadeloupe,FALSE,1312000960
Marly,Marly,,16.2816,-61.3401,Guadeloupe,GP,GLP,,,,,,340.6,,,3,America/Guadeloupe,FALSE,1312000426
Massioux,Massioux,Massiau,16.4619,-61.4631,Guadeloupe,GP,GLP,,,,,,65.2,,,4,America/Guadeloupe,FALSE,1312442535
"Barre de l’Île","Barre de l'Ile","Barre de l’Île Numéro Un",15.9497,-61.2751,Guadeloupe,GP,GLP,,,,,,41.8,,,4,America/Guadeloupe,FALSE,1312290175
"L’Étang Long","L'Etang Long",,15.9532,-61.2585,Guadeloupe,GP,GLP,,,,,,41.8,,,4,America/Guadeloupe,FALSE,1312000786
Lalanne,Lalanne,,16.4106,-61.5183,Guadeloupe,GP,GLP,,,,,,118.3,,,4,America/Guadeloupe,FALSE,1312782456
Liard,Liard,,16.0065,-61.6790,Guadeloupe,GP,GLP,,,,,,372.2,,,3,America/Guadeloupe,FALSE,1312000862
Calebassier,Calebassier,,15.9456,-61.2321,Guadeloupe,GP,GLP,,,,,,69.2,,,4,America/Guadeloupe,FALSE,1312000737
"Grand Bassin","Grand Bassin",,16.0735,-61.5618,Guadeloupe,GP,GLP,,,,,,177.7,,,4,America/Guadeloupe,FALSE,1312000636
"Grand Bassin","Grand Bassin",,15.9603,-61.2408,Guadeloupe,GP,GLP,,,,,,41.8,,,4,America/Guadeloupe,TRUE,1312848111
Barbotteau,Barbotteau,,16.1935,-61.6537,Guadeloupe,GP,GLP,,,,,,190.0,,,4,America/Guadeloupe,FALSE,1312000174
Barbotteau,Barbotteau,,16.4162,-61.5235,Guadeloupe,GP,GLP,,,,,,118.3,,,4,America/Guadeloupe,TRUE,1312001090
Massy,Massy,,16.3169,-61.7068,Guadeloupe,GP,GLP,,,,,,187.3,,,4,America/Guadeloupe,FALSE,1312000529
Saint-Pierre,Saint-Pierre,,16.2355,-61.6272,Guadeloupe,GP,GLP,,,,,,776.7,,,3,America/Guadeloupe,FALSE,1312000059
Saint-Pierre,Saint-Pierre,,16.4503,-61.5296,Guadeloupe,GP,GLP,,,,,,88.0,,,4,America/Guadeloupe,TRUE,1312732329
Peinnel,Peinnel,,16.2472,-61.5127,Guadeloupe,GP,GLP,,,,,,757.3,,,3,America/Guadeloupe,FALSE,1312000540
Paletuviers,Paletuviers,,15.9970,-61.6224,Guadeloupe,GP,GLP,,,,,,192.3,,,4,America/Guadeloupe,FALSE,1312000224
Jean-Baptiste,Jean-Baptiste,,16.2235,-61.4722,Guadeloupe,GP,GLP,,,,,,604.6,,,3,America/Guadeloupe,FALSE,1312000919
Jean-Baptiste,Jean-Baptiste,,15.9016,-61.2286,Guadeloupe,GP,GLP,,,,,,69.2,,,4,America/Guadeloupe,TRUE,1312000379
"Bar Valombre","Bar Valombre",,16.2536,-61.7027,Guadeloupe,GP,GLP,,,,,,187.3,,,4,America/Guadeloupe,FALSE,1312000447
Béron,Beron,,16.2725,-61.6768,Guadeloupe,GP,GLP,,,,,,187.3,,,4,America/Guadeloupe,FALSE,1312000191
Massacre,Massacre,,15.9509,-61.2515,Guadeloupe,GP,GLP,,,,,,41.8,,,4,America/Guadeloupe,FALSE,1312000546
Desbordes,Desbordes,,16.1570,-61.6387,Guadeloupe,GP,GLP,,,,,,190.0,,,4,America/Guadeloupe,FALSE,1312000361
Dampierre,Dampierre,,16.2087,-61.4710,Guadeloupe,GP,GLP,,,,,,604.6,,,3,America/Guadeloupe,FALSE,1312000916
Archange,Archange,,15.9311,-61.2213,Guadeloupe,GP,GLP,,,,,,69.2,,,4,America/Guadeloupe,FALSE,1312000408
Longval,Longval,Langval,16.2667,-61.5000,Guadeloupe,GP,GLP,,,,,,757.3,,,3,America/Guadeloupe,FALSE,1312558562
Maletie,Maletie,,15.9978,-61.2669,Guadeloupe,GP,GLP,,,,,,41.8,,,4,America/Guadeloupe,FALSE,1312522930
Michaux,Michaux,,16.2340,-61.4438,Guadeloupe,GP,GLP,,,,,,604.6,,,3,America/Guadeloupe,FALSE,1312000826
Petit-Canal,Petit-Canal,"Petit Canat",16.3791,-61.4872,Guadeloupe,GP,GLP,,,,,,113.1,,,4,America/Guadeloupe,FALSE,1312177304
Dorot,Dorot,,15.9582,-61.2569,Guadeloupe,GP,GLP,,,,,,41.8,,,4,America/Guadeloupe,FALSE,1312021722
Dubeau,Dubeau,,16.0011,-61.6763,Guadeloupe,GP,GLP,,,,,,372.2,,,3,America/Guadeloupe,FALSE,1312000609
"Pré Cassin","Pre Cassin",,15.8622,-61.5892,Guadeloupe,GP,GLP,,,,,,261.3,,,3,America/Guadeloupe,FALSE,1312001006
"Bon Air","Bon Air",,16.1387,-61.7534,Guadeloupe,GP,GLP,,,,,,178.2,,,4,America/Guadeloupe,FALSE,1312000165
"Bon Air","Bon Air",,16.3631,-61.4322,Guadeloupe,GP,GLP,,,,,,113.1,,,4,America/Guadeloupe,TRUE,1312001104
Lespine,Lespine,,15.8972,-61.2772,Guadeloupe,GP,GLP,,,,,,95.3,,,4,America/Guadeloupe,FALSE,1312000742
Bonnet,Bonnet,,15.9235,-61.2876,Guadeloupe,GP,GLP,,,,,,95.3,,,4,America/Guadeloupe,FALSE,1312009302
Montalègre,Montalegre,Montalègue,16.2501,-61.6652,Guadeloupe,GP,GLP,,,,,,288.7,,,3,America/Guadeloupe,FALSE,1312226129
Montalègre,Montalegre,,16.4341,-61.5035,Guadeloupe,GP,GLP,,,,,,118.3,,,4,America/Guadeloupe,TRUE,1312454807
Guignès,Guignes,,15.9654,-61.2663,Guadeloupe,GP,GLP,,,,,,41.8,,,4,America/Guadeloupe,FALSE,1312892355
Pliane,Pliane,,16.2180,-61.4542,Guadeloupe,GP,GLP,,,,,,604.6,,,3,America/Guadeloupe,FALSE,1312000882
Descareaux,Descareaux,,16.2595,-61.4737,Guadeloupe,GP,GLP,,,,,,757.3,,,3,America/Guadeloupe,FALSE,1312000901
Barbès,Barbes,,16.2290,-61.4899,Guadeloupe,GP,GLP,,,,,,604.6,,,3,America/Guadeloupe,FALSE,1312001037
"Les Galbas","Les Galbas",,16.2236,-61.3937,Guadeloupe,GP,GLP,,,,,,341.9,,,3,America/Guadeloupe,FALSE,1312000814
Lemercier,Lemercier,,16.2566,-61.6478,Guadeloupe,GP,GLP,,,,,,288.7,,,3,America/Guadeloupe,FALSE,1312000075
Lemercier,Lemercier,,16.3289,-61.3547,Guadeloupe,GP,GLP,,,,,,278.8,,,3,America/Guadeloupe,TRUE,1312249598
"Bêtes Rouges","Betes Rouges",,16.2754,-61.7779,Guadeloupe,GP,GLP,,,,,,148.9,,,4,America/Guadeloupe,FALSE,1312001000
"Bonne Mère","Bonne Mere","Sucrerie Bonne-Mère",16.2674,-61.6761,Guadeloupe,GP,GLP,,,,,,187.3,,,4,America/Guadeloupe,FALSE,1312173179
Courbaril,Courbaril,,16.1348,-61.7687,Guadeloupe,GP,GLP,,,,,,178.2,,,4,America/Guadeloupe,FALSE,1312000199
Courbaril,Courbaril,,15.9572,-61.3041,Guadeloupe,GP,GLP,,,,,,41.8,,,4,America/Guadeloupe,TRUE,1312493013
Kervino,Kervino,,16.2280,-61.4418,Guadeloupe,GP,GLP,,,,,,604.6,,,3,America/Guadeloupe,FALSE,1312000836
Garnier,Garnier,,16.3137,-61.4974,Guadeloupe,GP,GLP,,,,,,249.2,,,3,America/Guadeloupe,FALSE,1312730665
Boricaud,Boricaud,,16.2838,-61.4466,Guadeloupe,GP,GLP,,,,,,463.4,,,3,America/Guadeloupe,FALSE,1312581038
Taillefer,Taillefer,,15.9626,-61.2926,Guadeloupe,GP,GLP,,,,,,41.8,,,4,America/Guadeloupe,FALSE,1312000797
Lapalin,Lapalin,,16.2983,-61.4570,Guadeloupe,GP,GLP,,,,,,301.0,,,3,America/Guadeloupe,FALSE,1312000031
Vallet,Vallet,,16.3069,-61.4505,Guadeloupe,GP,GLP,,,,,,249.2,,,3,America/Guadeloupe,FALSE,1312000889
"Les Galets","Les Galets","Le Galet",16.2976,-61.0934,Guadeloupe,GP,GLP,,,,,,66.8,,,4,America/Guadeloupe,FALSE,1312957360
Donotte,Donotte,,16.2522,-61.6638,Guadeloupe,GP,GLP,,,,,,288.7,,,3,America/Guadeloupe,FALSE,1312000066
Caraque,Caraque,,16.2520,-61.4894,Guadeloupe,GP,GLP,,,,,,757.3,,,3,America/Guadeloupe,FALSE,1312483937
"Mare Gaillard","Mare Gaillard","Marc Gaillard",16.2153,-61.4393,Guadeloupe,GP,GLP,,,,,,604.6,,,3,America/Guadeloupe,FALSE,1312421272
"Grand Marigot","Grand Marigot",,16.0396,-61.7156,Guadeloupe,GP,GLP,,,,,,244.2,,,3,America/Guadeloupe,FALSE,1312000982
Richard,Richard,,16.2502,-61.6960,Guadeloupe,GP,GLP,,,,,,187.3,,,4,America/Guadeloupe,FALSE,1312000448
"Caféière Vincent","Cafeiere Vincent",,16.2716,-61.6477,Guadeloupe,GP,GLP,,,,,,288.7,,,3,America/Guadeloupe,FALSE,1312000070
Vanibel,Vanibel,,15.9946,-61.7076,Guadeloupe,GP,GLP,,,,,,371.8,,,3,America/Guadeloupe,FALSE,1312000251
Héloin,Heloin,,15.9050,-61.2363,Guadeloupe,GP,GLP,,,,,,69.2,,,4,America/Guadeloupe,FALSE,1312000739
Chauffours,Chauffours,,16.2307,-61.5204,Guadeloupe,GP,GLP,,,,,,743.7,,,3,America/Guadeloupe,FALSE,1312000535
Vernou,Vernou,,16.1817,-61.6563,Guadeloupe,GP,GLP,,,,,,190.0,,,4,America/Guadeloupe,FALSE,1312725415
Besson,Besson,,16.2397,-61.5056,Guadeloupe,GP,GLP,,,,,,655.7,,,3,America/Guadeloupe,FALSE,1312000950
"Boucan Audet","Boucan Audet",,16.0589,-61.7027,Guadeloupe,GP,GLP,,,,,,197.3,,,4,America/Guadeloupe,FALSE,1312000604
Brion,Brion,,16.3238,-61.4581,Guadeloupe,GP,GLP,,,,,,249.2,,,3,America/Guadeloupe,FALSE,1312572559
"Le Boyer","Le Boyer",,16.3289,-61.6970,Guadeloupe,GP,GLP,,,,,,187.3,,,4,America/Guadeloupe,FALSE,1312000621
Mazure,Mazure,,16.0203,-61.7032,Guadeloupe,GP,GLP,,,,,,326.0,,,3,America/Guadeloupe,FALSE,1312000296
Malgrétout,Malgretout,,16.4518,-61.4565,Guadeloupe,GP,GLP,,,,,,65.2,,,4,America/Guadeloupe,FALSE,1312859513
Tamarin,Tamarin,,16.2826,-61.4867,Guadeloupe,GP,GLP,,,,,,757.3,,,3,America/Guadeloupe,FALSE,1312001055
Saint-Sauveur,Saint-Sauveur,,16.0111,-61.5892,Guadeloupe,GP,GLP,,,,,,177.7,,,4,America/Guadeloupe,FALSE,1312656083
"Le Tuf","Le Tuf",,16.0488,-61.7377,Guadeloupe,GP,GLP,,,,,,148.4,,,4,America/Guadeloupe,FALSE,1312000286
Hurault,Hurault,,16.0500,-61.5667,Guadeloupe,GP,GLP,,,,,,177.7,,,4,America/Guadeloupe,FALSE,1312809467
Cambrefort,Cambrefort,,16.0713,-61.5772,Guadeloupe,GP,GLP,,,,,,177.7,,,4,America/Guadeloupe,FALSE,1312573397
"La Barrière","La Barriere",,16.2167,-61.4667,Guadeloupe,GP,GLP,,,,,,604.6,,,3,America/Guadeloupe,FALSE,1312036062
L’Heurissy,L'Heurissy,,16.2394,-61.4183,Guadeloupe,GP,GLP,,,,,,341.9,,,3,America/Guadeloupe,FALSE,1312000032
Monfi,Monfi,,16.2714,-61.4780,Guadeloupe,GP,GLP,,,,,,757.3,,,3,America/Guadeloupe,FALSE,1312000854
Christophe,Christophe,,16.1127,-61.5718,Guadeloupe,GP,GLP,,,,,,204.1,,,3,America/Guadeloupe,FALSE,1312000584
Carlan,Carlan,,16.2730,-61.4784,Guadeloupe,GP,GLP,,,,,,757.3,,,3,America/Guadeloupe,FALSE,1312000855
Cavanière,Cavaniere,,16.2537,-61.4091,Guadeloupe,GP,GLP,,,,,,341.9,,,3,America/Guadeloupe,FALSE,1312000681
Castel,Castel,,16.2589,-61.6671,Guadeloupe,GP,GLP,,,,,,268.1,,,3,America/Guadeloupe,FALSE,1312845457
"La Marguerite","La Marguerite",,16.0369,-61.7018,Guadeloupe,GP,GLP,,,,,,326.0,,,3,America/Guadeloupe,FALSE,1312000273
"L’Anse du Vent","L'Anse du Vent",,15.9930,-61.2620,Guadeloupe,GP,GLP,,,,,,41.8,,,4,America/Guadeloupe,FALSE,1312000773
Chouloute,Chouloute,,16.2979,-61.4410,Guadeloupe,GP,GLP,,,,,,265.1,,,3,America/Guadeloupe,FALSE,1312000748
"Les Trois Chemins Saint-Guillaume","Les Trois Chemins Saint-Guillaume",,16.2840,-61.3906,Guadeloupe,GP,GLP,,,,,,330.6,,,3,America/Guadeloupe,FALSE,1312000706
Volny,Volny,,16.2358,-61.6488,Guadeloupe,GP,GLP,,,,,,288.7,,,3,America/Guadeloupe,FALSE,1312000182
Zamy,Zamy,,16.3025,-61.2775,Guadeloupe,GP,GLP,,,,,,314.3,,,3,America/Guadeloupe,FALSE,1312000332
Fromager,Fromager,,16.1573,-61.7757,Guadeloupe,GP,GLP,,,,,,178.2,,,4,America/Guadeloupe,FALSE,1312000204
Vipart,Vipart,,16.3333,-61.4000,Guadeloupe,GP,GLP,,,,,,278.8,,,3,America/Guadeloupe,FALSE,1312681650
Maisoncelle,Maisoncelle,Maisoncel|Maisonceile,16.3758,-61.4705,Guadeloupe,GP,GLP,,,,,,113.1,,,4,America/Guadeloupe,FALSE,1312962116
Mondong,Mondong,,16.2435,-61.5864,Guadeloupe,GP,GLP,,,,,,776.7,,,3,America/Guadeloupe,FALSE,1312000451
Versailles,Versailles,,16.2216,-61.6016,Guadeloupe,GP,GLP,,,,,,190.0,,,4,America/Guadeloupe,FALSE,1312687304
Pasquereau,Pasquereau,,16.2736,-61.6157,Guadeloupe,GP,GLP,,,,,,776.7,,,3,America/Guadeloupe,FALSE,1312389460
Trinité,Trinite,,16.2165,-61.6060,Guadeloupe,GP,GLP,,,,,,190.0,,,4,America/Guadeloupe,FALSE,1312000158
Merlet,Merlet,,15.9749,-61.3005,Guadeloupe,GP,GLP,,,,,,41.8,,,4,America/Guadeloupe,FALSE,1312265119
"Les Sables","Les Sables",,16.2995,-61.0813,Guadeloupe,GP,GLP,,,,,,66.8,,,4,America/Guadeloupe,FALSE,1312931667
Birloton,Birloton,,16.1552,-61.7558,Guadeloupe,GP,GLP,,,,,,178.2,,,4,America/Guadeloupe,FALSE,1312000526
"Salle d’Asile","Salle d'Asile",,16.2617,-61.4992,Guadeloupe,GP,GLP,,,,,,757.3,,,3,America/Guadeloupe,FALSE,1312001017
"Maisons Neuves","Maisons Neuves",,16.2652,-61.6863,Guadeloupe,GP,GLP,,,,,,187.3,,,4,America/Guadeloupe,FALSE,1312000106
"Moulin de Lœry","Moulin de Loery",,16.2667,-61.3529,Guadeloupe,GP,GLP,,,,,,341.9,,,3,America/Guadeloupe,FALSE,1312000402
"Derrière le Morne","Derriere le Morne",,15.9530,-61.7029,Guadeloupe,GP,GLP,,,,,,263.1,,,3,America/Guadeloupe,FALSE,1312000245
"L’Étang Noir","L'Etang Noir",,15.9378,-61.2460,Guadeloupe,GP,GLP,,,,,,69.2,,,4,America/Guadeloupe,FALSE,1312026343
"Pères Blancs","Peres Blancs",,16.0120,-61.7389,Guadeloupe,GP,GLP,,,,,,902.6,,,3,America/Guadeloupe,FALSE,1312000305
Bétin,Betin,Betin,16.4476,-61.5142,Guadeloupe,GP,GLP,,,,,,118.3,,,4,America/Guadeloupe,FALSE,1312010601
Renneville,Renneville,,16.2859,-61.3109,Guadeloupe,GP,GLP,,,,,,322.2,,,3,America/Guadeloupe,FALSE,1312000306
Laman,Laman,,15.9261,-61.2798,Guadeloupe,GP,GLP,,,,,,80.6,,,4,America/Guadeloupe,FALSE,1312000016
Sommabert,Sommabert,,16.3422,-61.4026,Guadeloupe,GP,GLP,,,,,,278.8,,,3,America/Guadeloupe,FALSE,1312000828
Jaquemel,Jaquemel,,16.0054,-61.6612,Guadeloupe,GP,GLP,,,,,,291.1,,,3,America/Guadeloupe,FALSE,1312000863
Gavaudière,Gavaudiere,,16.3158,-61.3289,Guadeloupe,GP,GLP,,,,,,278.8,,,3,America/Guadeloupe,FALSE,1312000404
"Prise d’Eau","Prise d'Eau",,16.2085,-61.6522,Guadeloupe,GP,GLP,,,,,,256.2,,,3,America/Guadeloupe,FALSE,1312153539
Espérance,Esperance,,16.2898,-61.2625,Guadeloupe,GP,GLP,,,,,,322.2,,,3,America/Guadeloupe,FALSE,1312000491
Espérance,Esperance,,16.3236,-61.4404,Guadeloupe,GP,GLP,,,,,,249.2,,,3,America/Guadeloupe,TRUE,1312000733
Matone,Matone,,16.1061,-61.7653,Guadeloupe,GP,GLP,,,,,,178.2,,,4,America/Guadeloupe,FALSE,1312000382
Féneteau,Feneteau,,16.1766,-61.6300,Guadeloupe,GP,GLP,,,,,,190.0,,,4,America/Guadeloupe,FALSE,1312000161
Changy,Changy,,16.0720,-61.5648,Guadeloupe,GP,GLP,,,,,,177.7,,,4,America/Guadeloupe,FALSE,1312000639
"Fonds d’Or","Fonds d'Or",,16.3000,-61.3500,Guadeloupe,GP,GLP,,,,,,278.8,,,3,America/Guadeloupe,FALSE,1312921350
Cayenne,Cayenne,,16.2604,-61.2812,Guadeloupe,GP,GLP,,,,,,322.2,,,3,America/Guadeloupe,FALSE,1312000996
"Baie Mahault","Baie Mahault",,16.3297,-61.0203,Guadeloupe,GP,GLP,,,,,,66.8,,,4,America/Guadeloupe,FALSE,1312281991
Bananier,Bananier,,16.2242,-61.4546,Guadeloupe,GP,GLP,,,,,,604.6,,,3,America/Guadeloupe,FALSE,1312000880
Bananier,Bananier,,16.0012,-61.6013,Guadeloupe,GP,GLP,,,,,,177.7,,,4,America/Guadeloupe,TRUE,1312203297
Blanchard,Blanchard,,16.2443,-61.4808,Guadeloupe,GP,GLP,,,,,,630.1,,,3,America/Guadeloupe,FALSE,1312000904
Blanchard,Blanchard,,15.8834,-61.2316,Guadeloupe,GP,GLP,,,,,,69.2,,,4,America/Guadeloupe,TRUE,1312000513
Châteaubrun,Chateaubrun,,16.2524,-61.3536,Guadeloupe,GP,GLP,,,,,,341.9,,,3,America/Guadeloupe,FALSE,1312469961
"Cinq Étangs","Cinq Etangs",,16.2733,-61.3558,Guadeloupe,GP,GLP,,,,,,341.9,,,3,America/Guadeloupe,FALSE,1312000348
L’Aiguille,L'Aiguille,,16.1286,-61.5749,Guadeloupe,GP,GLP,,,,,,212.0,,,3,America/Guadeloupe,FALSE,1312000503
Nérée,Neree,Nerée,16.2646,-61.5005,Guadeloupe,GP,GLP,,,,,,757.3,,,3,America/Guadeloupe,FALSE,1312606762
"Habitation Dumanoir","Habitation Dumanoir",,16.0373,-61.5970,Guadeloupe,GP,GLP,,,,,,177.7,,,4,America/Guadeloupe,FALSE,1312000618
Colcongue,Colcongue,,16.3013,-61.5178,Guadeloupe,GP,GLP,,,,,,643.7,,,3,America/Guadeloupe,FALSE,1312000564
Mouéssant,Mouessant,,15.9198,-61.2733,Guadeloupe,GP,GLP,,,,,,95.3,,,4,America/Guadeloupe,FALSE,1312000015
Darboussier,Darboussier,,16.0190,-61.6551,Guadeloupe,GP,GLP,,,,,,281.9,,,3,America/Guadeloupe,FALSE,1312000956
Borée,Boree,,15.9513,-61.2270,Guadeloupe,GP,GLP,,,,,,69.2,,,4,America/Guadeloupe,FALSE,1312550151
"Notre Dame du Phare","Notre Dame du Phare",,16.3161,-61.0396,Guadeloupe,GP,GLP,,,,,,66.8,,,4,America/Guadeloupe,FALSE,1312621813
Blondeau,Blondeau,,15.9532,-61.6783,Guadeloupe,GP,GLP,,,,,,266.2,,,3,America/Guadeloupe,FALSE,1312001023
"Maison Coupa","Maison Coupa",,16.1090,-61.7358,Guadeloupe,GP,GLP,,,,,,154.9,,,4,America/Guadeloupe,FALSE,1312000249
Jabrun,Jabrun,,16.2404,-61.5950,Guadeloupe,GP,GLP,,,,,,690.3,,,3,America/Guadeloupe,FALSE,1312185470
Jabrun,Jabrun,,16.3056,-61.4444,Guadeloupe,GP,GLP,,,,,,249.2,,,3,America/Guadeloupe,TRUE,1312915832
Nesmond,Nesmond,,15.9312,-61.2273,Guadeloupe,GP,GLP,,,,,,69.2,,,4,America/Guadeloupe,FALSE,1312000744
"Le Maud’Huy","Le Maud'Huy",,16.2631,-61.2652,Guadeloupe,GP,GLP,,,,,,322.2,,,3,America/Guadeloupe,FALSE,1312000944
Naud,Naud,,16.3184,-61.4959,Guadeloupe,GP,GLP,,,,,,249.2,,,3,America/Guadeloupe,FALSE,1312001009
"La Grosse Roche","La Grosse Roche",,16.2572,-61.6421,Guadeloupe,GP,GLP,,,,,,288.7,,,3,America/Guadeloupe,FALSE,1312000076
Garcin,Garcin,,15.9250,-61.2479,Guadeloupe,GP,GLP,,,,,,69.2,,,4,America/Guadeloupe,FALSE,1312000542
"La Poudrière","La Poudriere",,16.0994,-61.5617,Guadeloupe,GP,GLP,,,,,,177.7,,,4,America/Guadeloupe,FALSE,1312000501
"Jabrun Saint-Cyr","Jabrun Saint-Cyr",,16.3159,-61.4442,Guadeloupe,GP,GLP,,,,,,249.2,,,3,America/Guadeloupe,FALSE,1312000894
Dugommier,Dugommier,,16.0138,-61.6840,Guadeloupe,GP,GLP,,,,,,337.4,,,3,America/Guadeloupe,FALSE,1312000270
Valentin,Valentin,,15.9005,-61.2371,Guadeloupe,GP,GLP,,,,,,69.2,,,4,America/Guadeloupe,FALSE,1312000518
Marquisat,Marquisat,,16.0407,-61.5694,Guadeloupe,GP,GLP,,,,,,177.7,,,4,America/Guadeloupe,FALSE,1312695969
Duteau,Duteau,,16.3287,-61.4000,Guadeloupe,GP,GLP,,,,,,278.8,,,3,America/Guadeloupe,FALSE,1312000661
Bergnolle,Bergnolle,,16.2250,-61.6215,Guadeloupe,GP,GLP,,,,,,407.5,,,3,America/Guadeloupe,FALSE,1312000090
Wonche,Wonche,,16.2579,-61.6211,Guadeloupe,GP,GLP,,,,,,776.7,,,3,America/Guadeloupe,FALSE,1312000073
Blin,Blin,,16.3353,-61.5185,Guadeloupe,GP,GLP,,,,,,249.2,,,3,America/Guadeloupe,FALSE,1312000570
Lebraire,Lebraire,,16.3143,-61.4631,Guadeloupe,GP,GLP,,,,,,249.2,,,3,America/Guadeloupe,FALSE,1312001027
Mazeau,Mazeau,,16.2948,-61.7884,Guadeloupe,GP,GLP,,,,,,148.9,,,4,America/Guadeloupe,FALSE,1312923682
"Château Sœurette","Chateau Soeurette",,15.9812,-61.6517,Guadeloupe,GP,GLP,,,,,,275.1,,,3,America/Guadeloupe,FALSE,1312001125
Cardonnet,Cardonnet,,15.9763,-61.6594,Guadeloupe,GP,GLP,,,,,,311.6,,,3,America/Guadeloupe,FALSE,1312001069
Deshaies,Deshaies,Deshayes,16.3067,-61.7943,Guadeloupe,GP,GLP,,,,,,148.9,,,4,America/Guadeloupe,FALSE,1312466747
Plateau,Plateau,,16.1238,-61.7691,Guadeloupe,GP,GLP,,,,,,178.2,,,4,America/Guadeloupe,FALSE,1312000419
"Bontemps Rameau","Bontemps Rameau",Bontemps|Bontemps-Rameau,15.9239,-61.2111,Guadeloupe,GP,GLP,,,,,,69.2,,,4,America/Guadeloupe,FALSE,1312869951
"Fond Sarrail","Fond Sarrail",,16.2625,-61.5729,Guadeloupe,GP,GLP,,,,,,776.7,,,3,America/Guadeloupe,FALSE,1312000482
Pointe-Noire,Pointe-Noire,"Point Noire|La Pointe-Noire",16.2322,-61.7892,Guadeloupe,GP,GLP,,,,,,106.7,,,4,America/Guadeloupe,FALSE,1312500865
Montella,Montella,,16.2762,-61.7004,Guadeloupe,GP,GLP,,,,,,187.3,,,4,America/Guadeloupe,FALSE,1312000185
Dumoulin,Dumoulin,,16.2489,-61.4942,Guadeloupe,GP,GLP,,,,,,745.1,,,3,America/Guadeloupe,FALSE,1312001019
Bosrédon,Bosredon,,16.3129,-61.4841,Guadeloupe,GP,GLP,,,,,,249.2,,,3,America/Guadeloupe,FALSE,1312788279
"Îlet Pérou","Ilet Perou",,16.0573,-61.5707,Guadeloupe,GP,GLP,,,,,,177.7,,,4,America/Guadeloupe,FALSE,1312737333
Subercazeaux,Subercazeaux,Subercazeau,16.2953,-61.6593,Guadeloupe,GP,GLP,,,,,,189.1,,,4,America/Guadeloupe,FALSE,1312665601
Dubisquet,Dubisquet,,16.2903,-61.4496,Guadeloupe,GP,GLP,,,,,,463.4,,,3,America/Guadeloupe,FALSE,1312000887
Gay,Gay,,15.9256,-61.3146,Guadeloupe,GP,GLP,,,,,,95.3,,,4,America/Guadeloupe,FALSE,1312686625
"Vallée d’Or","Vallee d'Or",,16.2667,-61.2500,Guadeloupe,GP,GLP,,,,,,322.2,,,3,America/Guadeloupe,FALSE,1312032547
Dain,Dain,,16.0107,-61.7085,Guadeloupe,GP,GLP,,,,,,326.0,,,3,America/Guadeloupe,FALSE,1312000264
Chalet,Chalet,,15.9621,-61.3180,Guadeloupe,GP,GLP,,,,,,41.8,,,4,America/Guadeloupe,FALSE,1312500313
Fossé,Fosse,,16.2632,-61.6155,Guadeloupe,GP,GLP,,,,,,776.7,,,3,America/Guadeloupe,FALSE,1312000392
Lauréal,Laureal,,16.3206,-61.3436,Guadeloupe,GP,GLP,,,,,,278.8,,,3,America/Guadeloupe,FALSE,1312521499
Sainte-Élise,Sainte-Elise,,16.3277,-61.7013,Guadeloupe,GP,GLP,,,,,,187.3,,,4,America/Guadeloupe,FALSE,1312000577
Robert,Robert,,15.9856,-61.6917,Guadeloupe,GP,GLP,,,,,,372.2,,,3,America/Guadeloupe,FALSE,1312001121
Robert,Robert,,15.9018,-61.2516,Guadeloupe,GP,GLP,,,,,,79.8,,,4,America/Guadeloupe,TRUE,1312713055
"Le Débarcadère","Le Debarcadere",,16.2983,-61.0958,Guadeloupe,GP,GLP,,,,,,66.8,,,4,America/Guadeloupe,FALSE,1312000683
"Le Grand Abaque","Le Grand Abaque",,16.3445,-61.0152,Guadeloupe,GP,GLP,,,,,,66.8,,,4,America/Guadeloupe,FALSE,1312000948
"Petit Havre","Petit Havre",,16.2121,-61.4272,Guadeloupe,GP,GLP,,,,,,604.6,,,3,America/Guadeloupe,FALSE,1312000689
L’Oranger,L'Oranger,,16.3343,-61.3800,Guadeloupe,GP,GLP,,,,,,278.8,,,3,America/Guadeloupe,FALSE,1312000691
Barbier,Barbier,,16.1667,-61.6000,Guadeloupe,GP,GLP,,,,,,190.0,,,4,America/Guadeloupe,FALSE,1312248815
Duché,Duche,,16.0983,-61.7712,Guadeloupe,GP,GLP,,,,,,178.2,,,4,America/Guadeloupe,FALSE,1312000465
Sainte-Claire,Sainte-Claire,,16.1262,-61.5731,Guadeloupe,GP,GLP,,,,,,212.0,,,3,America/Guadeloupe,FALSE,1312610424
Deurer,Deurer,,16.2556,-61.2701,Guadeloupe,GP,GLP,,,,,,322.2,,,3,America/Guadeloupe,FALSE,1312000317
"Fonds Thézan","Fonds Thezan",,16.2178,-61.4176,Guadeloupe,GP,GLP,,,,,,369.8,,,3,America/Guadeloupe,FALSE,1312000687
Roujol,Roujol,,16.1813,-61.5903,Guadeloupe,GP,GLP,,,,,,190.0,,,4,America/Guadeloupe,FALSE,1312000340
Fafa,Fafa,,16.2516,-61.4562,Guadeloupe,GP,GLP,,,,,,565.8,,,3,America/Guadeloupe,FALSE,1312000026
Là-Haut,La-Haut,,16.4124,-61.4289,Guadeloupe,GP,GLP,,,,,,113.1,,,4,America/Guadeloupe,FALSE,1312000695
Conchou,Conchou,Couchon,16.3286,-61.3122,Guadeloupe,GP,GLP,,,,,,278.8,,,3,America/Guadeloupe,FALSE,1312499335
"La Digue","La Digue",,16.2915,-61.4065,Guadeloupe,GP,GLP,,,,,,292.5,,,3,America/Guadeloupe,FALSE,1312000670
"La Digue","La Digue",,16.0739,-61.5917,Guadeloupe,GP,GLP,,,,,,177.7,,,4,America/Guadeloupe,TRUE,1312000635
"Le Mercier","Le Mercier",,16.4607,-61.4989,Guadeloupe,GP,GLP,,,,,,65.2,,,4,America/Guadeloupe,FALSE,1312001081
Poterie,Poterie,,15.9673,-61.6591,Guadeloupe,GP,GLP,,,,,,275.1,,,3,America/Guadeloupe,FALSE,1312001043
Gorot,Gorot,,16.2569,-61.2891,Guadeloupe,GP,GLP,,,,,,322.2,,,3,America/Guadeloupe,FALSE,1312000400
"Grande Rivière","Grande Riviere",,16.0833,-61.7167,Guadeloupe,GP,GLP,,,,,,129.1,,,4,America/Guadeloupe,FALSE,1312235991
Callas,Callas,,16.2602,-61.6849,Guadeloupe,GP,GLP,,,,,,187.3,,,4,America/Guadeloupe,FALSE,1312000942
Saint-Marc,Saint-Marc,,15.9090,-61.2736,Guadeloupe,GP,GLP,,,,,,95.3,,,4,America/Guadeloupe,FALSE,1312003983
Louisville,Louisville,,15.9793,-61.6388,Guadeloupe,GP,GLP,,,,,,275.1,,,3,America/Guadeloupe,FALSE,1312001130
Basile,Basile,,15.9043,-61.2265,Guadeloupe,GP,GLP,,,,,,69.2,,,4,America/Guadeloupe,FALSE,1312000378
Lacroix,Lacroix,,16.4000,-61.4333,Guadeloupe,GP,GLP,,,,,,113.1,,,4,America/Guadeloupe,FALSE,1312738244
Diane,Diane,,16.1907,-61.6368,Guadeloupe,GP,GLP,,,,,,190.0,,,4,America/Guadeloupe,FALSE,1312000195
Crâne,Crane,,16.2692,-61.6375,Guadeloupe,GP,GLP,,,,,,288.7,,,3,America/Guadeloupe,FALSE,1312000071
"Trou aux Chats","Trou aux Chats",,15.9911,-61.6163,Guadeloupe,GP,GLP,,,,,,208.5,,,3,America/Guadeloupe,FALSE,1312000226
"Jean Bogne","Jean Bogne",,16.3541,-61.4435,Guadeloupe,GP,GLP,,,,,,139.1,,,4,America/Guadeloupe,FALSE,1312000768
"Le Chalet","Le Chalet",,16.0423,-61.6981,Guadeloupe,GP,GLP,,,,,,326.0,,,3,America/Guadeloupe,FALSE,1312000601
Vinty,Vinty,,16.3535,-61.7298,Guadeloupe,GP,GLP,,,,,,187.3,,,4,America/Guadeloupe,FALSE,1312000623
"Trou aux Chiens","Trou aux Chiens",,15.9897,-61.6176,Guadeloupe,GP,GLP,,,,,,260.4,,,3,America/Guadeloupe,FALSE,1312000227
Sapotille,Sapotille,,15.9813,-61.6247,Guadeloupe,GP,GLP,,,,,,275.1,,,3,America/Guadeloupe,FALSE,1312000856
Bonfils,Bonfils,,16.2434,-61.6315,Guadeloupe,GP,GLP,,,,,,707.6,,,3,America/Guadeloupe,FALSE,1312000098
Bonfils,Bonfils,,16.1176,-61.5954,Guadeloupe,GP,GLP,,,,,,212.0,,,3,America/Guadeloupe,TRUE,1312000590
Bonfils,Bonfils,,16.0667,-61.5667,Guadeloupe,GP,GLP,,,,,,177.7,,,4,America/Guadeloupe,TRUE,1312416009
"La Marina","La Marina",,16.2202,-61.5278,Guadeloupe,GP,GLP,,,,,,3541.6,,,2,America/Guadeloupe,FALSE,1312000505
Beaufils,Beaufils,,15.8826,-61.2819,Guadeloupe,GP,GLP,,,,,,95.3,,,4,America/Guadeloupe,FALSE,1312000039
Sainte-Madeleine,Sainte-Madeleine,,16.2833,-61.3000,Guadeloupe,GP,GLP,,,,,,322.2,,,3,America/Guadeloupe,FALSE,1312893435
Desplan,Desplan,,16.2167,-61.7667,Guadeloupe,GP,GLP,,,,,,106.7,,,4,America/Guadeloupe,FALSE,1312948593
Juston,Juston,,16.1631,-61.5974,Guadeloupe,GP,GLP,,,,,,195.6,,,4,America/Guadeloupe,FALSE,1312000167
Goyave,Goyave,,16.2369,-61.4964,Guadeloupe,GP,GLP,,,,,,608.4,,,3,America/Guadeloupe,FALSE,1312001021
"Belle Mare","Belle Mare",,16.2767,-61.3886,Guadeloupe,GP,GLP,,,,,,341.9,,,3,America/Guadeloupe,FALSE,1312000673
"Morne Chapelle","Morne Chapelle",,16.3983,-61.4708,Guadeloupe,GP,GLP,,,,,,113.1,,,4,America/Guadeloupe,FALSE,1312001097
"Bord de Mer","Bord de Mer",,15.9685,-61.6429,Guadeloupe,GP,GLP,,,,,,275.1,,,3,America/Guadeloupe,FALSE,1312597137
"Bord de Mer","Bord de Mer",,16.1072,-61.7709,Guadeloupe,GP,GLP,,,,,,178.2,,,4,America/Guadeloupe,TRUE,1312000354
Eucher,Eucher,,16.2446,-61.4116,Guadeloupe,GP,GLP,,,,,,341.9,,,3,America/Guadeloupe,FALSE,1312000685
Beauport,Beauport,,16.4173,-61.5149,Guadeloupe,GP,GLP,,,,,,118.3,,,4,America/Guadeloupe,FALSE,1312390299
"Chemin Neuf","Chemin Neuf",,15.9782,-61.6272,Guadeloupe,GP,GLP,,,,,,275.1,,,3,America/Guadeloupe,FALSE,1312001063
Monrepos,Monrepos,,16.2457,-61.3871,Guadeloupe,GP,GLP,,,,,,341.9,,,3,America/Guadeloupe,FALSE,1312000701
Glacière,Glaciere,,16.1781,-61.6597,Guadeloupe,GP,GLP,,,,,,190.0,,,4,America/Guadeloupe,FALSE,1312000164
"Fond Bambou","Fond Bambou",,15.9338,-61.2463,Guadeloupe,GP,GLP,,,,,,69.2,,,4,America/Guadeloupe,FALSE,1312000369
"Habitation Saint-Sauveur","Habitation Saint-Sauveur",,16.0095,-61.5942,Guadeloupe,GP,GLP,,,,,,177.7,,,4,America/Guadeloupe,FALSE,1312000232
Poirier,Poirier,,16.2448,-61.3699,Guadeloupe,GP,GLP,,,,,,341.9,,,3,America/Guadeloupe,FALSE,1312550592
Poirier,Poirier,,16.2389,-61.6677,Guadeloupe,GP,GLP,,,,,,288.7,,,3,America/Guadeloupe,TRUE,1312000133
Poirier,Poirier,,16.2042,-61.6162,Guadeloupe,GP,GLP,,,,,,190.0,,,4,America/Guadeloupe,TRUE,1312000128
Poirier,Poirier,,16.1533,-61.7694,Guadeloupe,GP,GLP,,,,,,178.2,,,4,America/Guadeloupe,TRUE,1312000528
Poirier,Poirier,,16.0841,-61.5615,Guadeloupe,GP,GLP,,,,,,177.7,,,4,America/Guadeloupe,TRUE,1312000581
Poirier,Poirier,,15.9559,-61.2882,Guadeloupe,GP,GLP,,,,,,41.8,,,4,America/Guadeloupe,TRUE,1312000793
"Grand Bois","Grand Bois",,16.2440,-61.4619,Guadeloupe,GP,GLP,,,,,,604.6,,,3,America/Guadeloupe,FALSE,1312132013
Fougère,Fougere,,16.2051,-61.6218,Guadeloupe,GP,GLP,,,,,,190.0,,,4,America/Guadeloupe,FALSE,1312000129
Gensolin,Gensolin,,16.3131,-61.4770,Guadeloupe,GP,GLP,,,,,,249.2,,,3,America/Guadeloupe,FALSE,1312856830
"Belle Allée","Belle Allee",Belle-Année|Belle-Allée,16.2548,-61.3030,Guadeloupe,GP,GLP,,,,,,322.2,,,3,America/Guadeloupe,FALSE,1312199112
"Le Helleux","Le Helleux",,16.2446,-61.3415,Guadeloupe,GP,GLP,,,,,,341.9,,,3,America/Guadeloupe,FALSE,1312000963
"La Coulisse","La Coulisse",,16.0167,-61.7257,Guadeloupe,GP,GLP,,,,,,197.3,,,4,America/Guadeloupe,FALSE,1312000952
Poucet,Poucet,Poussette|Pousset,16.2177,-61.5031,Guadeloupe,GP,GLP,,,,,,604.6,,,3,America/Guadeloupe,FALSE,1312869624
Marécage,Marecage,,15.8811,-61.2456,Guadeloupe,GP,GLP,,,,,,69.2,,,4,America/Guadeloupe,FALSE,1312000516
Coreil,Coreil,,16.1036,-61.7712,Guadeloupe,GP,GLP,,,,,,178.2,,,4,America/Guadeloupe,FALSE,1312000429
"Le Gouffre","Le Gouffre",,16.4007,-61.4105,Guadeloupe,GP,GLP,,,,,,113.1,,,4,America/Guadeloupe,FALSE,1312000711
"Le Gouffre","Le Gouffre",,15.9006,-61.2806,Guadeloupe,GP,GLP,,,,,,95.3,,,4,America/Guadeloupe,TRUE,1312000507
"Morne aux Fous","Morne aux Fous",,16.2980,-61.8002,Guadeloupe,GP,GLP,,,,,,148.9,,,4,America/Guadeloupe,FALSE,1312000206
Saint-François,Saint-Francois,,16.2500,-61.2833,Guadeloupe,GP,GLP,,,,,,322.2,,,3,America/Guadeloupe,FALSE,1312571443
Dupré,Dupre,,16.2261,-61.3909,Guadeloupe,GP,GLP,,,,,,341.9,,,3,America/Guadeloupe,FALSE,1312342385
"Habitation Getz","Habitation Getz",,16.0781,-61.7499,Guadeloupe,GP,GLP,,,,,,129.1,,,4,America/Guadeloupe,FALSE,1312000643
"La Verdure","La Verdure",,16.2675,-61.4839,Guadeloupe,GP,GLP,,,,,,757.3,,,3,America/Guadeloupe,FALSE,1312001053
Schœlcher,Schoelcher,,15.9871,-61.6276,Guadeloupe,GP,GLP,,,,,,275.1,,,3,America/Guadeloupe,FALSE,1312001133
Schœlcher,Schoelcher,,16.0635,-61.7474,Guadeloupe,GP,GLP,,,,,,129.1,,,4,America/Guadeloupe,TRUE,1312000284
Sèze,Seze,"Seze Favreux|Sèze Favreau",16.2491,-61.2879,Guadeloupe,GP,GLP,,,,,,322.2,,,3,America/Guadeloupe,FALSE,1312615907
"Morne Rouge","Morne Rouge",,16.1190,-61.5732,Guadeloupe,GP,GLP,,,,,,212.0,,,3,America/Guadeloupe,FALSE,1312000585
"Morne Rouge","Morne Rouge",,16.3060,-61.6556,Guadeloupe,GP,GLP,,,,,,187.3,,,4,America/Guadeloupe,TRUE,1312384052
Laporte,Laporte,,16.3500,-61.7833,Guadeloupe,GP,GLP,,,,,,148.9,,,4,America/Guadeloupe,FALSE,1312452073
Loisel,Loisel,,16.3391,-61.5201,Guadeloupe,GP,GLP,,,,,,249.2,,,3,America/Guadeloupe,FALSE,1312000571
Cabanice,Cabanice,,15.8958,-61.2244,Guadeloupe,GP,GLP,,,,,,69.2,,,4,America/Guadeloupe,FALSE,1312000381
Madame,Madame,,16.3483,-61.7269,Guadeloupe,GP,GLP,,,,,,187.3,,,4,America/Guadeloupe,FALSE,1312000622
Brouel,Brouel,Broue,16.0833,-61.7667,Guadeloupe,GP,GLP,,,,,,129.1,,,4,America/Guadeloupe,FALSE,1312314140
"Belle Espérance","Belle Esperance",,16.3123,-61.5080,Guadeloupe,GP,GLP,,,,,,249.2,,,3,America/Guadeloupe,FALSE,1312236651
"Grand Bel-Air","Grand Bel-Air",,16.0745,-61.7423,Guadeloupe,GP,GLP,,,,,,129.1,,,4,America/Guadeloupe,FALSE,1312000640
"Les Mineurs","Les Mineurs",,16.1251,-61.6066,Guadeloupe,GP,GLP,,,,,,212.0,,,3,America/Guadeloupe,FALSE,1312000589
Pirogue,Pirogue,Ducos,15.9010,-61.2858,Guadeloupe,GP,GLP,,,,,,95.3,,,4,America/Guadeloupe,FALSE,1312413661
Carruel,Carruel,,16.2591,-61.4606,Guadeloupe,GP,GLP,,,,,,757.3,,,3,America/Guadeloupe,FALSE,1312000028
"Fond Homard","Fond Homard",,16.2479,-61.4504,Guadeloupe,GP,GLP,,,,,,604.6,,,3,America/Guadeloupe,FALSE,1312000876
Montéran,Monteran,,16.0150,-61.7106,Guadeloupe,GP,GLP,,,,,,326.0,,,3,America/Guadeloupe,FALSE,1312000267
"Grand Val","Grand Val",,16.0367,-61.7040,Guadeloupe,GP,GLP,,,,,,326.0,,,3,America/Guadeloupe,FALSE,1312000274
Partarieux,Partarieux,,15.8833,-61.3167,Guadeloupe,GP,GLP,,,,,,95.3,,,4,America/Guadeloupe,FALSE,1312430861
"Pierre Claire","Pierre Claire",,15.8935,-61.2245,Guadeloupe,GP,GLP,,,,,,69.2,,,4,America/Guadeloupe,FALSE,1312000508
Lamarre,Lamarre,,16.2464,-61.4261,Guadeloupe,GP,GLP,,,,,,341.9,,,3,America/Guadeloupe,FALSE,1312000845
Boyer,Boyer,,16.2569,-61.6605,Guadeloupe,GP,GLP,,,,,,288.7,,,3,America/Guadeloupe,FALSE,1312000067
Boyer,Boyer,,15.9833,-61.6500,Guadeloupe,GP,GLP,,,,,,275.1,,,3,America/Guadeloupe,TRUE,1312164704
Boyer,Boyer,,16.3495,-61.4420,Guadeloupe,GP,GLP,,,,,,234.9,,,3,America/Guadeloupe,TRUE,1312000766
Douillard,Douillard,,16.2424,-61.6755,Guadeloupe,GP,GLP,,,,,,223.5,,,3,America/Guadeloupe,FALSE,1312000135
"Petit Portland","Petit Portland",,16.4578,-61.4415,Guadeloupe,GP,GLP,,,,,,65.2,,,4,America/Guadeloupe,FALSE,1312225592
Gillardin,Gillardin,,15.9864,-61.6767,Guadeloupe,GP,GLP,,,,,,372.2,,,3,America/Guadeloupe,FALSE,1312001122
Gaillarbois,Gaillarbois,,16.2499,-61.4128,Guadeloupe,GP,GLP,,,,,,341.9,,,3,America/Guadeloupe,FALSE,1312000682
Délègue,Delegue,,16.2359,-61.4649,Guadeloupe,GP,GLP,,,,,,604.6,,,3,America/Guadeloupe,FALSE,1312000923
Méthivier,Methivier,,16.3313,-61.4209,Guadeloupe,GP,GLP,,,,,,254.7,,,3,America/Guadeloupe,FALSE,1312000730
Piton,Piton,,16.3282,-61.7635,Guadeloupe,GP,GLP,,,,,,157.8,,,4,America/Guadeloupe,FALSE,1312000142
Labatte,Labatte,,16.3099,-61.4510,Guadeloupe,GP,GLP,,,,,,249.2,,,3,America/Guadeloupe,FALSE,1312000891
Gommier,Gommier,,16.2463,-61.7872,Guadeloupe,GP,GLP,,,,,,106.7,,,4,America/Guadeloupe,FALSE,1312000216
Cacador,Cacador,,16.0445,-61.5956,Guadeloupe,GP,GLP,,,,,,177.7,,,4,America/Guadeloupe,FALSE,1312000594
Massieux,Massieux,,16.1145,-61.7660,Guadeloupe,GP,GLP,,,,,,178.2,,,4,America/Guadeloupe,FALSE,1312000422
Bernier,Bernier,,15.9410,-61.2872,Guadeloupe,GP,GLP,,,,,,46.1,,,4,America/Guadeloupe,FALSE,1312000052
Goudenave,Goudenave,,16.2231,-61.4753,Guadeloupe,GP,GLP,,,,,,604.6,,,3,America/Guadeloupe,FALSE,1312000907
Jaspard,Jaspard,,16.2790,-61.4823,Guadeloupe,GP,GLP,,,,,,757.3,,,3,America/Guadeloupe,FALSE,1312001120
"Bas du Fort","Bas du Fort",,16.2163,-61.5211,Guadeloupe,GP,GLP,,,,,,604.6,,,3,America/Guadeloupe,FALSE,1312354509
Gallard,Gallard,Galard,16.0097,-61.6940,Guadeloupe,GP,GLP,,,,,,326.1,,,3,America/Guadeloupe,FALSE,1312041930
Raiffer,Raiffer,,16.2421,-61.6135,Guadeloupe,GP,GLP,,,,,,776.7,,,3,America/Guadeloupe,FALSE,1312000100
Vieux-Fort,Vieux-Fort,,15.9496,-61.6993,Guadeloupe,GP,GLP,,,,,,263.1,,,3,America/Guadeloupe,FALSE,1312770203
Monroc,Monroc,,16.4432,-61.4981,Guadeloupe,GP,GLP,,,,,,78.0,,,4,America/Guadeloupe,FALSE,1312444159
Plaisir,Plaisir,,16.2640,-61.3731,Guadeloupe,GP,GLP,,,,,,341.9,,,3,America/Guadeloupe,FALSE,1312000700
Bonnardel,Bonnardel,,16.2339,-61.6249,Guadeloupe,GP,GLP,,,,,,776.7,,,3,America/Guadeloupe,FALSE,1312000060
Madeleine,Madeleine,,16.0353,-61.7387,Guadeloupe,GP,GLP,,,,,,190.8,,,4,America/Guadeloupe,FALSE,1312139508
Longmont,Longmont,Laugmont,16.0167,-61.6000,Guadeloupe,GP,GLP,,,,,,177.7,,,4,America/Guadeloupe,FALSE,1312482438
Mabouya,Mabouya,,15.9517,-61.2170,Guadeloupe,GP,GLP,,,,,,69.2,,,4,America/Guadeloupe,FALSE,1312000493
Boucart,Boucart,,16.3085,-61.4331,Guadeloupe,GP,GLP,,,,,,249.2,,,3,America/Guadeloupe,FALSE,1312000747
Gaoza,Gaoza,,16.2960,-61.5121,Guadeloupe,GP,GLP,,,,,,757.3,,,3,America/Guadeloupe,FALSE,1312000563
Beaumanoir,Beaumanoir,,16.2415,-61.4397,Guadeloupe,GP,GLP,,,,,,602.9,,,3,America/Guadeloupe,FALSE,1312000825
Mompierre,Mompierre,,16.3175,-61.4570,Guadeloupe,GP,GLP,,,,,,249.2,,,3,America/Guadeloupe,FALSE,1312001028
Zabricot,Zabricot,,16.2553,-61.4268,Guadeloupe,GP,GLP,,,,,,341.9,,,3,America/Guadeloupe,FALSE,1312000850
Bacquié,Bacquie,,16.3809,-61.4106,Guadeloupe,GP,GLP,,,,,,235.9,,,3,America/Guadeloupe,FALSE,1312000725
Compérou,Comperou,,16.2058,-61.6455,Guadeloupe,GP,GLP,,,,,,190.0,,,4,America/Guadeloupe,FALSE,1312000159
Guenette,Guenette,Guénette,16.3292,-61.3367,Guadeloupe,GP,GLP,,,,,,278.8,,,3,America/Guadeloupe,FALSE,1312079101
Brumant,Brumant,,15.8722,-61.2573,Guadeloupe,GP,GLP,,,,,,69.2,,,4,America/Guadeloupe,FALSE,1312000544
Bichemin,Bichemin,,16.0772,-61.7441,Guadeloupe,GP,GLP,,,,,,129.1,,,4,America/Guadeloupe,FALSE,1312808525
Richer,Richer,,16.2881,-61.3774,Guadeloupe,GP,GLP,,,,,,341.8,,,3,America/Guadeloupe,FALSE,1312000808
"Ravine Chaude","Ravine Chaude","Rivière Chaude",16.2269,-61.6683,Guadeloupe,GP,GLP,,,,,,288.7,,,3,America/Guadeloupe,FALSE,1312422393
"Bois de Surgy","Bois de Surgy",,16.2629,-61.3474,Guadeloupe,GP,GLP,,,,,,341.9,,,3,America/Guadeloupe,FALSE,1312000347
Dugay,Dugay,,15.8915,-61.2466,Guadeloupe,GP,GLP,,,,,,69.2,,,4,America/Guadeloupe,FALSE,1312000517
Nal,Nal,,15.9024,-61.2142,Guadeloupe,GP,GLP,,,,,,69.2,,,4,America/Guadeloupe,FALSE,1312000506
"Gros Morne Dolé","Gros Morne Dole",,16.0005,-61.6712,Guadeloupe,GP,GLP,,,,,,370.6,,,3,America/Guadeloupe,FALSE,1312000610
Mascotte,Mascotte,,16.2290,-61.5123,Guadeloupe,GP,GLP,,,,,,627.0,,,3,America/Guadeloupe,FALSE,1312000536
Murat,Murat,,15.9332,-61.2746,Guadeloupe,GP,GLP,,,,,,48.3,,,4,America/Guadeloupe,FALSE,1312000017
Surgy,Surgy,"De Surgy",16.2628,-61.3404,Guadeloupe,GP,GLP,,,,,,341.9,,,3,America/Guadeloupe,FALSE,1312771154
Viller,Viller,,16.2983,-61.7966,Guadeloupe,GP,GLP,,,,,,148.9,,,4,America/Guadeloupe,FALSE,1312000207
Gardel,Gardel,,16.3067,-61.3264,Guadeloupe,GP,GLP,,,,,,278.8,,,3,America/Guadeloupe,FALSE,1312329774
Champvert,Champvert,,16.2312,-61.4135,Guadeloupe,GP,GLP,,,,,,341.9,,,3,America/Guadeloupe,FALSE,1312000818
"Dos d’Âne","Dos d'Ane",,15.9911,-61.6814,Guadeloupe,GP,GLP,,,,,,372.2,,,3,America/Guadeloupe,FALSE,1312000255
"Morne Bourg","Morne Bourg",,16.1880,-61.5957,Guadeloupe,GP,GLP,,,,,,190.0,,,4,America/Guadeloupe,FALSE,1312563960
Parnasse,Parnasse,,16.0238,-61.6850,Guadeloupe,GP,GLP,,,,,,326.0,,,3,America/Guadeloupe,FALSE,1312386501
Papin,Papin,,16.2702,-61.4571,Guadeloupe,GP,GLP,,,,,,757.3,,,3,America/Guadeloupe,FALSE,1312000046
Papin,Papin,,16.2110,-61.6421,Guadeloupe,GP,GLP,,,,,,312.4,,,3,America/Guadeloupe,TRUE,1312000176
Laurichesse,Laurichesse,,16.0855,-61.7494,Guadeloupe,GP,GLP,,,,,,129.1,,,4,America/Guadeloupe,FALSE,1312000644
"La Sarde","La Sarde",,16.0983,-61.5689,Guadeloupe,GP,GLP,,,,,,177.7,,,4,America/Guadeloupe,FALSE,1312000579
Village,Village,Bouillante-Village|Bouillante,16.1301,-61.7686,Guadeloupe,GP,GLP,,,,,,178.2,,,4,America/Guadeloupe,FALSE,1312846111
"Morne Léonard","Morne Leonard",,16.3295,-61.7685,Guadeloupe,GP,GLP,,,,,,148.9,,,4,America/Guadeloupe,FALSE,1312000115
"La Rate","La Rate",,16.3350,-61.7752,Guadeloupe,GP,GLP,,,,,,148.9,,,4,America/Guadeloupe,FALSE,1312000024
"Mes Désirs","Mes Desirs",,15.8733,-61.2677,Guadeloupe,GP,GLP,,,,,,95.3,,,4,America/Guadeloupe,FALSE,1312000055
"Petite Place","Petite Place",,15.9309,-61.2064,Guadeloupe,GP,GLP,,,,,,69.2,,,4,America/Guadeloupe,FALSE,1312000547
Fontaine,Fontaine,,16.3167,-61.4000,Guadeloupe,GP,GLP,,,,,,278.8,,,3,America/Guadeloupe,FALSE,1312501438
Pérou,Perou,,16.1973,-61.6135,Guadeloupe,GP,GLP,,,,,,190.0,,,4,America/Guadeloupe,FALSE,1312000122
Pérou,Perou,,16.2523,-61.7761,Guadeloupe,GP,GLP,,,,,,106.7,,,4,America/Guadeloupe,TRUE,1312001003
Pelletan,Pelletan,,16.4235,-61.4746,Guadeloupe,GP,GLP,,,,,,118.3,,,4,America/Guadeloupe,FALSE,1312001084
Saint-Nicolas,Saint-Nicolas,,16.2953,-61.4230,Guadeloupe,GP,GLP,,,,,,278.8,,,3,America/Guadeloupe,FALSE,1312000655
"Gilles Arçon","Gilles Arcon",,16.3036,-61.4148,Guadeloupe,GP,GLP,,,,,,271.2,,,3,America/Guadeloupe,FALSE,1312000728
L’Éperon,L'Eperon,,16.2629,-61.2071,Guadeloupe,GP,GLP,,,,,,322.2,,,3,America/Guadeloupe,FALSE,1312000943
Pagesy,Pagesy,,16.1167,-61.7667,Guadeloupe,GP,GLP,,,,,,178.2,,,4,America/Guadeloupe,FALSE,1312262724
Agapy,Agapy,,15.9873,-61.2652,Guadeloupe,GP,GLP,,,,,,41.8,,,4,America/Guadeloupe,FALSE,1312836400
Grand’Rivière,Grand'Riviere,,16.0562,-61.7528,Guadeloupe,GP,GLP,,,,,,129.1,,,4,America/Guadeloupe,FALSE,1312000279
Saint-Jacques,Saint-Jacques,,16.2745,-61.3158,Guadeloupe,GP,GLP,,,,,,322.2,,,3,America/Guadeloupe,FALSE,1312000457
Saint-Jacques,Saint-Jacques,,16.4838,-61.4671,Guadeloupe,GP,GLP,,,,,,65.2,,,4,America/Guadeloupe,TRUE,1312087485
Néron,Neron,,16.3373,-61.3958,Guadeloupe,GP,GLP,,,,,,278.8,,,3,America/Guadeloupe,FALSE,1312000710
Morancy,Morancy,,15.9434,-61.2345,Guadeloupe,GP,GLP,,,,,,69.2,,,4,America/Guadeloupe,FALSE,1312000370
Sonel,Sonel,,16.2970,-61.4443,Guadeloupe,GP,GLP,,,,,,249.2,,,3,America/Guadeloupe,FALSE,1312000749
"La Joséphine","La Josephine",,16.0428,-61.7018,Guadeloupe,GP,GLP,,,,,,295.7,,,3,America/Guadeloupe,FALSE,1312000600
"La Rose Verger","La Rose Verger",Vergé,15.9409,-61.2618,Guadeloupe,GP,GLP,,,,,,41.9,,,4,America/Guadeloupe,FALSE,1312160811
"Le Pavillon","Le Pavillon",,16.3692,-61.4434,Guadeloupe,GP,GLP,,,,,,113.1,,,4,America/Guadeloupe,FALSE,1312001147
Delgrès,Delgres,,15.9717,-61.6604,Guadeloupe,GP,GLP,,,,,,275.1,,,3,America/Guadeloupe,FALSE,1312001070
Mouzingue,Mouzingue,,16.0095,-61.6756,Guadeloupe,GP,GLP,,,,,,339.9,,,3,America/Guadeloupe,FALSE,1312000939
"Le Bois d’Inde","Le Bois d'Inde",,16.2715,-61.6874,Guadeloupe,GP,GLP,,,,,,187.3,,,4,America/Guadeloupe,FALSE,1312000477
Vanier,Vanier,,16.1285,-61.7678,Guadeloupe,GP,GLP,,,,,,178.2,,,4,America/Guadeloupe,FALSE,1312000416
Grand-Bourg,Grand-Bourg,,15.8840,-61.3148,Guadeloupe,GP,GLP,,,,,,95.3,,,4,America/Guadeloupe,FALSE,1312926258
Sylvain,Sylvain,,16.4107,-61.5104,Guadeloupe,GP,GLP,,,,,,118.3,,,4,America/Guadeloupe,FALSE,1312001045
Gaspard,Gaspard,,16.2499,-61.3890,Guadeloupe,GP,GLP,,,,,,341.9,,,3,America/Guadeloupe,FALSE,1312000679
Vigo,Vigo,,15.8808,-61.2520,Guadeloupe,GP,GLP,,,,,,72.0,,,4,America/Guadeloupe,FALSE,1312000867
"L’Orée du Parc","L'Oree du Parc",,16.1962,-61.6554,Guadeloupe,GP,GLP,,,,,,190.0,,,4,America/Guadeloupe,FALSE,1312000175
Sifar,Sifar,,16.2515,-61.4830,Guadeloupe,GP,GLP,,,,,,757.2,,,3,America/Guadeloupe,FALSE,1312000903
Saint-Claude,Saint-Claude,,16.0333,-61.7000,Guadeloupe,GP,GLP,,,,,,326.0,,,3,America/Guadeloupe,FALSE,1312517545
"Bois Malher","Bois Malher",,16.1637,-61.7623,Guadeloupe,GP,GLP,,,,,,178.2,,,4,America/Guadeloupe,FALSE,1312000196
"Gros Morne","Gros Morne",,16.2167,-61.7833,Guadeloupe,GP,GLP,,,,,,106.7,,,4,America/Guadeloupe,FALSE,1312308652
"Gros Morne","Gros Morne",,15.9409,-61.2097,Guadeloupe,GP,GLP,,,,,,69.2,,,4,America/Guadeloupe,TRUE,1312000374
Decostière,Decostiere,,16.3349,-61.5055,Guadeloupe,GP,GLP,,,,,,249.2,,,3,America/Guadeloupe,FALSE,1312000488
Gascon,Gascon,,16.2905,-61.4234,Guadeloupe,GP,GLP,,,,,,278.8,,,3,America/Guadeloupe,FALSE,1312000654
"Le Bouchu","Le Bouchu",,16.0651,-61.7628,Guadeloupe,GP,GLP,,,,,,129.1,,,4,America/Guadeloupe,FALSE,1312000283
Boismorin,Boismorin,,16.4000,-61.4833,Guadeloupe,GP,GLP,,,,,,113.1,,,4,America/Guadeloupe,FALSE,1312943595
Mahaudière,Mahaudiere,,16.3217,-61.3806,Guadeloupe,GP,GLP,,,,,,278.8,,,3,America/Guadeloupe,FALSE,1312000709
Mahaudière,Mahaudiere,,16.4674,-61.5052,Guadeloupe,GP,GLP,,,,,,65.2,,,4,America/Guadeloupe,TRUE,1312116412
Mahaudière,Mahaudiere,,16.4446,-61.4264,Guadeloupe,GP,GLP,,,,,,65.2,,,4,America/Guadeloupe,TRUE,1312001106
Zévallos,Zevallos,Zévalos,16.3053,-61.3025,Guadeloupe,GP,GLP,,,,,,303.8,,,3,America/Guadeloupe,FALSE,1312898812
Rochel,Rochel,,16.2330,-61.4246,Guadeloupe,GP,GLP,,,,,,341.9,,,3,America/Guadeloupe,FALSE,1312000820
"La Jarre","La Jarre",,16.2201,-61.4840,Guadeloupe,GP,GLP,,,,,,604.6,,,3,America/Guadeloupe,FALSE,1312001034
Gampo,Gampo,,16.2425,-61.4494,Guadeloupe,GP,GLP,,,,,,588.1,,,3,America/Guadeloupe,FALSE,1312000878
"Habitation Boucaman","Habitation Boucaman",,16.2265,-61.7450,Guadeloupe,GP,GLP,,,,,,106.7,,,4,America/Guadeloupe,FALSE,1312000592
Lamentin,Lamentin,"Le Lamentin",16.2705,-61.6317,Guadeloupe,GP,GLP,,,,,,348.5,,,3,America/Guadeloupe,FALSE,1312021894
Boivin,Boivin,,16.2967,-61.3494,Guadeloupe,GP,GLP,,,,,,341.9,,,3,America/Guadeloupe,FALSE,1312857607
Télamont,Telamont,,16.2510,-61.4044,Guadeloupe,GP,GLP,,,,,,341.9,,,3,America/Guadeloupe,FALSE,1312000680
Deshauteurs,Deshauteurs,,16.2510,-61.4313,Guadeloupe,GP,GLP,,,,,,341.9,,,3,America/Guadeloupe,FALSE,1312716798
Chauvel,Chauvel,,16.2396,-61.5163,Guadeloupe,GP,GLP,,,,,,736.7,,,3,America/Guadeloupe,FALSE,1312000537
Cadet,Cadet,,16.0218,-61.7421,Guadeloupe,GP,GLP,,,,,,197.3,,,4,America/Guadeloupe,FALSE,1312000299
Cadet,Cadet,,16.2672,-61.6839,Guadeloupe,GP,GLP,,,,,,187.3,,,4,America/Guadeloupe,TRUE,1312299401
Cadet,Cadet,,15.8831,-61.2378,Guadeloupe,GP,GLP,,,,,,69.2,,,4,America/Guadeloupe,TRUE,1312483261
Calacase,Calacase,,16.0031,-61.6161,Guadeloupe,GP,GLP,,,,,,177.7,,,4,America/Guadeloupe,FALSE,1312000230
Descoudes,Descoudes,,16.1228,-61.7721,Guadeloupe,GP,GLP,,,,,,178.2,,,4,America/Guadeloupe,FALSE,1312000420
"La Treille","La Treille",,15.9002,-61.3047,Guadeloupe,GP,GLP,,,,,,95.3,,,4,America/Guadeloupe,FALSE,1312000041
Cherpin,Cherpin,,15.9794,-61.2868,Guadeloupe,GP,GLP,,,,,,41.8,,,4,America/Guadeloupe,FALSE,1312000632
Marie-Claire,Marie-Claire,,16.2783,-61.4984,Guadeloupe,GP,GLP,,,,,,757.3,,,3,America/Guadeloupe,FALSE,1312001013
"La Baie","La Baie",,16.3320,-61.3647,Guadeloupe,GP,GLP,,,,,,278.8,,,3,America/Guadeloupe,FALSE,1312000798
Tourlourous,Tourlourous,,15.8890,-61.2246,Guadeloupe,GP,GLP,,,,,,69.2,,,4,America/Guadeloupe,FALSE,1312001135
Saint-Joseph,Saint-Joseph,,16.0854,-61.7595,Guadeloupe,GP,GLP,,,,,,129.9,,,4,America/Guadeloupe,FALSE,1312000469
Geffrier,Geffrier,,16.3312,-61.4977,Guadeloupe,GP,GLP,,,,,,249.2,,,3,America/Guadeloupe,FALSE,1312001007
Beaumont,Beaumont,,16.3242,-61.4123,Guadeloupe,GP,GLP,,,,,,249.2,,,3,America/Guadeloupe,FALSE,1312000729
Castelbon,Castelbon,,16.2430,-61.6210,Guadeloupe,GP,GLP,,,,,,776.7,,,3,America/Guadeloupe,FALSE,1312000099
Pombiray,Pombiray,"De Pombiray",16.2838,-61.3040,Guadeloupe,GP,GLP,,,,,,322.2,,,3,America/Guadeloupe,FALSE,1312406842
"Gros Pierre","Gros Pierre",,15.9236,-61.2915,Guadeloupe,GP,GLP,,,,,,95.3,,,4,America/Guadeloupe,FALSE,1312000033
Sainte-Marie,Sainte-Marie,,16.2622,-61.2727,Guadeloupe,GP,GLP,,,,,,322.2,,,3,America/Guadeloupe,FALSE,1312246838
Sainte-Marie,Sainte-Marie,,16.3353,-61.4319,Guadeloupe,GP,GLP,,,,,,249.6,,,3,America/Guadeloupe,TRUE,1312000732
Sainte-Marie,Sainte-Marie,,16.3296,-61.7082,Guadeloupe,GP,GLP,,,,,,187.3,,,4,America/Guadeloupe,TRUE,1312000576
Sainte-Marie,Sainte-Marie,,16.1013,-61.5627,Guadeloupe,GP,GLP,,,,,,177.7,,,4,America/Guadeloupe,TRUE,1312743303
Desvarieux,Desvarieux,,16.2701,-61.2794,Guadeloupe,GP,GLP,,,,,,322.2,,,3,America/Guadeloupe,FALSE,1312000311
Siblet,Siblet,,15.9329,-61.3127,Guadeloupe,GP,GLP,,,,,,95.3,,,4,America/Guadeloupe,FALSE,1312519161
Demerée,Demeree,,16.3825,-61.4588,Guadeloupe,GP,GLP,,,,,,113.1,,,4,America/Guadeloupe,FALSE,1312000757
Guérard,Guerard,,16.3326,-61.5005,Guadeloupe,GP,GLP,,,,,,249.2,,,3,America/Guadeloupe,FALSE,1312000489
Catherinette,Catherinette,,15.9355,-61.2074,Guadeloupe,GP,GLP,,,,,,69.2,,,4,America/Guadeloupe,FALSE,1312000373
Verpré,Verpre,,15.9392,-61.2825,Guadeloupe,GP,GLP,,,,,,42.5,,,4,America/Guadeloupe,FALSE,1312000019
Valcine,Valcine,,16.2594,-61.7013,Guadeloupe,GP,GLP,,,,,,187.3,,,4,America/Guadeloupe,FALSE,1312000110
Mailhé,Mailhe,,16.2762,-61.6956,Guadeloupe,GP,GLP,,,,,,187.3,,,4,America/Guadeloupe,FALSE,1312000113
Conodor,Conodor,,16.2902,-61.6755,Guadeloupe,GP,GLP,,,,,,187.3,,,4,America/Guadeloupe,FALSE,1312000186
"Habitation Duquery","Habitation Duquery",,15.9742,-61.6329,Guadeloupe,GP,GLP,,,,,,275.1,,,3,America/Guadeloupe,FALSE,1312001062
"Belle Place","Belle Place",,16.2668,-61.4365,Guadeloupe,GP,GLP,,,,,,341.9,,,3,America/Guadeloupe,FALSE,1312282428
"Belle Place","Belle Place",,16.2705,-61.2485,Guadeloupe,GP,GLP,,,,,,322.2,,,3,America/Guadeloupe,TRUE,1312000871
"Fond Bernard","Fond Bernard",,16.0554,-61.6935,Guadeloupe,GP,GLP,,,,,,300.7,,,3,America/Guadeloupe,FALSE,1312000603
Vermont,Vermont,,16.3995,-61.4641,Guadeloupe,GP,GLP,,,,,,113.1,,,4,America/Guadeloupe,FALSE,1312351248
Ziotte,Ziotte,,16.3215,-61.7859,Guadeloupe,GP,GLP,,,,,,148.9,,,4,America/Guadeloupe,FALSE,1312000208
"Moulin à Eau","Moulin a Eau",,16.0343,-61.5703,Guadeloupe,GP,GLP,,,,,,177.7,,,4,America/Guadeloupe,FALSE,1312000616
Bazin,Bazin,,16.2695,-61.4964,Guadeloupe,GP,GLP,,,,,,757.3,,,3,America/Guadeloupe,FALSE,1312112108
Crapaudière,Crapaudiere,,16.1644,-61.6033,Guadeloupe,GP,GLP,,,,,,192.8,,,4,America/Guadeloupe,FALSE,1312000385
Tarare,Tarare,,16.0771,-61.7584,Guadeloupe,GP,GLP,,,,,,129.1,,,4,America/Guadeloupe,FALSE,1312000466
Rivoli,Rivoli,,15.8840,-61.2501,Guadeloupe,GP,GLP,,,,,,85.3,,,4,America/Guadeloupe,FALSE,1312000866
"Habitation Sainte-Anne","Habitation Sainte-Anne",,16.0666,-61.7344,Guadeloupe,GP,GLP,,,,,,129.1,,,4,America/Guadeloupe,FALSE,1312000364
Cacao,Cacao,,16.2379,-61.5913,Guadeloupe,GP,GLP,,,,,,692.8,,,3,America/Guadeloupe,FALSE,1312000452
Blondinière,Blondiniere,,16.0404,-61.5873,Guadeloupe,GP,GLP,,,,,,177.7,,,4,America/Guadeloupe,FALSE,1312000873
"Les Basses","Les Basses",,15.8718,-61.2843,Guadeloupe,GP,GLP,,,,,,95.3,,,4,America/Guadeloupe,FALSE,1312418634
Blonval,Blonval,,16.2544,-61.3227,Guadeloupe,GP,GLP,,,,,,322.3,,,3,America/Guadeloupe,FALSE,1312000454
Brémont,Bremont,,16.3116,-61.4407,Guadeloupe,GP,GLP,,,,,,249.2,,,3,America/Guadeloupe,FALSE,1312000735
Descostiers,Descostiers,Decostier,16.2833,-61.6500,Guadeloupe,GP,GLP,,,,,,288.7,,,3,America/Guadeloupe,FALSE,1312778823
Marie-Thérèse,Marie-Therese,,16.3124,-61.6675,Guadeloupe,GP,GLP,,,,,,187.3,,,4,America/Guadeloupe,FALSE,1312000356
Marie-Thérèse,Marie-Therese,,16.4567,-61.4506,Guadeloupe,GP,GLP,,,,,,65.2,,,4,America/Guadeloupe,TRUE,1312392438
Welch,Welch,,16.3162,-61.6510,Guadeloupe,GP,GLP,,,,,,187.3,,,4,America/Guadeloupe,FALSE,1312000357
Belloc,Belloc,,16.2997,-61.3007,Guadeloupe,GP,GLP,,,,,,322.2,,,3,America/Guadeloupe,FALSE,1312000461
Dieudonné,Dieudonne,,16.0954,-61.7482,Guadeloupe,GP,GLP,,,,,,129.1,,,4,America/Guadeloupe,FALSE,1312000257
"La Coque","La Coque",,16.2868,-61.7927,Guadeloupe,GP,GLP,,,,,,148.9,,,4,America/Guadeloupe,FALSE,1312000221
"La Moisse","La Moisse",,16.2781,-61.6632,Guadeloupe,GP,GLP,,,,,,288.7,,,3,America/Guadeloupe,FALSE,1312000190
"Grand Case","Grand Case",,15.9335,-61.2175,Guadeloupe,GP,GLP,,,,,,69.2,,,4,America/Guadeloupe,FALSE,1312091567
Calvaire,Calvaire,,16.2367,-61.6286,Guadeloupe,GP,GLP,,,,,,776.7,,,3,America/Guadeloupe,FALSE,1312000095
Calvaire,Calvaire,,16.2627,-61.3868,Guadeloupe,GP,GLP,,,,,,341.9,,,3,America/Guadeloupe,TRUE,1312136324
"Bois Jolan","Bois Jolan",,16.2392,-61.3528,Guadeloupe,GP,GLP,,,,,,341.9,,,3,America/Guadeloupe,FALSE,1312000327
"Bois Brûlé","Bois Brule",,16.0603,-61.5845,Guadeloupe,GP,GLP,,,,,,177.7,,,4,America/Guadeloupe,FALSE,1312000432
"Grand Pierre","Grand Pierre",,15.9682,-61.2894,Guadeloupe,GP,GLP,,,,,,41.8,,,4,America/Guadeloupe,FALSE,1312983479
Brie,Brie,,16.2327,-61.6741,Guadeloupe,GP,GLP,,,,,,288.7,,,3,America/Guadeloupe,FALSE,1312000415
Pierrefite,Pierrefite,,16.3256,-61.5278,Guadeloupe,GP,GLP,,,,,,249.2,,,3,America/Guadeloupe,FALSE,1312000484
Barreau,Barreau,,15.9271,-61.2014,Guadeloupe,GP,GLP,,,,,,69.2,,,4,America/Guadeloupe,FALSE,1312000549
"La Darse","La Darse",,16.3788,-61.4959,Guadeloupe,GP,GLP,,,,,,113.1,,,4,America/Guadeloupe,FALSE,1312000761
"Grand Camp","Grand Camp",,16.0045,-61.6926,Guadeloupe,GP,GLP,,,,,,361.3,,,3,America/Guadeloupe,FALSE,1312000262
L’Oseille,L'Oseille,,16.0870,-61.7314,Guadeloupe,GP,GLP,,,,,,129.1,,,4,America/Guadeloupe,FALSE,1312000258
Monnier,Monnier,,16.2460,-61.6509,Guadeloupe,GP,GLP,,,,,,288.7,,,3,America/Guadeloupe,FALSE,1312000064
Baillif,Baillif,"Le Baillif",16.0204,-61.7461,Guadeloupe,GP,GLP,,,,,,197.3,,,4,America/Guadeloupe,FALSE,1312017826
"Pont Canal","Pont Canal",,16.3193,-61.7009,Guadeloupe,GP,GLP,,,,,,187.3,,,4,America/Guadeloupe,FALSE,1312000574
Botreau,Botreau,,15.9356,-61.2566,Guadeloupe,GP,GLP,,,,,,66.8,,,4,America/Guadeloupe,FALSE,1312000367
Terrasson,Terrasson,,16.2504,-61.5018,Guadeloupe,GP,GLP,,,,,,757.3,,,3,America/Guadeloupe,FALSE,1312000932
