city,city_ascii,city_alt,lat,lng,country,iso2,iso3,admin_name,admin_name_ascii,admin_code,admin_type,capital,density,population,population_proper,ranking,timezone,same_name,id
Port-au-Prince,Port-au-Prince,"Ville de Port-au-Prince|Pòtoprens",18.5333,-72.3333,Haiti,HT,HTI,Ouest,Ouest,HT-OU,department,primary,27395.0,987310,987310,1,America/Port-au-Prince,FALSE,1332401940
Carrefour,Carrefour,Kafou,18.5344,-72.4094,Haiti,HT,HTI,Ouest,Ouest,HT-OU,department,,3096.1,511345,511345,2,America/Port-au-Prince,FALSE,1332000098
Pétion-Ville,Petion-Ville,"Pétionville|Ville de Pétion-Ville|Petyon-Vil",18.5128,-72.2864,Haiti,HT,HTI,Ouest,Ouest,HT-OU,department,,2173.0,359615,359615,2,America/Port-au-Prince,FALSE,1332051873
Gonaïves,Gonaives,"Ville des Gonaïves|Gonayiv",19.4456,-72.6883,Haiti,HT,HTI,Artibonite,Artibonite,HT-AR,department,admin,564.9,324043,324043,2,America/Port-au-Prince,FALSE,1332384588
Croix-des-Bouquets,Croix-des-Bouquets,"Croix des Bouquets",18.5761,-72.2269,Haiti,HT,HTI,Ouest,Ouest,HT-OU,department,,4657.1,284812,284812,2,America/Port-au-Prince,FALSE,1332000065
Delmas,Delmas,Dèlma,18.5500,-72.3000,Haiti,HT,HTI,Ouest,Ouest,HT-OU,department,,10240.8,284079,284079,2,America/Port-au-Prince,FALSE,1332257532
Cap-Haïtien,Cap-Haitien,"Ville du Cap-Haitien|Cape Haytien|Guárico|Le Cap|Cap-Français|Cape Haitien|Okap",19.7600,-72.2000,Haiti,HT,HTI,Nord,Nord,HT-ND,department,admin,3556.8,190289,190289,2,America/Port-au-Prince,FALSE,1332333795
"Petite Rivière de l’Artibonite","Petite Riviere de l'Artibonite","Ville de Petite Rivière de l’Artibonite|La Petite Riviere|Ti Rivyè Latibonit",19.1333,-72.4833,Haiti,HT,HTI,Artibonite,Artibonite,HT-AR,department,,1188.0,170740,170740,2,America/Port-au-Prince,FALSE,1332451568
Saint-Marc,Saint-Marc,"Sen Mak",19.1167,-72.7000,Haiti,HT,HTI,Artibonite,Artibonite,HT-AR,department,,321.9,160181,160181,2,America/Port-au-Prince,FALSE,1332084366
Jean-Rabel,Jean-Rabel,"Ville de Jean Rabel|Jan Rabèl",19.8500,-73.2000,Haiti,HT,HTI,Nord-Ouest,Nord-Ouest,HT-NO,department,,304.0,148416,148416,2,America/Port-au-Prince,FALSE,1332096865
Jacmel,Jacmel,Jakmèl,18.2353,-72.5367,Haiti,HT,HTI,Sud-Est,Sud-Est,HT-SE,department,admin,1182.5,137966,137966,2,America/Port-au-Prince,FALSE,1332314393
Arcahaie,Arcahaie,"Ville de l’Arcahaie|Archaie|L’Arcahaie|Akayè",18.7667,-72.5167,Haiti,HT,HTI,Ouest,Ouest,HT-OU,department,,319.0,130306,130306,2,America/Port-au-Prince,FALSE,1332347269
Tabarre,Tabarre,Taba,18.5833,-72.2667,Haiti,HT,HTI,Ouest,Ouest,HT-OU,department,,5324.0,130283,130283,2,America/Port-au-Prince,FALSE,1332354236
Dessalines,Dessalines,Marchand|Desalin,19.2833,-72.5000,Haiti,HT,HTI,Artibonite,Artibonite,HT-AR,department,,278.0,127529,127529,2,America/Port-au-Prince,FALSE,1332184774
Port-de-Paix,Port-de-Paix,"Port Paix|Valparaiso|Pòdpè",19.9500,-72.8333,Haiti,HT,HTI,Nord-Ouest,Nord-Ouest,HT-NO,department,admin,368.0,121220,121220,2,America/Port-au-Prince,FALSE,1332536650
Aquin,Aquin,Aken,18.2833,-73.4000,Haiti,HT,HTI,Sud,Sud,HT-SD,department,,163.0,104216,104216,2,America/Port-au-Prince,FALSE,1332922439
Hinche,Hinche,Ench,19.1500,-72.0167,Haiti,HT,HTI,Centre,Centre,HT-CE,department,admin,172.3,102745,102745,2,America/Port-au-Prince,FALSE,1332748356
"Saint-Michel de l’Atalaye","Saint-Michel de l'Atalaye","Saint Michel de L’Attaiaye|Saint Michel|Ville de Saint Michel|Sen Michèl Latalay",19.3667,-72.3333,Haiti,HT,HTI,Artibonite,Artibonite,HT-AR,department,,515.0,95216,95216,3,America/Port-au-Prince,FALSE,1332572826
Léogâne,Leogane,"Ville de Léogane|Yaguana|Leyogàn",18.5108,-72.6339,Haiti,HT,HTI,Ouest,Ouest,HT-OU,department,,5513.7,90000,90000,2,America/Port-au-Prince,FALSE,1332045113
"Les Cayes","Les Cayes","Cayes|Aux Cayes|Ville des Cayes|Okay",18.2000,-73.7500,Haiti,HT,HTI,Sud,Sud,HT-SD,department,admin,1640.6,86780,86780,2,America/Port-au-Prince,FALSE,1332587854
Ganthier,Ganthier,Gantier|Gantye,18.5333,-72.0667,Haiti,HT,HTI,Ouest,Ouest,HT-OU,department,,144.3,71261,71261,3,America/Port-au-Prince,FALSE,1332549888
"Saint-Louis du Nord","Saint-Louis du Nord","Saint Louis|Sen Lwi di Nò",19.9333,-72.7167,Haiti,HT,HTI,Nord-Ouest,Nord-Ouest,HT-NO,department,,4186.0,69592,69592,2,America/Port-au-Prince,FALSE,1332427646
Limonade,Limonade,Limonad,19.6667,-72.1167,Haiti,HT,HTI,Nord,Nord,HT-ND,department,,989.6,69256,69256,3,America/Port-au-Prince,FALSE,1332450528
Limbé,Limbe,"Le Limbe|Ville de Limbé|Lenbe",19.7056,-72.4147,Haiti,HT,HTI,Nord,Nord,HT-ND,department,,8319.8,69256,69256,2,America/Port-au-Prince,FALSE,1332168406
Torbeck,Torbeck,Tòbèk,18.1667,-73.8167,Haiti,HT,HTI,Sud,Sud,HT-SD,department,,795.3,69189,69189,3,America/Port-au-Prince,FALSE,1332470480
"Anse à Galets","Anse a Galets","Anse à Galet|Anse Galets|Ansagalè",18.8333,-72.8667,Haiti,HT,HTI,Ouest,Ouest,HT-OU,department,,168.0,62559,62559,3,America/Port-au-Prince,FALSE,1332098898
Bainet,Bainet,Benè,18.1833,-72.7500,Haiti,HT,HTI,Sud-Est,Sud-Est,HT-SE,department,,356.5,62300,62300,3,America/Port-au-Prince,FALSE,1332091731
Cabaret,Cabaret,Prince|Duvalierville|Kabarè,18.7333,-72.4167,Haiti,HT,HTI,Ouest,Ouest,HT-OU,department,,293.2,62063,62063,3,America/Port-au-Prince,FALSE,1332584199
Belladère,Belladere,Balladere|Veladero|Beladè,18.8667,-71.7667,Haiti,HT,HTI,Centre,Centre,HT-CE,department,,203.1,60239,60239,3,America/Port-au-Prince,FALSE,1332473025
"Saint-Louis du Sud","Saint-Louis du Sud","Saint Louis|Sen Lwi di Sid",18.2667,-73.5500,Haiti,HT,HTI,Sud,Sud,HT-SD,department,,670.9,59042,59042,3,America/Port-au-Prince,FALSE,1332867263
Miragoâne,Miragoane,Miragwàn,18.4458,-73.0900,Haiti,HT,HTI,Nippes,Nippes,HT-NI,department,admin,305.9,56864,56864,2,America/Port-au-Prince,FALSE,1332665283
"Acul du Nord","Acul du Nord","Akil di Nò",19.6833,-72.3167,Haiti,HT,HTI,Nord,Nord,HT-ND,department,,300.0,55908,55908,3,America/Port-au-Prince,FALSE,1332452359
Cornillon,Cornillon,"Grands Bois|Kòniyon",18.6667,-71.9500,Haiti,HT,HTI,Ouest,Ouest,HT-OU,department,,242.9,54254,54254,3,America/Port-au-Prince,FALSE,1332866584
Thomazeau,Thomazeau,Tomazo,18.6500,-72.1000,Haiti,HT,HTI,Ouest,Ouest,HT-OU,department,,177.5,52017,52017,3,America/Port-au-Prince,FALSE,1332648470
Belle-Anse,Belle-Anse,Saltrou|Belans,18.2333,-72.0667,Haiti,HT,HTI,Sud-Est,Sud-Est,HT-SE,department,,385.5,51707,51707,3,America/Port-au-Prince,FALSE,1332150277
"Cerca la Source","Cerca la Source","La Source|Ville de Cerca la Source|Sèka Lasous",19.1667,-71.7833,Haiti,HT,HTI,Centre,Centre,HT-CE,department,,231.3,51410,51410,3,America/Port-au-Prince,FALSE,1332542335
Marigot,Marigot,Marigo,18.2333,-72.3167,Haiti,HT,HTI,Sud-Est,Sud-Est,HT-SE,department,,909.8,50734,50734,3,America/Port-au-Prince,FALSE,1332275185
"Bas Limbé","Bas Limbe","Anba Lenbe",19.8000,-72.3833,Haiti,HT,HTI,Nord,Nord,HT-ND,department,,602.4,50456,50456,3,America/Port-au-Prince,FALSE,1332588396
Plaisance,Plaisance,Plezans,19.6000,-72.4667,Haiti,HT,HTI,Nord,Nord,HT-ND,department,,1938.2,50367,50367,3,America/Port-au-Prince,FALSE,1332601700
Verrettes,Verrettes,"Les Verrettes|Vèrèt|Les Verettes",19.0500,-72.4667,Haiti,HT,HTI,Artibonite,Artibonite,HT-AR,department,,457.3,48724,48724,3,America/Port-au-Prince,FALSE,1332111444
"Boucan Carré","Boucan Carre","Boukan Kare",18.9667,-72.2000,Haiti,HT,HTI,Centre,Centre,HT-CE,department,,1.4,48700,48700,3,America/Port-au-Prince,FALSE,1332163231
Borgne,Borgne,"Ville du Borgne|Le Borgne|Le Rorgne|La Borgne|Obòy",19.8500,-72.5333,Haiti,HT,HTI,Nord,Nord,HT-ND,department,,552.9,46886,46886,3,America/Port-au-Prince,FALSE,1332215529
Cavaillon,Cavaillon,Kavayon|Cauaillon|Cavailon,18.3000,-73.6500,Haiti,HT,HTI,Sud,Sud,HT-SD,department,,312.2,46037,46037,3,America/Port-au-Prince,FALSE,1332637613
"Camp Perrin","Camp Perrin","Kan Peren",18.3167,-73.8667,Haiti,HT,HTI,Sud,Sud,HT-SD,department,,382.6,46000,46000,3,America/Port-au-Prince,FALSE,1332737224
Casale,Casale,Cazales|Cazale,18.7990,-72.3854,Haiti,HT,HTI,Ouest,Ouest,HT-OU,department,,37.9,43943,43943,3,America/Port-au-Prince,FALSE,1332190060
"Anse Rouge","Anse Rouge","Ville de l’Anse Rouge|Answouj",19.6333,-73.0500,Haiti,HT,HTI,Artibonite,Artibonite,HT-AR,department,,100.0,43395,43395,3,America/Port-au-Prince,FALSE,1332665513
Maïssade,Maissade,Mayisad,19.1667,-72.1333,Haiti,HT,HTI,Centre,Centre,HT-CE,department,,400.0,43138,43138,3,America/Port-au-Prince,FALSE,1332767571
Thomassique,Thomassique,Tomasik,19.0833,-71.8333,Haiti,HT,HTI,Centre,Centre,HT-CE,department,,275.3,42557,42557,3,America/Port-au-Prince,FALSE,1332374782
Pilate,Pilate,Pilat,19.6667,-72.5500,Haiti,HT,HTI,Nord,Nord,HT-ND,department,,1172.5,40445,40445,3,America/Port-au-Prince,FALSE,1332272986
"Fonds Verrettes","Fonds Verrettes","Fonds Verettes|Fond Verrettes|La Mission|Fon Vèrèt",18.3833,-71.8500,Haiti,HT,HTI,Ouest,Ouest,HT-OU,department,,139.6,40224,40224,3,America/Port-au-Prince,FALSE,1332183174
L’Asile,L'Asile,"Ville de l’Asile|Asile|Lazil",18.3833,-73.4167,Haiti,HT,HTI,Nippes,Nippes,HT-NI,department,,260.0,40000,40000,3,America/Port-au-Prince,FALSE,1332348189
"Les Abricots","Les Abricots","Abricots|Abricot|Ville de Apricots|Abriko",18.6333,-74.3000,Haiti,HT,HTI,Grand’Anse,Grand'Anse,HT-GA,department,,366.0,37675,37675,3,America/Port-au-Prince,FALSE,1332706374
"Trou du Nord","Trou du Nord","Le Trou|Trou|Trou di Nò",19.6333,-72.0167,Haiti,HT,HTI,Nord-Est,Nord-Est,HT-NE,department,,373.5,37405,37405,3,America/Port-au-Prince,FALSE,1332162005
Port-Margot,Port-Margot,"Port Margot|Pò Mago",19.7500,-72.4333,Haiti,HT,HTI,Nord,Nord,HT-ND,department,,3189.1,36937,36937,2,America/Port-au-Prince,FALSE,1332999568
"Anse d’Hainault","Anse d'Hainault","Ville de Anse d’Hainault|Ansdeno",18.5000,-74.4500,Haiti,HT,HTI,Grand’Anse,Grand'Anse,HT-GA,department,,387.0,36401,36401,3,America/Port-au-Prince,FALSE,1332108128
"La Vallée de Jacmel","La Vallee de Jacmel","La Vallée|Lavale Jakmèl",18.2667,-72.6667,Haiti,HT,HTI,Sud-Est,Sud-Est,HT-SE,department,,212.0,36188,36188,3,America/Port-au-Prince,FALSE,1332561469
"Petit-Trou de Nippes","Petit-Trou de Nippes","Petit Trou|Petit Trou de Nippes|Ti Twou de Nip",18.5333,-73.5167,Haiti,HT,HTI,Nippes,Nippes,HT-NI,department,,266.5,36143,36143,3,America/Port-au-Prince,FALSE,1332845900
Pestel,Pestel,Pestèl|Pestal,18.5333,-73.8000,Haiti,HT,HTI,Grand’Anse,Grand'Anse,HT-GA,department,,630.5,36138,36138,3,America/Port-au-Prince,FALSE,1332521684
Bombardopolis,Bombardopolis,"Ville de Bombardopolis|Bonbadopolis",19.7000,-73.3333,Haiti,HT,HTI,Nord-Ouest,Nord-Ouest,HT-NO,department,,183.0,36028,36028,3,America/Port-au-Prince,FALSE,1332445868
"Ville Bonheur","Ville Bonheur","Saut d’Eau de Ville Bonheur|Saut d’Eau",18.8167,-72.2000,Haiti,HT,HTI,Centre,Centre,HT-CE,department,,365.5,34885,34885,3,America/Port-au-Prince,FALSE,1332904368
Anse-à-Veau,Anse-a-Veau,"Ville de Anse à Veau|Ansavo",18.5167,-73.3500,Haiti,HT,HTI,Nippes,Nippes,HT-NI,department,,335.0,34613,34613,3,America/Port-au-Prince,FALSE,1332029379
"Fort Liberté","Fort Liberte","Ville de Fort Liberté|Fort-Dauphin|Fòlibète",19.6678,-71.8397,Haiti,HT,HTI,Nord-Est,Nord-Est,HT-NE,department,admin,143.3,34434,34434,2,America/Port-au-Prince,FALSE,1332603160
"Bassin Bleu","Bassin Bleu","Basen Ble",19.7833,-72.8000,Haiti,HT,HTI,Nord-Ouest,Nord-Ouest,HT-NO,department,,234.8,33926,33926,3,America/Port-au-Prince,TRUE,1332244969
"Côtes de Fer","Cotes de Fer","Cote de Fer|Côtes-de-Fer|Kotdefè",18.1833,-73.0000,Haiti,HT,HTI,Sud-Est,Sud-Est,HT-SE,department,,276.1,33577,33577,3,America/Port-au-Prince,FALSE,1332390901
Saintard,Saintard,,18.8240,-72.5500,Haiti,HT,HTI,Ouest,Ouest,HT-OU,department,,2781.6,32906,32906,2,America/Port-au-Prince,FALSE,1332903429
Milot,Milot,Milo,19.6047,-72.2186,Haiti,HT,HTI,Nord,Nord,HT-ND,department,,1367.4,31992,31992,3,America/Port-au-Prince,FALSE,1332342808
Baradères,Baraderes,Baradaires|Baradè,18.4825,-73.6386,Haiti,HT,HTI,Nippes,Nippes,HT-NI,department,,219.4,31689,31689,3,America/Port-au-Prince,FALSE,1332944244
Ennery,Ennery,Ennri,19.4833,-72.4833,Haiti,HT,HTI,Artibonite,Artibonite,HT-AR,department,,370.7,31285,31285,3,America/Port-au-Prince,FALSE,1332338598
Chantal,Chantal,Chantal,18.2000,-73.8833,Haiti,HT,HTI,Sud,Sud,HT-SD,department,,392.1,31030,31030,3,America/Port-au-Prince,FALSE,1332205204
Jérémie,Jeremie,Jeremi,18.6500,-74.1167,Haiti,HT,HTI,Grand’Anse,Grand'Anse,HT-GA,department,admin,865.7,30917,30917,2,America/Port-au-Prince,FALSE,1332612037
Anse-à-Foleur,Anse-a-Foleur,"Ville de Anse à Foleur|Anse à Foleur",19.9000,-72.6167,Haiti,HT,HTI,Nord-Ouest,Nord-Ouest,HT-NO,department,,486.0,30217,30217,3,America/Port-au-Prince,FALSE,1332252871
"Anse à Pitre","Anse a Pitre","Anse à Pîtres|Anse-à-Pitres|Anses-a-Pîtres|Anse Pitres|Anse-à-Pitre|Anses à Pitre|Ansapit",18.0500,-71.7500,Haiti,HT,HTI,Sud-Est,Sud-Est,HT-SE,department,,163.0,30146,30146,3,America/Port-au-Prince,FALSE,1332458305
"Les Palmes","Les Palmes",,18.3333,-72.8500,Haiti,HT,HTI,Sud-Est,Sud-Est,HT-SE,department,,154.1,30000,30000,3,America/Port-au-Prince,FALSE,1332456322
"Petite Rivière de Nippes","Petite Riviere de Nippes","Ville de Petite Rivière",18.4833,-73.2500,Haiti,HT,HTI,Nippes,Nippes,HT-NI,department,,413.4,29815,29815,3,America/Port-au-Prince,FALSE,1332459442
Savanette,Savanette,,18.6833,-72.0500,Haiti,HT,HTI,Ouest,Ouest,HT-OU,department,,147.8,29717,29717,3,America/Port-au-Prince,FALSE,1332721450
Pignon,Pignon,Dignon|Piyon,19.3333,-72.1167,Haiti,HT,HTI,Nord,Nord,HT-ND,department,,624.5,29327,29327,3,America/Port-au-Prince,FALSE,1332052953
"La Source","La Source",,18.1500,-73.8833,Haiti,HT,HTI,Sud,Sud,HT-SD,department,,492.0,29180,29180,3,America/Port-au-Prince,FALSE,1332280307
Arniquet,Arniquet,,18.1500,-73.8833,Haiti,HT,HTI,Sud,Sud,HT-SD,department,,492.0,29180,29180,3,America/Port-au-Prince,FALSE,1332082768
Roseaux,Roseaux,,18.6000,-74.0167,Haiti,HT,HTI,Grand’Anse,Grand'Anse,HT-GA,department,,239.1,28811,28811,3,America/Port-au-Prince,FALSE,1332874884
"Plaine du Nord","Plaine du Nord","Plèn di Nò",19.6833,-72.2667,Haiti,HT,HTI,Nord,Nord,HT-ND,department,,755.3,28544,28544,3,America/Port-au-Prince,FALSE,1332818460
"Les Anglais","Les Anglais","Ville des Anglais|Anglais|Lèzanglè",18.3000,-74.2167,Haiti,HT,HTI,Sud,Sud,HT-SD,department,,465.7,27182,27182,3,America/Port-au-Prince,FALSE,1332210562
Dame-Marie,Dame-Marie,"Ville de Dame Marie|Dam Mari",18.5667,-74.4167,Haiti,HT,HTI,Grand’Anse,Grand'Anse,HT-GA,department,,908.5,27127,27127,3,America/Port-au-Prince,FALSE,1332046251
Gressier,Gressier,,18.5500,-72.5167,Haiti,HT,HTI,Ouest,Ouest,HT-OU,department,,288.9,25947,25947,3,America/Port-au-Prince,FALSE,1332282683
Dondon,Dondon,,19.5333,-72.2333,Haiti,HT,HTI,Nord,Nord,HT-ND,department,,854.1,25846,25846,3,America/Port-au-Prince,FALSE,1332640840
Chardonnières,Chardonnieres,"Ville de Chardonnière|Chardonnière",18.2667,-74.1667,Haiti,HT,HTI,Sud,Sud,HT-SD,department,,216.0,25240,25240,3,America/Port-au-Prince,FALSE,1332544802
"Mombin Crochu","Mombin Crochu","Momben Kwochi",19.3667,-71.9833,Haiti,HT,HTI,Nord-Est,Nord-Est,HT-NE,department,,251.5,25113,25113,3,America/Port-au-Prince,FALSE,1332692300
Moron,Moron,"Ville de Moron|Bourg de Moron|Monwon",18.5600,-74.2579,Haiti,HT,HTI,Grand’Anse,Grand'Anse,HT-GA,department,,618.3,24713,24713,3,America/Port-au-Prince,FALSE,1332216244
"Les Irois","Les Irois",Irois|Lèziwa,18.4000,-74.4500,Haiti,HT,HTI,Grand’Anse,Grand'Anse,HT-GA,department,,225.1,24374,24374,3,America/Port-au-Prince,FALSE,1332919321
Thiotte,Thiotte,Thiote|Caï-Tiot|Tiote|Tyòt,18.2500,-71.8500,Haiti,HT,HTI,Sud-Est,Sud-Est,HT-SE,department,,605.8,23041,23041,3,America/Port-au-Prince,FALSE,1332831508
"Pointe à Raquettes","Pointe a Raquettes","La Mahotière|Pointe ã Raquette|Pointe à Raquette",18.7833,-73.0667,Haiti,HT,HTI,Ouest,Ouest,HT-OU,department,,72.4,22886,22886,3,America/Port-au-Prince,FALSE,1332151637
Corail,Corail,Koray,18.5667,-73.8833,Haiti,HT,HTI,Grand’Anse,Grand'Anse,HT-GA,department,,260.1,22021,22021,3,America/Port-au-Prince,FALSE,1332320384
Maniche,Maniche,Moniche|Manich,18.3500,-73.7667,Haiti,HT,HTI,Sud,Sud,HT-SD,department,,326.6,21766,21766,3,America/Port-au-Prince,FALSE,1332014296
Sainte-Suzanne,Sainte-Suzanne,"Sent Sizàn",19.5833,-72.0833,Haiti,HT,HTI,Nord-Est,Nord-Est,HT-NE,department,,249.0,21617,21617,3,America/Port-au-Prince,FALSE,1332623138
"Terrier Rouge","Terrier Rouge","Tèrye Wouj",19.6333,-71.9500,Haiti,HT,HTI,Nord-Est,Nord-Est,HT-NE,department,,181.8,21328,21328,3,America/Port-au-Prince,FALSE,1332922844
Tiburon,Tiburon,Tibiwon,18.3333,-74.4000,Haiti,HT,HTI,Sud,Sud,HT-SD,department,,137.47,21170,21170,3,America/Port-au-Prince,FALSE,1332432700
Arnaud,Arnaud,Ano,18.4500,-73.3833,Haiti,HT,HTI,Nippes,Nippes,HT-NI,department,,268.0,20718,20718,3,America/Port-au-Prince,FALSE,1332859176
"Les Côteaux","Les Coteaux","Coteaux|Coteau|Les Coteaux|Koto",18.2000,-74.0333,Haiti,HT,HTI,Sud,Sud,HT-SD,department,,493.1,19372,19372,3,America/Port-au-Prince,FALSE,1332769679
"Quartier Morin","Quartier Morin","Qartier-Morin|Ville de Quartier Morin|Katye Moren",19.7000,-72.1500,Haiti,HT,HTI,Nord,Nord,HT-ND,department,,607.4,19241,19241,3,America/Port-au-Prince,FALSE,1332258724
"Fond des Blancs","Fond des Blancs",,18.2833,-73.1333,Haiti,HT,HTI,Sud,Sud,HT-SD,department,,113.2,19010,19010,3,America/Port-au-Prince,FALSE,1332189993
Liancourt,Liancourt,"Chapelle Liancourt",19.1356,-72.5333,Haiti,HT,HTI,Artibonite,Artibonite,HT-AR,department,,1492.9,18574,18574,3,America/Port-au-Prince,FALSE,1332300804
Montrouis,Montrouis,,18.9506,-72.7044,Haiti,HT,HTI,Ouest,Ouest,HT-OU,department,,392.5,18419,18419,3,America/Port-au-Prince,FALSE,1332947082
Ranquitte,Ranquitte,Ranquite|Rankit,19.4167,-72.0833,Haiti,HT,HTI,Nord,Nord,HT-ND,department,,544.8,18197,18197,3,America/Port-au-Prince,FALSE,1332218380
Chapelle,Chapelle,,19.4167,-72.5500,Haiti,HT,HTI,Artibonite,Artibonite,HT-AR,department,,142.8,18092,18092,3,America/Port-au-Prince,FALSE,1332599769
"Cerca Carvajal","Cerca Carvajal","Sèka Kavajal",19.2667,-71.9500,Haiti,HT,HTI,Centre,Centre,HT-CE,department,,112.9,17571,17571,3,America/Port-au-Prince,FALSE,1332505200
Vallières,Vallieres,Valyè|Vallière,19.4333,-71.9167,Haiti,HT,HTI,Nord-Est,Nord-Est,HT-NE,department,,162.6,17470,17470,3,America/Port-au-Prince,FALSE,1332923713
Bahon,Bahon,Bohon|Bawon,19.4696,-72.1147,Haiti,HT,HTI,Nord,Nord,HT-ND,department,,316.7,17417,17417,3,America/Port-au-Prince,FALSE,1332943637
"Baie de Henne","Baie de Henne","Henne|Henne Bay|Baie de Haine|Be de Èn",19.6667,-73.2000,Haiti,HT,HTI,Nord-Ouest,Nord-Ouest,HT-NO,department,,122.7,17277,17277,3,America/Port-au-Prince,FALSE,1332831627
Port-à-Piment,Port-a-Piment,"Port Piment|Pòtapiman",18.2500,-74.1000,Haiti,HT,HTI,Sud,Sud,HT-SD,department,,257.98,17207,17207,3,America/Port-au-Prince,FALSE,1332528731
Mont-Organisé,Mont-Organise,"Mont Organisé|Lassalle|Montòrganize",19.4000,-71.7833,Haiti,HT,HTI,Nord-Est,Nord-Est,HT-NE,department,,102.0,17189,17189,3,America/Port-au-Prince,FALSE,1332250944
"Terre Neuve","Terre Neuve",Tènèv,19.6000,-72.7833,Haiti,HT,HTI,Artibonite,Artibonite,HT-AR,department,,182.0,17045,17045,3,America/Port-au-Prince,FALSE,1332504723
Chambellan,Chambellan,Chanbèlan,18.5667,-74.3167,Haiti,HT,HTI,Grand’Anse,Grand'Anse,HT-GA,department,,573.7,16883,16883,3,America/Port-au-Prince,FALSE,1332814208
Laferrière,Laferriere,,18.5667,-74.3167,Haiti,HT,HTI,Grand’Anse,Grand'Anse,HT-GA,department,,323.3,16883,16883,3,America/Port-au-Prince,FALSE,1332767477
Roche-à-Bateau,Roche-a-Bateau,"Roche a Bateaux|Wòchabato",18.1833,-74.0000,Haiti,HT,HTI,Sud,Sud,HT-SD,department,,460.3,16727,16727,3,America/Port-au-Prince,FALSE,1332821683
Capotille,Capotille,Kapotiy,19.4500,-71.7000,Haiti,HT,HTI,Nord-Est,Nord-Est,HT-NE,department,,408.8,15086,15086,3,America/Port-au-Prince,FALSE,1332991129
"Grande Saline","Grande Saline","Grand Saline|Ville de Grande Saline",19.2500,-72.7833,Haiti,HT,HTI,Artibonite,Artibonite,HT-AR,department,,473.4,14940,14940,3,America/Port-au-Prince,FALSE,1332897755
Ferrier,Ferrier,Ferié|Fèrye,19.6167,-71.7833,Haiti,HT,HTI,Nord-Est,Nord-Est,HT-NE,department,,209.2,14642,14642,3,America/Port-au-Prince,FALSE,1332033044
Beaumont,Beaumont,,18.4833,-73.9667,Haiti,HT,HTI,Grand’Anse,Grand'Anse,HT-GA,department,,145.2,12486,12486,3,America/Port-au-Prince,TRUE,1332335707
Petit-Goâve,Petit-Goave,"Ville de Petit Goâve|Petit Goâve|Tigwav",18.4314,-72.8669,Haiti,HT,HTI,Ouest,Ouest,HT-OU,department,,7996.0,12000,12000,2,America/Port-au-Prince,FALSE,1332487207
Perches,Perches,Pèch,19.5167,-71.9167,Haiti,HT,HTI,Nord-Est,Nord-Est,HT-NE,department,,291.5,11556,11556,3,America/Port-au-Prince,FALSE,1332584583
"Grand Gosier","Grand Gosier","Grande Gosier|Gran Gozye",18.1833,-71.9167,Haiti,HT,HTI,Sud-Est,Sud-Est,HT-SE,department,,237.7,10852,10852,3,America/Port-au-Prince,FALSE,1332068080
Carice,Carice,Karis,19.3833,-71.8333,Haiti,HT,HTI,Nord-Est,Nord-Est,HT-NE,department,,88.5,10180,10180,3,America/Port-au-Prince,FALSE,1332044879
"Pont Sondé","Pont Sonde",Lafond,19.1493,-72.6147,Haiti,HT,HTI,Artibonite,Artibonite,HT-AR,department,,367.7,10000,10000,3,America/Port-au-Prince,FALSE,1332034051
"La Pointe","La Pointe",,19.9500,-72.7833,Haiti,HT,HTI,Nord-Ouest,Nord-Ouest,HT-NO,department,,4795.3,9930,9930,2,America/Port-au-Prince,FALSE,1332411349
Chansolme,Chansolme,Chansolm|Chansòl,19.8833,-72.8333,Haiti,HT,HTI,Nord-Ouest,Nord-Ouest,HT-NO,department,,556.2,9561,9561,3,America/Port-au-Prince,FALSE,1332378565
"Anse du Clerc","Anse du Clerc",,18.6475,-74.2786,Haiti,HT,HTI,Grand’Anse,Grand'Anse,HT-GA,department,,411.0,8363,8363,3,America/Port-au-Prince,FALSE,1332409880
Zanglais,Zanglais,,18.2667,-73.4500,Haiti,HT,HTI,Sud,Sud,HT-SD,department,,396.2,7860,7860,3,America/Port-au-Prince,FALSE,1332178196
"Gros Morne","Gros Morne",Gromòn,19.6667,-72.6833,Haiti,HT,HTI,Artibonite,Artibonite,HT-AR,department,,1593.9,7294,7294,3,America/Port-au-Prince,FALSE,1332816037
Bonbon,Bonbon,"Trou Bonbon",18.6667,-74.2500,Haiti,HT,HTI,Grand’Anse,Grand'Anse,HT-GA,department,,299.8,6754,6754,3,America/Port-au-Prince,FALSE,1332740594
"La Victoire","La Victoire","La Viktwa",19.3333,-72.0333,Haiti,HT,HTI,Nord,Nord,HT-ND,department,,489.5,6421,6421,3,America/Port-au-Prince,FALSE,1332995557
Caracol,Caracol,Karakòl,19.6928,-72.0181,Haiti,HT,HTI,Nord-Est,Nord-Est,HT-NE,department,,213.9,6236,6236,3,America/Port-au-Prince,FALSE,1332059317
Kenscoff,Kenscoff,Kenskoff|Kenskòf,18.4500,-72.2833,Haiti,HT,HTI,Ouest,Ouest,HT-OU,department,,19.7,4000,4000,3,America/Port-au-Prince,FALSE,1332103574
Thomonde,Thomonde,Tomond,19.0167,-71.9667,Haiti,HT,HTI,Centre,Centre,HT-CE,department,,263.3,3784,3784,3,America/Port-au-Prince,FALSE,1332689814
"Vieux Bourg d’Aquin","Vieux Bourg d'Aquin","Vieux Bourg d’Aguin|Vieux Bourg",18.2989,-73.3428,Haiti,HT,HTI,Sud,Sud,HT-SD,department,,378.4,3162,3162,3,America/Port-au-Prince,FALSE,1332762265
L’Estère,L'Estere,"Pont l’Estère|Pont l’Estere|Pont de l’Estère|Lestè",19.3333,-72.6667,Haiti,HT,HTI,Artibonite,Artibonite,HT-AR,department,,351.4,3000,3000,3,America/Port-au-Prince,FALSE,1332302265
Baptiste,Baptiste,,18.8000,-71.7833,Haiti,HT,HTI,Centre,Centre,HT-CE,department,,424.5,2783,2783,3,America/Port-au-Prince,FALSE,1332883381
Phaëton,Phaeton,Phaéton,19.6742,-71.8972,Haiti,HT,HTI,Nord-Est,Nord-Est,HT-NE,department,,181.8,2500,2500,4,America/Port-au-Prince,FALSE,1332261496
Port-Salut,Port-Salut,"Pò Sali",18.0667,-73.9167,Haiti,HT,HTI,Sud,Sud,HT-SD,department,,664.0,1911,1911,3,America/Port-au-Prince,FALSE,1332586042
"Saint-Jean du Sud","Saint-Jean du Sud","Saint-Jean|Etronc-de-Porc|Sen Jan di Sid",18.0753,-73.8150,Haiti,HT,HTI,Sud,Sud,HT-SD,department,,440.9,939,939,3,America/Port-au-Prince,FALSE,1332457413
Gala,Gala,,18.3500,-73.8167,Haiti,HT,HTI,Sud,Sud,HT-SD,department,,305.8,,,3,America/Port-au-Prince,FALSE,1332624899
Ben,Ben,,19.5667,-72.0667,Haiti,HT,HTI,Nord-Est,Nord-Est,HT-NE,department,,455.6,,,3,America/Port-au-Prince,FALSE,1332382334
"Morne Cannel","Morne Cannel",,19.4833,-72.5667,Haiti,HT,HTI,Artibonite,Artibonite,HT-AR,department,,142.8,,,4,America/Port-au-Prince,FALSE,1332626185
"Bois Geneste","Bois Geneste",,18.4872,-74.0145,Haiti,HT,HTI,Grand’Anse,Grand'Anse,HT-GA,department,,11.6,,,4,America/Port-au-Prince,FALSE,1332942771
Latibolière,Latiboliere,,18.5957,-74.1376,Haiti,HT,HTI,Grand’Anse,Grand'Anse,HT-GA,department,,398.6,,,3,America/Port-au-Prince,FALSE,1332001102
Merger,Merger,,18.3167,-73.5667,Haiti,HT,HTI,Sud,Sud,HT-SD,department,,339.3,,,3,America/Port-au-Prince,FALSE,1332261983
"Bois Coupet","Bois Coupet",,18.4833,-72.1500,Haiti,HT,HTI,Ouest,Ouest,HT-OU,department,,56.4,,,4,America/Port-au-Prince,FALSE,1332234980
Pivert,Pivert,,19.1073,-72.6931,Haiti,HT,HTI,Artibonite,Artibonite,HT-AR,department,,4382.8,,,2,America/Port-au-Prince,FALSE,1332680065
"Savane Cajou","Savane Cajou",,19.0170,-71.9087,Haiti,HT,HTI,Centre,Centre,HT-CE,department,,208.2,,,3,America/Port-au-Prince,FALSE,1332288986
"Boucan Laurier","Boucan Laurier",,19.4333,-72.3000,Haiti,HT,HTI,Artibonite,Artibonite,HT-AR,department,,305.3,,,3,America/Port-au-Prince,FALSE,1332119862
Peyrard,Peyrard,,19.4500,-72.3667,Haiti,HT,HTI,Artibonite,Artibonite,HT-AR,department,,274.4,,,3,America/Port-au-Prince,FALSE,1332526802
"Boucan Greffin","Boucan Greffin",,18.4222,-72.0968,Haiti,HT,HTI,Ouest,Ouest,HT-OU,department,,56.4,,,4,America/Port-au-Prince,FALSE,1332314614
"Terre Blanche","Terre Blanche",,19.0937,-71.8609,Haiti,HT,HTI,Centre,Centre,HT-CE,department,,393.3,,,3,America/Port-au-Prince,FALSE,1332042798
"Terre Blanche","Terre Blanche",,18.8833,-72.0333,Haiti,HT,HTI,Centre,Centre,HT-CE,department,,262.5,,,3,America/Port-au-Prince,TRUE,1332589417
Jumeaux,Jumeaux,,19.4167,-72.3500,Haiti,HT,HTI,Artibonite,Artibonite,HT-AR,department,,719.6,,,3,America/Port-au-Prince,FALSE,1332632918
"Chevreau des Cloches","Chevreau des Cloches","Chevreau Des Cloches|Chevreau Dos Cloches|Descloches",19.2041,-72.6097,Haiti,HT,HTI,Artibonite,Artibonite,HT-AR,department,,516.8,,,3,America/Port-au-Prince,FALSE,1332477083
"Jean Jacques","Jean Jacques",,19.3833,-71.7500,Haiti,HT,HTI,Nord-Est,Nord-Est,HT-NE,department,,333.7,,,3,America/Port-au-Prince,FALSE,1332592793
"Digue Monville","Digue Monville",,18.1667,-73.8833,Haiti,HT,HTI,Sud,Sud,HT-SD,department,,425.4,,,3,America/Port-au-Prince,FALSE,1332361417
"La Serre","La Serre",,18.6667,-72.1333,Haiti,HT,HTI,Ouest,Ouest,HT-OU,department,,321.8,,,3,America/Port-au-Prince,FALSE,1332607558
Bugue,Bugue,,19.7167,-72.7167,Haiti,HT,HTI,Artibonite,Artibonite,HT-AR,department,,266.5,,,3,America/Port-au-Prince,FALSE,1332677277
"Fond Grandin","Fond Grandin",,18.4333,-72.4500,Haiti,HT,HTI,Ouest,Ouest,HT-OU,department,,432.2,,,3,America/Port-au-Prince,FALSE,1332790650
Villejoint,Villejoint,,19.0833,-72.6333,Haiti,HT,HTI,Artibonite,Artibonite,HT-AR,department,,181.0,,,4,America/Port-au-Prince,FALSE,1332573905
Béliard,Beliard,,19.6667,-72.1000,Haiti,HT,HTI,Nord,Nord,HT-ND,department,,1041.5,,,3,America/Port-au-Prince,FALSE,1332106376
Aboni,Aboni,,18.4500,-72.5833,Haiti,HT,HTI,Ouest,Ouest,HT-OU,department,,209.9,,,3,America/Port-au-Prince,FALSE,1332417838
Nobac,Nobac,,19.0333,-72.3833,Haiti,HT,HTI,Artibonite,Artibonite,HT-AR,department,,230.7,,,3,America/Port-au-Prince,FALSE,1332764226
Sonia,Sonia,,18.3833,-72.3500,Haiti,HT,HTI,Ouest,Ouest,HT-OU,department,,1203.4,,,3,America/Port-au-Prince,FALSE,1332252565
"Bas Fond Caracol","Bas Fond Caracol",,19.5500,-72.1167,Haiti,HT,HTI,Nord,Nord,HT-ND,department,,164.0,,,4,America/Port-au-Prince,FALSE,1332597998
"Ti Place","Ti Place",,19.6833,-73.3833,Haiti,HT,HTI,Nord-Ouest,Nord-Ouest,HT-NO,department,,270.4,,,3,America/Port-au-Prince,FALSE,1332103744
Monocite,Monocite,,18.9807,-71.8795,Haiti,HT,HTI,Centre,Centre,HT-CE,department,,230.9,,,3,America/Port-au-Prince,FALSE,1332091322
"Bois Carré","Bois Carre",,19.1167,-72.4500,Haiti,HT,HTI,Artibonite,Artibonite,HT-AR,department,,1330.9,,,3,America/Port-au-Prince,FALSE,1332585903
"Carrefour Lalande","Carrefour Lalande",,19.7833,-72.7333,Haiti,HT,HTI,Nord-Ouest,Nord-Ouest,HT-NO,department,,220.2,,,3,America/Port-au-Prince,FALSE,1332701303
Kabeille,Kabeille,,19.8333,-72.6167,Haiti,HT,HTI,Nord,Nord,HT-ND,department,,532.3,,,3,America/Port-au-Prince,FALSE,1332999326
Marou,Marou,,19.1179,-72.5692,Haiti,HT,HTI,Artibonite,Artibonite,HT-AR,department,,1345.7,,,3,America/Port-au-Prince,FALSE,1332617090
"Des Plantes","Des Plantes",,18.5167,-74.3167,Haiti,HT,HTI,Grand’Anse,Grand'Anse,HT-GA,department,,573.7,,,3,America/Port-au-Prince,FALSE,1332840084
"Mare Radar","Mare Radar",,18.4500,-72.0333,Haiti,HT,HTI,Ouest,Ouest,HT-OU,department,,308.0,,,3,America/Port-au-Prince,FALSE,1332783265
"La Brousse","La Brousse",,19.8000,-72.9000,Haiti,HT,HTI,Nord-Ouest,Nord-Ouest,HT-NO,department,,168.1,,,4,America/Port-au-Prince,FALSE,1332013815
"Bois Verna","Bois Verna",,19.3883,-71.9422,Haiti,HT,HTI,Nord-Est,Nord-Est,HT-NE,department,,213.5,,,3,America/Port-au-Prince,FALSE,1332351720
"Mare Piquant","Mare Piquant",,18.4500,-72.0167,Haiti,HT,HTI,Ouest,Ouest,HT-OU,department,,228.7,,,3,America/Port-au-Prince,FALSE,1332021496
Malterie,Malterie,Maltère,19.5333,-71.8333,Haiti,HT,HTI,Nord-Est,Nord-Est,HT-NE,department,,67.7,,,4,America/Port-au-Prince,FALSE,1332166370
"Morne Ganicha","Morne Ganicha",,18.7333,-72.0167,Haiti,HT,HTI,Centre,Centre,HT-CE,department,,679.9,,,3,America/Port-au-Prince,FALSE,1332909156
"Voûte l’Église","Voute l'Eglise","Voute l’Église",20.0774,-72.7946,Haiti,HT,HTI,Nord-Ouest,Nord-Ouest,HT-NO,department,,227.2,,,3,America/Port-au-Prince,FALSE,1332475760
Violette,Violette,,19.5500,-72.5000,Haiti,HT,HTI,Artibonite,Artibonite,HT-AR,department,,197.7,,,4,America/Port-au-Prince,FALSE,1332353251
Grève,Greve,,19.7000,-73.4000,Haiti,HT,HTI,Nord-Ouest,Nord-Ouest,HT-NO,department,,387.0,,,3,America/Port-au-Prince,FALSE,1332664358
"Caye Fort","Caye Fort",,18.4667,-74.3500,Haiti,HT,HTI,Grand’Anse,Grand'Anse,HT-GA,department,,345.8,,,3,America/Port-au-Prince,FALSE,1332987904
Cortin,Cortin,,19.4667,-71.9667,Haiti,HT,HTI,Nord-Est,Nord-Est,HT-NE,department,,179.9,,,4,America/Port-au-Prince,FALSE,1332985074
"Ca Tino","Ca Tino",,18.4333,-74.0167,Haiti,HT,HTI,Grand’Anse,Grand'Anse,HT-GA,department,,11.6,,,4,America/Port-au-Prince,FALSE,1332067937
Camolie,Camolie,,18.4319,-73.5894,Haiti,HT,HTI,Nippes,Nippes,HT-NI,department,,741.7,,,3,America/Port-au-Prince,FALSE,1332071144
Fougère,Fougere,,19.1809,-72.6010,Haiti,HT,HTI,Artibonite,Artibonite,HT-AR,department,,897.2,,,3,America/Port-au-Prince,FALSE,1332973100
Moincon,Moincon,,18.4358,-73.4736,Haiti,HT,HTI,Nippes,Nippes,HT-NI,department,,237.4,,,3,America/Port-au-Prince,FALSE,1332351088
Térry,Terry,,19.2000,-72.3833,Haiti,HT,HTI,Artibonite,Artibonite,HT-AR,department,,228.3,,,3,America/Port-au-Prince,FALSE,1332518741
Mongeal,Mongeal,,19.5167,-71.9833,Haiti,HT,HTI,Nord-Est,Nord-Est,HT-NE,department,,189.5,,,4,America/Port-au-Prince,FALSE,1332556469
Sansou,Sansou,,19.1667,-71.9333,Haiti,HT,HTI,Centre,Centre,HT-CE,department,,209.9,,,3,America/Port-au-Prince,FALSE,1332583630
Brouette,Brouette,,19.7333,-73.3333,Haiti,HT,HTI,Nord-Ouest,Nord-Ouest,HT-NO,department,,209.7,,,3,America/Port-au-Prince,FALSE,1332451584
Dibiton,Dibiton,,18.3500,-72.5333,Haiti,HT,HTI,Sud-Est,Sud-Est,HT-SE,department,,221.7,,,3,America/Port-au-Prince,FALSE,1332395336
Colora,Colora,,19.4500,-71.7000,Haiti,HT,HTI,Nord-Est,Nord-Est,HT-NE,department,,408.8,,,3,America/Port-au-Prince,FALSE,1332894177
Colora,Colora,,19.3140,-71.8233,Haiti,HT,HTI,Nord-Est,Nord-Est,HT-NE,department,,175.8,,,4,America/Port-au-Prince,TRUE,1332603624
Mère,Mere,Mereé,19.6513,-71.8548,Haiti,HT,HTI,Nord-Est,Nord-Est,HT-NE,department,,53.2,,,4,America/Port-au-Prince,FALSE,1332940152
Simon,Simon,,18.6000,-74.1333,Haiti,HT,HTI,Grand’Anse,Grand'Anse,HT-GA,department,,398.5,,,3,America/Port-au-Prince,FALSE,1332838758
Simon,Simon,"Fond Simon",18.5688,-73.9881,Haiti,HT,HTI,Grand’Anse,Grand'Anse,HT-GA,department,,176.2,,,4,America/Port-au-Prince,TRUE,1332844190
"Bassin Laurent","Bassin Laurent",,19.3659,-72.2798,Haiti,HT,HTI,Artibonite,Artibonite,HT-AR,department,,269.7,,,3,America/Port-au-Prince,FALSE,1332503108
Ferrière,Ferriere,,18.4333,-72.1833,Haiti,HT,HTI,Ouest,Ouest,HT-OU,department,,35.0,,,4,America/Port-au-Prince,FALSE,1332000747
Poco,Poco,,18.3000,-72.4167,Haiti,HT,HTI,Sud-Est,Sud-Est,HT-SE,department,,311.1,,,3,America/Port-au-Prince,FALSE,1332011690
Mineur,Mineur,,18.2833,-72.3333,Haiti,HT,HTI,Sud-Est,Sud-Est,HT-SE,department,,387.8,,,3,America/Port-au-Prince,FALSE,1332705167
Mineur,Mineur,,18.1592,-73.8583,Haiti,HT,HTI,Sud,Sud,HT-SD,department,,795.3,,,3,America/Port-au-Prince,FALSE,1332366898
"Nan Saut","Nan Saut",,19.4234,-71.7156,Haiti,HT,HTI,Nord-Est,Nord-Est,HT-NE,department,,362.9,,,3,America/Port-au-Prince,FALSE,1332000023
Dutruche,Dutruche,Dautruche,18.2000,-73.7667,Haiti,HT,HTI,Sud,Sud,HT-SD,department,,1640.6,,,3,America/Port-au-Prince,FALSE,1332187450
Castagne,Castagne,,19.5333,-71.9333,Haiti,HT,HTI,Nord-Est,Nord-Est,HT-NE,department,,479.7,,,3,America/Port-au-Prince,FALSE,1332018774
Tibory,Tibory,,19.2167,-71.6833,Haiti,HT,HTI,Centre,Centre,HT-CE,department,,150.0,,,4,America/Port-au-Prince,FALSE,1332920293
"Portail la Gosseline","Portail la Gosseline","La Gosseline",18.2403,-72.5253,Haiti,HT,HTI,Sud-Est,Sud-Est,HT-SE,department,,1207.5,,,3,America/Port-au-Prince,FALSE,1332352872
Deronceray,Deronceray,,18.0500,-73.8667,Haiti,HT,HTI,Sud,Sud,HT-SD,department,,375.7,,,3,America/Port-au-Prince,FALSE,1332139387
"Bas Madeleine","Bas Madeleine",,19.4765,-71.9054,Haiti,HT,HTI,Nord-Est,Nord-Est,HT-NE,department,,200.8,,,3,America/Port-au-Prince,FALSE,1332977054
Dodard,Dodard,,19.0833,-72.4833,Haiti,HT,HTI,Artibonite,Artibonite,HT-AR,department,,695.0,,,3,America/Port-au-Prince,FALSE,1332000046
Dodard,Dodard,,19.0607,-72.3137,Haiti,HT,HTI,Artibonite,Artibonite,HT-AR,department,,213.3,,,3,America/Port-au-Prince,TRUE,1332264269
Mard,Mard,,19.7000,-72.7833,Haiti,HT,HTI,Artibonite,Artibonite,HT-AR,department,,266.5,,,3,America/Port-au-Prince,FALSE,1332498029
Sainte-Marie,Sainte-Marie,,18.3667,-74.2167,Haiti,HT,HTI,Sud,Sud,HT-SD,department,,465.7,,,3,America/Port-au-Prince,FALSE,1332596368
"Savane Marc","Savane Marc",,18.8500,-72.1833,Haiti,HT,HTI,Centre,Centre,HT-CE,department,,208.1,,,3,America/Port-au-Prince,FALSE,1332944730
Botoncy,Botoncy,,18.8667,-71.7833,Haiti,HT,HTI,Centre,Centre,HT-CE,department,,424.5,,,3,America/Port-au-Prince,FALSE,1332555323
"Palo Grande","Palo Grande",,19.1191,-71.6621,Haiti,HT,HTI,Centre,Centre,HT-CE,department,,115.9,,,4,America/Port-au-Prince,FALSE,1332000093
"Barrière Batin","Barriere Batin",,18.4167,-72.6167,Haiti,HT,HTI,Ouest,Ouest,HT-OU,department,,71.5,,,4,America/Port-au-Prince,FALSE,1332909566
Clérot,Clerot,,19.1667,-72.4500,Haiti,HT,HTI,Artibonite,Artibonite,HT-AR,department,,270.7,,,3,America/Port-au-Prince,FALSE,1332951558
"Trou Bassin","Trou Bassin",,19.5500,-72.4167,Haiti,HT,HTI,Artibonite,Artibonite,HT-AR,department,,431.5,,,3,America/Port-au-Prince,FALSE,1332411409
Lallemand,Lallemand,,19.9000,-72.7833,Haiti,HT,HTI,Nord-Ouest,Nord-Ouest,HT-NO,department,,615.4,,,3,America/Port-au-Prince,FALSE,1332205541
"Marc Caluc","Marc Caluc",,19.7500,-72.9500,Haiti,HT,HTI,Nord-Ouest,Nord-Ouest,HT-NO,department,,330.8,,,3,America/Port-au-Prince,FALSE,1332118170
Beaudouin,Beaudouin,,18.3833,-73.3167,Haiti,HT,HTI,Nippes,Nippes,HT-NI,department,,419.1,,,3,America/Port-au-Prince,FALSE,1332030019
Carosier,Carosier,,18.2333,-72.0500,Haiti,HT,HTI,Sud-Est,Sud-Est,HT-SE,department,,211.1,,,3,America/Port-au-Prince,FALSE,1332146623
"Petit Fond","Petit Fond",,18.8433,-72.0044,Haiti,HT,HTI,Centre,Centre,HT-CE,department,,262.5,,,3,America/Port-au-Prince,FALSE,1332660246
Barrère,Barrere,,18.3833,-72.5000,Haiti,HT,HTI,Sud-Est,Sud-Est,HT-SE,department,,208.4,,,3,America/Port-au-Prince,FALSE,1332252800
Pomponneau,Pomponneau,,19.7833,-72.8667,Haiti,HT,HTI,Nord-Ouest,Nord-Ouest,HT-NO,department,,211.3,,,3,America/Port-au-Prince,FALSE,1332921777
Coutan,Coutan,,19.1667,-72.3833,Haiti,HT,HTI,Artibonite,Artibonite,HT-AR,department,,228.3,,,3,America/Port-au-Prince,FALSE,1332540818
Lorodiague,Lorodiague,,19.2265,-71.9879,Haiti,HT,HTI,Centre,Centre,HT-CE,department,,153.9,,,4,America/Port-au-Prince,FALSE,1332092037
"La Yaille","La Yaille",,18.9167,-71.9667,Haiti,HT,HTI,Centre,Centre,HT-CE,department,,200.1,,,3,America/Port-au-Prince,FALSE,1332924552
Bertrand,Bertrand,,18.4333,-71.9667,Haiti,HT,HTI,Ouest,Ouest,HT-OU,department,,87.5,,,4,America/Port-au-Prince,FALSE,1332125624
Bertrand,Bertrand,,18.4833,-72.2000,Haiti,HT,HTI,Ouest,Ouest,HT-OU,department,,31.1,,,4,America/Port-au-Prince,TRUE,1332195184
Croquis,Croquis,,18.5500,-74.1000,Haiti,HT,HTI,Grand’Anse,Grand'Anse,HT-GA,department,,296.8,,,3,America/Port-au-Prince,FALSE,1332826374
Laborde,Laborde,"La Borde",18.2797,-73.8000,Haiti,HT,HTI,Sud,Sud,HT-SD,department,,318.0,,,3,America/Port-au-Prince,FALSE,1332324969
"Fond Mars","Fond Mars",,19.6901,-72.6666,Haiti,HT,HTI,Artibonite,Artibonite,HT-AR,department,,419.0,,,3,America/Port-au-Prince,FALSE,1332165727
Chanel,Chanel,Channel,19.1067,-72.5245,Haiti,HT,HTI,Artibonite,Artibonite,HT-AR,department,,496.3,,,3,America/Port-au-Prince,FALSE,1332213013
"Jean Marie","Jean Marie",,18.1833,-73.9000,Haiti,HT,HTI,Sud,Sud,HT-SD,department,,580.5,,,3,America/Port-au-Prince,FALSE,1332994580
Foloque,Foloque,,19.8167,-72.6833,Haiti,HT,HTI,Nord-Ouest,Nord-Ouest,HT-NO,department,,343.1,,,3,America/Port-au-Prince,FALSE,1332377518
Estral,Estral,,19.1157,-72.5276,Haiti,HT,HTI,Artibonite,Artibonite,HT-AR,department,,1402.4,,,3,America/Port-au-Prince,FALSE,1332007822
Renaudin,Renaudin,,18.2333,-73.9500,Haiti,HT,HTI,Sud,Sud,HT-SD,department,,583.2,,,3,America/Port-au-Prince,FALSE,1332108785
Mingrette,Mingrette,,18.3167,-73.3500,Haiti,HT,HTI,Sud,Sud,HT-SD,department,,491.4,,,3,America/Port-au-Prince,FALSE,1332634208
"Terre Grinnin","Terre Grinnin",,19.8833,-72.7000,Haiti,HT,HTI,Nord-Ouest,Nord-Ouest,HT-NO,department,,1130.8,,,3,America/Port-au-Prince,FALSE,1332450580
Débouché,Debouche,Débauché,18.4685,-73.4701,Haiti,HT,HTI,Nippes,Nippes,HT-NI,department,,171.0,,,4,America/Port-au-Prince,FALSE,1332701197
Costa,Costa,,18.3167,-73.7833,Haiti,HT,HTI,Sud,Sud,HT-SD,department,,341.5,,,3,America/Port-au-Prince,FALSE,1332434603
"Ti Claire","Ti Claire",,18.3833,-73.7833,Haiti,HT,HTI,Sud,Sud,HT-SD,department,,184.5,,,4,America/Port-au-Prince,FALSE,1332825890
"Jonc des Mornes","Jonc des Mornes",,18.3500,-73.3833,Haiti,HT,HTI,Nippes,Nippes,HT-NI,department,,396.7,,,3,America/Port-au-Prince,FALSE,1332863800
Courette,Courette,,18.6833,-71.8833,Haiti,HT,HTI,Ouest,Ouest,HT-OU,department,,340.1,,,3,America/Port-au-Prince,FALSE,1332747457
Dupérac,Duperac,,19.6723,-72.4820,Haiti,HT,HTI,Nord,Nord,HT-ND,department,,483.9,,,3,America/Port-au-Prince,FALSE,1332858035
Laffite,Laffite,,19.6000,-72.2167,Haiti,HT,HTI,Nord,Nord,HT-ND,department,,1367.4,,,3,America/Port-au-Prince,FALSE,1332711482
Dupré,Dupre,,18.6333,-74.3167,Haiti,HT,HTI,Grand’Anse,Grand'Anse,HT-GA,department,,349.3,,,3,America/Port-au-Prince,FALSE,1332154152
Jambon,Jambon,,19.0555,-72.5867,Haiti,HT,HTI,Artibonite,Artibonite,HT-AR,department,,181.0,,,4,America/Port-au-Prince,FALSE,1332457344
Oban,Oban,,18.2333,-72.4333,Haiti,HT,HTI,Sud-Est,Sud-Est,HT-SE,department,,928.9,,,3,America/Port-au-Prince,FALSE,1332637491
"Plaine Toman","Plaine Toman",Toman,18.4459,-71.9317,Haiti,HT,HTI,Ouest,Ouest,HT-OU,department,,273.7,,,3,America/Port-au-Prince,FALSE,1332510958
Guilbeau,Guilbeau,,19.8333,-73.1167,Haiti,HT,HTI,Nord-Ouest,Nord-Ouest,HT-NO,department,,302.2,,,3,America/Port-au-Prince,FALSE,1332698419
Brisson,Brisson,,18.7000,-74.2500,Haiti,HT,HTI,Grand’Anse,Grand'Anse,HT-GA,department,,299.8,,,3,America/Port-au-Prince,FALSE,1332452761
"La Yaye","La Yaye","La Yagua|La Llagua|La Ilagua",18.9658,-71.8357,Haiti,HT,HTI,Centre,Centre,HT-CE,department,,186.4,,,4,America/Port-au-Prince,FALSE,1332189407
Denis,Denis,,18.4500,-73.3167,Haiti,HT,HTI,Nippes,Nippes,HT-NI,department,,542.9,,,3,America/Port-au-Prince,FALSE,1332012284
"Cerca Ebré","Cerca Ebre",,19.0167,-71.8667,Haiti,HT,HTI,Centre,Centre,HT-CE,department,,230.9,,,3,America/Port-au-Prince,FALSE,1332094861
Mirebalais,Mirebalais,"Bourg Saint Louis|Mibalè",18.8333,-72.1053,Haiti,HT,HTI,Centre,Centre,HT-CE,department,,412.7,,,3,America/Port-au-Prince,FALSE,1332723633
"Nan Café","Nan Cafe",,18.8500,-72.3667,Haiti,HT,HTI,Artibonite,Artibonite,HT-AR,department,,48.3,,,4,America/Port-au-Prince,FALSE,1332394880
Guiton,Guiton,,18.7500,-72.4333,Haiti,HT,HTI,Ouest,Ouest,HT-OU,department,,3416.4,,,2,America/Port-au-Prince,FALSE,1332469600
Charrier,Charrier,,18.2500,-73.7833,Haiti,HT,HTI,Sud,Sud,HT-SD,department,,218.9,,,3,America/Port-au-Prince,FALSE,1332837926
Borel,Borel,,19.1017,-72.4954,Haiti,HT,HTI,Artibonite,Artibonite,HT-AR,department,,496.3,,,3,America/Port-au-Prince,FALSE,1332782855
"Badon Marchand","Badon Marchand",,19.5000,-72.6500,Haiti,HT,HTI,Artibonite,Artibonite,HT-AR,department,,292.2,,,3,America/Port-au-Prince,FALSE,1332717548
"Bois Blanc","Bois Blanc",,18.5333,-72.1333,Haiti,HT,HTI,Ouest,Ouest,HT-OU,department,,210.8,,,3,America/Port-au-Prince,FALSE,1332761086
Boucan,Boucan,,18.5010,-74.3552,Haiti,HT,HTI,Grand’Anse,Grand'Anse,HT-GA,department,,345.8,,,3,America/Port-au-Prince,FALSE,1332025415
Bail,Bail,,19.4261,-72.1158,Haiti,HT,HTI,Nord,Nord,HT-ND,department,,448.9,,,3,America/Port-au-Prince,FALSE,1332491287
"Bois Joli","Bois Joli","Bois Joly",18.9508,-72.0462,Haiti,HT,HTI,Centre,Centre,HT-CE,department,,263.3,,,3,America/Port-au-Prince,FALSE,1332151237
"Sous Blanc","Sous Blanc",,19.8026,-73.1977,Haiti,HT,HTI,Nord-Ouest,Nord-Ouest,HT-NO,department,,940.9,,,3,America/Port-au-Prince,FALSE,1332388798
"Grand Chemin","Grand Chemin",,18.4000,-74.3833,Haiti,HT,HTI,Grand’Anse,Grand'Anse,HT-GA,department,,231.9,,,3,America/Port-au-Prince,FALSE,1332321817
Tetu,Tetu,,18.3667,-73.5833,Haiti,HT,HTI,Sud,Sud,HT-SD,department,,169.6,,,4,America/Port-au-Prince,FALSE,1332435633
Diaca,Diaca,,18.4667,-73.1500,Haiti,HT,HTI,Nippes,Nippes,HT-NI,department,,159.0,,,4,America/Port-au-Prince,FALSE,1332948230
Bota,Bota,,18.1500,-71.7667,Haiti,HT,HTI,Sud-Est,Sud-Est,HT-SE,department,,159.8,,,4,America/Port-au-Prince,FALSE,1332471671
"Grand Mane","Grand Mane",,20.0167,-72.7833,Haiti,HT,HTI,Nord-Ouest,Nord-Ouest,HT-NO,department,,227.2,,,3,America/Port-au-Prince,FALSE,1332546689
"Morne de Paille","Morne de Paille",,19.6757,-73.0952,Haiti,HT,HTI,Artibonite,Artibonite,HT-AR,department,,35.7,,,4,America/Port-au-Prince,FALSE,1332000069
"Nan Platon","Nan Platon",,19.5000,-72.5167,Haiti,HT,HTI,Artibonite,Artibonite,HT-AR,department,,444.9,,,3,America/Port-au-Prince,FALSE,1332504799
"Savane Belle-Mère","Savane Belle-Mere",,19.3121,-72.3866,Haiti,HT,HTI,Artibonite,Artibonite,HT-AR,department,,232.6,,,3,America/Port-au-Prince,FALSE,1332476229
Tenté,Tente,,18.4000,-74.4000,Haiti,HT,HTI,Grand’Anse,Grand'Anse,HT-GA,department,,195.3,,,4,America/Port-au-Prince,FALSE,1332006892
Bonnet,Bonnet,,19.4667,-71.9000,Haiti,HT,HTI,Nord-Est,Nord-Est,HT-NE,department,,200.8,,,3,America/Port-au-Prince,FALSE,1332225143
"Fond Rémosin","Fond Remosin","Fond Remoussaint|Fond Remonsin",18.9972,-72.5432,Haiti,HT,HTI,Artibonite,Artibonite,HT-AR,department,,387.4,,,3,America/Port-au-Prince,FALSE,1332546412
Canniver,Canniver,,19.5167,-72.1333,Haiti,HT,HTI,Nord,Nord,HT-ND,department,,161.3,,,4,America/Port-au-Prince,FALSE,1332075899
Grandou,Grandou,,18.2383,-72.7300,Haiti,HT,HTI,Sud-Est,Sud-Est,HT-SE,department,,271.6,,,3,America/Port-au-Prince,FALSE,1332764613
Donjon,Donjon,,18.3833,-73.4333,Haiti,HT,HTI,Nippes,Nippes,HT-NI,department,,344.9,,,3,America/Port-au-Prince,FALSE,1332896787
Védery,Vedery,,19.1859,-72.5680,Haiti,HT,HTI,Artibonite,Artibonite,HT-AR,department,,897.2,,,3,America/Port-au-Prince,FALSE,1332506106
"Corail de Mer","Corail de Mer",,18.4500,-72.6000,Haiti,HT,HTI,Ouest,Ouest,HT-OU,department,,79.9,,,4,America/Port-au-Prince,FALSE,1332306071
Conodi,Conodi,,19.6822,-72.0758,Haiti,HT,HTI,Nord,Nord,HT-ND,department,,523.2,,,3,America/Port-au-Prince,FALSE,1332177917
Vieillard,Vieillard,,18.8333,-72.2000,Haiti,HT,HTI,Centre,Centre,HT-CE,department,,215.7,,,3,America/Port-au-Prince,FALSE,1332297725
Balifoudray,Balifoudray,,19.1500,-72.6333,Haiti,HT,HTI,Artibonite,Artibonite,HT-AR,department,,396.0,,,3,America/Port-au-Prince,FALSE,1332713377
"Grand Dieu","Grand Dieu",,18.2839,-73.6736,Haiti,HT,HTI,Sud,Sud,HT-SD,department,,278.6,,,3,America/Port-au-Prince,FALSE,1332042832
Mauric,Mauric,,19.1667,-72.0167,Haiti,HT,HTI,Centre,Centre,HT-CE,department,,153.9,,,4,America/Port-au-Prince,FALSE,1332718368
Canelle,Canelle,,19.1000,-72.2000,Haiti,HT,HTI,Centre,Centre,HT-CE,department,,158.7,,,4,America/Port-au-Prince,FALSE,1332754996
Pacasse,Pacasse,,19.1833,-71.8167,Haiti,HT,HTI,Centre,Centre,HT-CE,department,,231.3,,,3,America/Port-au-Prince,FALSE,1332988727
"Garde Cognac","Garde Cognac",,19.6500,-72.4167,Haiti,HT,HTI,Nord,Nord,HT-ND,department,,689.2,,,3,America/Port-au-Prince,FALSE,1332748985
Cesson,Cesson,,18.6000,-74.4000,Haiti,HT,HTI,Grand’Anse,Grand'Anse,HT-GA,department,,328.7,,,3,America/Port-au-Prince,FALSE,1332956518
Yvra,Yvra,Yrva,18.9530,-72.6607,Haiti,HT,HTI,Ouest,Ouest,HT-OU,department,,84.8,,,4,America/Port-au-Prince,FALSE,1332969019
"Jean Patate","Jean Patate",,18.4018,-73.5229,Haiti,HT,HTI,Nippes,Nippes,HT-NI,department,,303.8,,,3,America/Port-au-Prince,FALSE,1332467905
L’Amérique,L'Amerique,,19.2007,-72.6809,Haiti,HT,HTI,Artibonite,Artibonite,HT-AR,department,,396.0,,,3,America/Port-au-Prince,FALSE,1332038191
"Dos Bois d’Orme","Dos Bois d'Orme",,18.8500,-72.4500,Haiti,HT,HTI,Ouest,Ouest,HT-OU,department,,67.4,,,4,America/Port-au-Prince,FALSE,1332053785
Mingo,Mingo,Mingot,18.4658,-73.6214,Haiti,HT,HTI,Nippes,Nippes,HT-NI,department,,210.7,,,3,America/Port-au-Prince,FALSE,1332520247
Pélagie,Pelagie,,18.2589,-72.8944,Haiti,HT,HTI,Sud-Est,Sud-Est,HT-SE,department,,305.1,,,3,America/Port-au-Prince,FALSE,1332969024
"La Guardiane","La Guardiane",Laguardiane,19.1375,-71.8940,Haiti,HT,HTI,Centre,Centre,HT-CE,department,,209.9,,,3,America/Port-au-Prince,FALSE,1332938606
Montérant,Monterant,,18.5167,-74.0667,Haiti,HT,HTI,Grand’Anse,Grand'Anse,HT-GA,department,,206.7,,,3,America/Port-au-Prince,FALSE,1332655482
Dessources,Dessources,,18.3167,-73.0000,Haiti,HT,HTI,Nippes,Nippes,HT-NI,department,,308.5,,,3,America/Port-au-Prince,FALSE,1332557459
"Nan Jésus","Nan Jesus",,18.8952,-73.1110,Haiti,HT,HTI,Ouest,Ouest,HT-OU,department,,10.1,,,4,America/Port-au-Prince,FALSE,1332782806
"Nan Cite","Nan Cite",,19.8667,-72.6167,Haiti,HT,HTI,Nord-Ouest,Nord-Ouest,HT-NO,department,,322.6,,,3,America/Port-au-Prince,FALSE,1332748247
"L’Eau Gaillée","L'Eau Gaillee",,18.7989,-71.8208,Haiti,HT,HTI,Centre,Centre,HT-CE,department,,304.3,,,3,America/Port-au-Prince,FALSE,1332382261
Dessources,Dessources,,19.7700,-73.2341,Haiti,HT,HTI,Nord-Ouest,Nord-Ouest,HT-NO,department,,995.0,,,3,America/Port-au-Prince,FALSE,1332211183
"Carrefour Ménard","Carrefour Menard",,19.6000,-72.1833,Haiti,HT,HTI,Nord,Nord,HT-ND,department,,218.9,,,3,America/Port-au-Prince,FALSE,1332766458
Livrette,Livrette,,18.6293,-74.3685,Haiti,HT,HTI,Grand’Anse,Grand'Anse,HT-GA,department,,430.9,,,3,America/Port-au-Prince,FALSE,1332156501
Thomas,Thomas,,19.7742,-73.0917,Haiti,HT,HTI,Nord-Ouest,Nord-Ouest,HT-NO,department,,322.8,,,3,America/Port-au-Prince,FALSE,1332855268
"Colline Ti Jean","Colline Ti Jean",,19.6919,-73.0578,Haiti,HT,HTI,Artibonite,Artibonite,HT-AR,department,,35.7,,,4,America/Port-au-Prince,FALSE,1332564400
Bailly,Bailly,,19.1298,-71.9875,Haiti,HT,HTI,Centre,Centre,HT-CE,department,,204.9,,,3,America/Port-au-Prince,FALSE,1332996865
"Ca Léon","Ca Leon",,18.8488,-73.0355,Haiti,HT,HTI,Ouest,Ouest,HT-OU,department,,10.1,,,4,America/Port-au-Prince,FALSE,1332857680
Labadie,Labadie,,19.5167,-72.4833,Haiti,HT,HTI,Artibonite,Artibonite,HT-AR,department,,334.8,,,3,America/Port-au-Prince,FALSE,1332976311
"Fond Palmes","Fond Palmes",,18.2770,-72.8837,Haiti,HT,HTI,Ouest,Ouest,HT-OU,department,,373.3,,,3,America/Port-au-Prince,FALSE,1332722343
Coudré,Coudre,,19.4833,-72.3167,Haiti,HT,HTI,Artibonite,Artibonite,HT-AR,department,,242.2,,,3,America/Port-au-Prince,FALSE,1332360924
Narcisse,Narcisse,,18.3833,-73.2000,Haiti,HT,HTI,Nippes,Nippes,HT-NI,department,,137.4,,,4,America/Port-au-Prince,FALSE,1332836728
Viata,Viata,,18.2333,-72.8500,Haiti,HT,HTI,Sud-Est,Sud-Est,HT-SE,department,,287.1,,,3,America/Port-au-Prince,FALSE,1332909765
Tombacalème,Tombacaleme,Tombacalène,18.9004,-71.8907,Haiti,HT,HTI,Centre,Centre,HT-CE,department,,199.8,,,4,America/Port-au-Prince,FALSE,1332523894
Dumoulin,Dumoulin,,18.2286,-73.2208,Haiti,HT,HTI,Sud,Sud,HT-SD,department,,49.0,,,4,America/Port-au-Prince,FALSE,1332948593
Gonde,Gonde,,19.8000,-72.9500,Haiti,HT,HTI,Nord-Ouest,Nord-Ouest,HT-NO,department,,142.6,,,4,America/Port-au-Prince,FALSE,1332785905
"Pont Kenete","Pont Kenete",,18.5167,-72.0667,Haiti,HT,HTI,Ouest,Ouest,HT-OU,department,,323.6,,,3,America/Port-au-Prince,FALSE,1332346328
Maille,Maille,,18.8333,-72.4000,Haiti,HT,HTI,Ouest,Ouest,HT-OU,department,,37.9,,,4,America/Port-au-Prince,FALSE,1332952111
Martial,Martial,,19.1500,-71.8500,Haiti,HT,HTI,Centre,Centre,HT-CE,department,,393.3,,,3,America/Port-au-Prince,FALSE,1332637939
Déssables,Dessables,,18.8167,-72.4167,Haiti,HT,HTI,Ouest,Ouest,HT-OU,department,,37.9,,,4,America/Port-au-Prince,FALSE,1332773668
"Bas Bouc","Bas Bouc",,19.1419,-72.4294,Haiti,HT,HTI,Artibonite,Artibonite,HT-AR,department,,270.7,,,3,America/Port-au-Prince,FALSE,1332000124
Déjean,Dejean,,18.4167,-72.5333,Haiti,HT,HTI,Ouest,Ouest,HT-OU,department,,52.7,,,4,America/Port-au-Prince,FALSE,1332227393
Davilmar,Davilmar,,19.8966,-73.0219,Haiti,HT,HTI,Nord-Ouest,Nord-Ouest,HT-NO,department,,267.9,,,3,America/Port-au-Prince,FALSE,1332753656
Castanette,Castanette,,18.3667,-74.2667,Haiti,HT,HTI,Sud,Sud,HT-SD,department,,71.7,,,4,America/Port-au-Prince,FALSE,1332826262
"Carrefour Gabriel","Carrefour Gabriel",,18.4333,-72.5167,Haiti,HT,HTI,Ouest,Ouest,HT-OU,department,,57.4,,,4,America/Port-au-Prince,FALSE,1332169502
"Dos Pâques","Dos Paques","Dos Paque",18.9503,-72.3818,Haiti,HT,HTI,Artibonite,Artibonite,HT-AR,department,,223.4,,,3,America/Port-au-Prince,FALSE,1332486253
Charisse,Charisse,,18.4000,-73.7833,Haiti,HT,HTI,Sud,Sud,HT-SD,department,,184.5,,,4,America/Port-au-Prince,FALSE,1332410467
Carosse,Carosse,,19.4333,-72.0167,Haiti,HT,HTI,Nord-Est,Nord-Est,HT-NE,department,,213.1,,,3,America/Port-au-Prince,FALSE,1332914395
Carosse,Carosse,,19.8127,-72.4326,Haiti,HT,HTI,Nord,Nord,HT-ND,department,,400.1,,,3,America/Port-au-Prince,FALSE,1332000128
Courtois,Courtois,,18.2323,-72.9154,Haiti,HT,HTI,Sud-Est,Sud-Est,HT-SE,department,,311.1,,,3,America/Port-au-Prince,FALSE,1332240518
Lochard,Lochard,,18.4333,-72.6333,Haiti,HT,HTI,Ouest,Ouest,HT-OU,department,,71.5,,,4,America/Port-au-Prince,FALSE,1332176674
Vilmar,Vilmar,,18.7667,-71.7500,Haiti,HT,HTI,Centre,Centre,HT-CE,department,,301.5,,,3,America/Port-au-Prince,FALSE,1332123084
"Vieux Cabrouet","Vieux Cabrouet",,19.5333,-72.7167,Haiti,HT,HTI,Artibonite,Artibonite,HT-AR,department,,755.4,,,3,America/Port-au-Prince,FALSE,1332222374
"Langue Blanche","Langue Blanche",,18.9500,-73.2500,Haiti,HT,HTI,Ouest,Ouest,HT-OU,department,,117.7,,,4,America/Port-au-Prince,FALSE,1332576475
Bongar,Bongar,,19.4667,-72.0333,Haiti,HT,HTI,Nord-Est,Nord-Est,HT-NE,department,,313.3,,,3,America/Port-au-Prince,FALSE,1332792211
Disara,Disara,,19.4500,-71.8167,Haiti,HT,HTI,Nord-Est,Nord-Est,HT-NE,department,,114.2,,,4,America/Port-au-Prince,FALSE,1332415436
"Barrière Gaule","Barriere Gaule",,18.8500,-71.9667,Haiti,HT,HTI,Centre,Centre,HT-CE,department,,262.5,,,3,America/Port-au-Prince,FALSE,1332366404
"Nan Campe","Nan Campe",,19.4167,-72.1167,Haiti,HT,HTI,Nord,Nord,HT-ND,department,,446.0,,,3,America/Port-au-Prince,FALSE,1332551007
"Nan Cajou","Nan Cajou",,18.1650,-73.9414,Haiti,HT,HTI,Sud,Sud,HT-SD,department,,521.9,,,3,America/Port-au-Prince,FALSE,1332695745
Bossuet,Bossuet,,18.2667,-72.2000,Haiti,HT,HTI,Sud-Est,Sud-Est,HT-SE,department,,179.5,,,4,America/Port-au-Prince,FALSE,1332121096
Laborieux,Laborieux,,18.2259,-73.1847,Haiti,HT,HTI,Sud,Sud,HT-SD,department,,49.0,,,4,America/Port-au-Prince,FALSE,1332800347
"Bois Cochon","Bois Cochon",,19.3667,-72.0167,Haiti,HT,HTI,Nord,Nord,HT-ND,department,,295.8,,,3,America/Port-au-Prince,FALSE,1332347978
Macajou,Macajou,,19.6833,-72.5333,Haiti,HT,HTI,Nord,Nord,HT-ND,department,,702.6,,,3,America/Port-au-Prince,FALSE,1332000028
Brémant,Bremant,Bremant,18.2342,-72.5070,Haiti,HT,HTI,Sud-Est,Sud-Est,HT-SE,department,,1207.5,,,3,America/Port-au-Prince,FALSE,1332751779
Descahos,Descahos,,19.5000,-72.5167,Haiti,HT,HTI,Artibonite,Artibonite,HT-AR,department,,444.9,,,3,America/Port-au-Prince,FALSE,1332529672
Coquillon,Coquillon,,18.3500,-74.3167,Haiti,HT,HTI,Sud,Sud,HT-SD,department,,139.3,,,4,America/Port-au-Prince,FALSE,1332187095
Meyer,Meyer,Meyerre|Méyer,18.2308,-72.4827,Haiti,HT,HTI,Sud-Est,Sud-Est,HT-SE,department,,1207.5,,,3,America/Port-au-Prince,FALSE,1332588065
Bidoret,Bidoret,,19.5833,-72.4167,Haiti,HT,HTI,Nord,Nord,HT-ND,department,,41.9,,,4,America/Port-au-Prince,FALSE,1332257398
Guitonière,Guitoniere,,18.5667,-74.2667,Haiti,HT,HTI,Grand’Anse,Grand'Anse,HT-GA,department,,774.1,,,3,America/Port-au-Prince,FALSE,1332210229
Areguy,Areguy,,18.3064,-72.5562,Haiti,HT,HTI,Sud-Est,Sud-Est,HT-SE,department,,1153.0,,,3,America/Port-au-Prince,FALSE,1332344417
"Hatte Jacquot","Hatte Jacquot",,19.6500,-73.1333,Haiti,HT,HTI,Nord-Ouest,Nord-Ouest,HT-NO,department,,68.6,,,4,America/Port-au-Prince,FALSE,1332561307
Duchat,Duchat,,18.2167,-73.2500,Haiti,HT,HTI,Sud,Sud,HT-SD,department,,49.0,,,4,America/Port-au-Prince,FALSE,1332606135
Zabethe,Zabethe,,18.9592,-72.5169,Haiti,HT,HTI,Artibonite,Artibonite,HT-AR,department,,387.4,,,3,America/Port-au-Prince,FALSE,1332857712
Dorlon,Dorlon,,19.8500,-72.5833,Haiti,HT,HTI,Nord,Nord,HT-ND,department,,647.0,,,3,America/Port-au-Prince,FALSE,1332664164
Descaha,Descaha,,19.3000,-72.6667,Haiti,HT,HTI,Artibonite,Artibonite,HT-AR,department,,496.4,,,3,America/Port-au-Prince,FALSE,1332894651
Goufon,Goufon,,18.2500,-73.8333,Haiti,HT,HTI,Sud,Sud,HT-SD,department,,202.0,,,3,America/Port-au-Prince,FALSE,1332565091
Falaise,Falaise,,19.7500,-72.8833,Haiti,HT,HTI,Nord-Ouest,Nord-Ouest,HT-NO,department,,1025.3,,,3,America/Port-au-Prince,FALSE,1332655710
"Morne Foucault","Morne Foucault",,19.8167,-72.9833,Haiti,HT,HTI,Nord-Ouest,Nord-Ouest,HT-NO,department,,330.8,,,3,America/Port-au-Prince,FALSE,1332569720
Boncy,Boncy,,18.5500,-74.1167,Haiti,HT,HTI,Grand’Anse,Grand'Anse,HT-GA,department,,300.6,,,3,America/Port-au-Prince,FALSE,1332715026
"Duval Jacques","Duval Jacques",,18.5500,-72.2000,Haiti,HT,HTI,Ouest,Ouest,HT-OU,department,,282.5,,,3,America/Port-au-Prince,FALSE,1332908789
Lamatry,Lamatry,,19.5833,-71.8000,Haiti,HT,HTI,Nord-Est,Nord-Est,HT-NE,department,,1608.8,,,3,America/Port-au-Prince,FALSE,1332313321
Beaucalin,Beaucalin,,18.5980,-74.2020,Haiti,HT,HTI,Grand’Anse,Grand'Anse,HT-GA,department,,319.7,,,3,America/Port-au-Prince,FALSE,1332288172
Gougeon,Gougeon,Cougeon,18.4056,-72.4561,Haiti,HT,HTI,Sud-Est,Sud-Est,HT-SE,department,,62.1,,,4,America/Port-au-Prince,FALSE,1332961573
"Ca Dupuy","Ca Dupuy",,18.8561,-72.4274,Haiti,HT,HTI,Ouest,Ouest,HT-OU,department,,67.4,,,4,America/Port-au-Prince,FALSE,1332779285
Malvezier,Malvezier,,18.3000,-73.5500,Haiti,HT,HTI,Sud,Sud,HT-SD,department,,285.0,,,3,America/Port-au-Prince,FALSE,1332399778
"Saut Mathirine","Saut Mathirine",,18.3667,-73.8333,Haiti,HT,HTI,Sud,Sud,HT-SD,department,,333.4,,,3,America/Port-au-Prince,FALSE,1332087575
Corail,Corail,,19.0674,-72.5510,Haiti,HT,HTI,Artibonite,Artibonite,HT-AR,department,,341.2,,,3,America/Port-au-Prince,FALSE,1332911979
Corail,Corail,,19.5098,-72.3830,Haiti,HT,HTI,Artibonite,Artibonite,HT-AR,department,,339.4,,,3,America/Port-au-Prince,TRUE,1332169738
Corail,Corail,,19.0255,-72.2994,Haiti,HT,HTI,Artibonite,Artibonite,HT-AR,department,,213.3,,,3,America/Port-au-Prince,TRUE,1332048198
Corail,Corail,,18.9500,-72.2833,Haiti,HT,HTI,Artibonite,Artibonite,HT-AR,department,,203.9,,,3,America/Port-au-Prince,TRUE,1332161755
Corail,Corail,,19.7333,-72.6000,Haiti,HT,HTI,Artibonite,Artibonite,HT-AR,department,,195.0,,,4,America/Port-au-Prince,TRUE,1332823674
"Chien Dent","Chien Dent",Chiendent,18.8382,-72.2971,Haiti,HT,HTI,Centre,Centre,HT-CE,department,,270.7,,,3,America/Port-au-Prince,FALSE,1332948700
"Beau Soleil","Beau Soleil",,19.6667,-72.4167,Haiti,HT,HTI,Nord,Nord,HT-ND,department,,67.0,,,4,America/Port-au-Prince,FALSE,1332431062
"Bois Bayard","Bois Bayard",,18.2330,-72.4937,Haiti,HT,HTI,Sud-Est,Sud-Est,HT-SE,department,,1207.5,,,3,America/Port-au-Prince,FALSE,1332163010
"Ravine Cocoyer","Ravine Cocoyer",,18.4000,-73.3000,Haiti,HT,HTI,Nippes,Nippes,HT-NI,department,,402.9,,,3,America/Port-au-Prince,FALSE,1332839116
Corvelle,Corvelle,,18.8713,-72.1660,Haiti,HT,HTI,Centre,Centre,HT-CE,department,,222.5,,,3,America/Port-au-Prince,FALSE,1332304485
"Nan Doval","Nan Doval",Doval,18.8173,-72.8716,Haiti,HT,HTI,Ouest,Ouest,HT-OU,department,,2774.3,,,2,America/Port-au-Prince,FALSE,1332879928
Gilette,Gilette,Gillette,19.5358,-72.0955,Haiti,HT,HTI,Nord-Est,Nord-Est,HT-NE,department,,168.6,,,4,America/Port-au-Prince,FALSE,1332293289
"La Porte","La Porte","La Port",18.4819,-72.5692,Haiti,HT,HTI,Ouest,Ouest,HT-OU,department,,306.0,,,3,America/Port-au-Prince,FALSE,1332134903
"La Porte","La Porte",Laporte,18.3564,-72.7718,Haiti,HT,HTI,Ouest,Ouest,HT-OU,department,,198.7,,,4,America/Port-au-Prince,TRUE,1332358594
"La Porte","La Porte",,18.3500,-72.6000,Haiti,HT,HTI,Ouest,Ouest,HT-OU,department,,95.0,,,4,America/Port-au-Prince,TRUE,1332808563
Danglise,Danglise,,18.6333,-74.3000,Haiti,HT,HTI,Grand’Anse,Grand'Anse,HT-GA,department,,488.4,,,3,America/Port-au-Prince,FALSE,1332206787
Collasine,Collasine,,18.1598,-71.8565,Haiti,HT,HTI,Sud-Est,Sud-Est,HT-SE,department,,170.1,,,4,America/Port-au-Prince,FALSE,1332922176
Barcadère,Barcadere,,18.2167,-73.7167,Haiti,HT,HTI,Sud,Sud,HT-SD,department,,1266.7,,,3,America/Port-au-Prince,FALSE,1332967982
Boyer,Boyer,,18.8333,-72.1333,Haiti,HT,HTI,Centre,Centre,HT-CE,department,,112.0,,,4,America/Port-au-Prince,FALSE,1332594044
Buris,Buris,,18.3958,-73.6202,Haiti,HT,HTI,Sud,Sud,HT-SD,department,,169.2,,,4,America/Port-au-Prince,FALSE,1332579041
Carconne,Carconne,,19.4667,-72.0167,Haiti,HT,HTI,Nord-Est,Nord-Est,HT-NE,department,,301.7,,,3,America/Port-au-Prince,FALSE,1332464729
Valère,Valere,"Carrefour Valére",18.1270,-73.8553,Haiti,HT,HTI,Sud,Sud,HT-SD,department,,754.5,,,3,America/Port-au-Prince,FALSE,1332923818
Valère,Valere,,18.3122,-73.2337,Haiti,HT,HTI,Sud,Sud,HT-SD,department,,283.3,,,3,America/Port-au-Prince,TRUE,1332990040
Calalo,Calalo,,18.3836,-71.9952,Haiti,HT,HTI,Ouest,Ouest,HT-OU,department,,30.2,,,4,America/Port-au-Prince,FALSE,1332176569
Ponsey,Ponsey,,19.6333,-72.0167,Haiti,HT,HTI,Nord-Est,Nord-Est,HT-NE,department,,593.6,,,3,America/Port-au-Prince,FALSE,1332889980
Rodéo,Rodeo,,19.0958,-71.8194,Haiti,HT,HTI,Centre,Centre,HT-CE,department,,256.3,,,3,America/Port-au-Prince,FALSE,1332642434
Cologne,Cologne,,18.7333,-71.7667,Haiti,HT,HTI,Centre,Centre,HT-CE,department,,275.3,,,3,America/Port-au-Prince,FALSE,1332092050
Poty,Poty,Coty,18.3294,-74.0825,Haiti,HT,HTI,Sud,Sud,HT-SD,department,,218.5,,,3,America/Port-au-Prince,FALSE,1332246194
L’Éternel,L'Eternel,,18.8484,-73.0711,Haiti,HT,HTI,Ouest,Ouest,HT-OU,department,,10.1,,,4,America/Port-au-Prince,FALSE,1332055983
Blanchard,Blanchard,Blancherd,18.6000,-72.3167,Haiti,HT,HTI,Ouest,Ouest,HT-OU,department,,14389.0,,,2,America/Port-au-Prince,FALSE,1332352438
Blanchard,Blanchard,,18.5225,-72.1048,Haiti,HT,HTI,Ouest,Ouest,HT-OU,department,,211.3,,,3,America/Port-au-Prince,TRUE,1332502724
Poc,Poc,,19.7167,-72.4667,Haiti,HT,HTI,Nord,Nord,HT-ND,department,,389.6,,,3,America/Port-au-Prince,FALSE,1332643488
Rosinde,Rosinde,,18.3500,-72.8333,Haiti,HT,HTI,Ouest,Ouest,HT-OU,department,,568.0,,,3,America/Port-au-Prince,FALSE,1332782296
Merson,Merson,,18.7333,-72.1000,Haiti,HT,HTI,Centre,Centre,HT-CE,department,,1364.5,,,3,America/Port-au-Prince,FALSE,1332184071
Kadroual,Kadroual,,18.9667,-72.2167,Haiti,HT,HTI,Centre,Centre,HT-CE,department,,196.2,,,4,America/Port-au-Prince,FALSE,1332649413
Pas,Pas,,19.4667,-72.5000,Haiti,HT,HTI,Artibonite,Artibonite,HT-AR,department,,444.9,,,3,America/Port-au-Prince,FALSE,1332837123
Dumazar,Dumazar,,19.7516,-72.4653,Haiti,HT,HTI,Nord,Nord,HT-ND,department,,370.3,,,3,America/Port-au-Prince,FALSE,1332180103
"Nan Madeleine","Nan Madeleine",,18.5306,-73.8481,Haiti,HT,HTI,Grand’Anse,Grand'Anse,HT-GA,department,,189.4,,,4,America/Port-au-Prince,FALSE,1332752797
Mangou,Mangou,,18.3000,-72.4667,Haiti,HT,HTI,Sud-Est,Sud-Est,HT-SE,department,,393.8,,,3,America/Port-au-Prince,FALSE,1332246803
Abrio,Abrio,,19.0667,-72.1167,Haiti,HT,HTI,Centre,Centre,HT-CE,department,,421.5,,,3,America/Port-au-Prince,FALSE,1332182662
Jalousie,Jalousie,,18.4167,-72.4167,Haiti,HT,HTI,Ouest,Ouest,HT-OU,department,,234.4,,,3,America/Port-au-Prince,FALSE,1332752916
"Trou d’Eau","Trou d'Eau",,19.6333,-73.2500,Haiti,HT,HTI,Nord-Ouest,Nord-Ouest,HT-NO,department,,35.8,,,4,America/Port-au-Prince,FALSE,1332426257
"Palmistre Obio","Palmistre Obio",,18.4167,-72.4000,Haiti,HT,HTI,Ouest,Ouest,HT-OU,department,,337.7,,,3,America/Port-au-Prince,FALSE,1332749492
Yvon,Yvon,,18.3833,-73.0667,Haiti,HT,HTI,Nippes,Nippes,HT-NI,department,,1392.1,,,3,America/Port-au-Prince,FALSE,1332686536
Lalanne,Lalanne,,18.3126,-73.2542,Haiti,HT,HTI,Sud,Sud,HT-SD,department,,283.3,,,3,America/Port-au-Prince,FALSE,1332903056
Cholette,Cholette,Cholotte,18.7667,-72.0833,Haiti,HT,HTI,Centre,Centre,HT-CE,department,,1258.5,,,3,America/Port-au-Prince,FALSE,1332666154
"La Crête","La Crete",,19.1000,-72.4667,Haiti,HT,HTI,Artibonite,Artibonite,HT-AR,department,,1330.9,,,3,America/Port-au-Prince,FALSE,1332118258
"La Crête","La Crete",,19.5833,-72.6500,Haiti,HT,HTI,Artibonite,Artibonite,HT-AR,department,,477.1,,,3,America/Port-au-Prince,TRUE,1332649059
"Thomas Élie","Thomas Elie",,18.4833,-73.7667,Haiti,HT,HTI,Grand’Anse,Grand'Anse,HT-GA,department,,131.7,,,4,America/Port-au-Prince,FALSE,1332930657
"Chaîne Janvier","Chaine Janvier",,19.3500,-71.8167,Haiti,HT,HTI,Nord-Est,Nord-Est,HT-NE,department,,342.4,,,3,America/Port-au-Prince,FALSE,1332760370
"Dos d’Âne","Dos d'Ane",,19.7396,-73.1958,Haiti,HT,HTI,Nord-Ouest,Nord-Ouest,HT-NO,department,,315.4,,,3,America/Port-au-Prince,FALSE,1332330885
"La Vertu","La Vertu",,19.4667,-72.1000,Haiti,HT,HTI,Nord,Nord,HT-ND,department,,271.8,,,3,America/Port-au-Prince,FALSE,1332587569
Cachotte,Cachotte,,19.4000,-72.5333,Haiti,HT,HTI,Artibonite,Artibonite,HT-AR,department,,142.8,,,4,America/Port-au-Prince,FALSE,1332076313
"Belle Branche","Belle Branche",,19.1000,-71.9500,Haiti,HT,HTI,Centre,Centre,HT-CE,department,,172.2,,,4,America/Port-au-Prince,FALSE,1332993357
Poirier,Poirier,Poirter,19.2407,-72.6818,Haiti,HT,HTI,Artibonite,Artibonite,HT-AR,department,,396.0,,,3,America/Port-au-Prince,FALSE,1332897007
"Plaine Gélin","Plaine Gelin","Morne Gelin",18.6000,-74.1667,Haiti,HT,HTI,Grand’Anse,Grand'Anse,HT-GA,department,,325.7,,,3,America/Port-au-Prince,FALSE,1332241786
Bossa,Bossa,,19.4333,-72.4667,Haiti,HT,HTI,Artibonite,Artibonite,HT-AR,department,,344.5,,,3,America/Port-au-Prince,FALSE,1332946652
Domic,Domic,,19.5833,-72.0500,Haiti,HT,HTI,Nord,Nord,HT-ND,department,,688.6,,,3,America/Port-au-Prince,FALSE,1332680932
"Fond Vert","Fond Vert",,18.2667,-73.9000,Haiti,HT,HTI,Sud,Sud,HT-SD,department,,417.3,,,3,America/Port-au-Prince,FALSE,1332103376
Bricourt,Bricourt,,19.5851,-71.9037,Haiti,HT,HTI,Nord-Est,Nord-Est,HT-NE,department,,299.9,,,3,America/Port-au-Prince,FALSE,1332736774
Cadette,Cadette,,19.6500,-72.6000,Haiti,HT,HTI,Artibonite,Artibonite,HT-AR,department,,301.0,,,3,America/Port-au-Prince,FALSE,1332038433
"Platon Trou Bigaille","Platon Trou Bigaille","Trou Bigaille",18.8158,-73.0829,Haiti,HT,HTI,Ouest,Ouest,HT-OU,department,,67.7,,,4,America/Port-au-Prince,FALSE,1332363149
Brière,Briere,,18.1100,-73.8533,Haiti,HT,HTI,Sud,Sud,HT-SD,department,,377.7,,,3,America/Port-au-Prince,FALSE,1332041406
Baliane,Baliane,,18.3167,-72.9833,Haiti,HT,HTI,Ouest,Ouest,HT-OU,department,,66.1,,,4,America/Port-au-Prince,FALSE,1332651714
"Belle Terre","Belle Terre",,18.7667,-71.8333,Haiti,HT,HTI,Centre,Centre,HT-CE,department,,275.3,,,3,America/Port-au-Prince,FALSE,1332284022
Ducoste,Ducoste,,19.6333,-72.2333,Haiti,HT,HTI,Nord,Nord,HT-ND,department,,388.4,,,3,America/Port-au-Prince,FALSE,1332829610
"Carrefour Libo","Carrefour Libo",,18.4000,-73.5833,Haiti,HT,HTI,Sud,Sud,HT-SD,department,,192.6,,,4,America/Port-au-Prince,FALSE,1332682657
Pijotte,Pijotte,,19.7556,-73.0358,Haiti,HT,HTI,Nord-Ouest,Nord-Ouest,HT-NO,department,,267.9,,,3,America/Port-au-Prince,FALSE,1332469021
"Nan Pal","Nan Pal","Nam Pal",18.3734,-72.0279,Haiti,HT,HTI,Ouest,Ouest,HT-OU,department,,30.2,,,4,America/Port-au-Prince,FALSE,1332738293
Lefort,Lefort,,18.3559,-72.9128,Haiti,HT,HTI,Ouest,Ouest,HT-OU,department,,95.7,,,4,America/Port-au-Prince,FALSE,1332676043
Félipé,Felipe,"Rodio Félipé",19.0778,-71.8252,Haiti,HT,HTI,Centre,Centre,HT-CE,department,,256.3,,,3,America/Port-au-Prince,FALSE,1332664586
Calas,Calas,,19.7667,-72.4333,Haiti,HT,HTI,Nord,Nord,HT-ND,department,,1743.4,,,3,America/Port-au-Prince,FALSE,1332779575
Fleuriot,Fleuriot,,18.5667,-72.2667,Haiti,HT,HTI,Ouest,Ouest,HT-OU,department,,4411.0,,,2,America/Port-au-Prince,FALSE,1332885029
Fleuriot,Fleuriot,,18.7333,-71.9500,Haiti,HT,HTI,Ouest,Ouest,HT-OU,department,,216.7,,,3,America/Port-au-Prince,TRUE,1332696413
L’Anneau,L'Anneau,,19.5333,-72.2167,Haiti,HT,HTI,Nord,Nord,HT-ND,department,,285.4,,,3,America/Port-au-Prince,FALSE,1332001876
L’Étang,L'Etang,,18.2333,-73.9500,Haiti,HT,HTI,Sud,Sud,HT-SD,department,,583.2,,,3,America/Port-au-Prince,FALSE,1332352834
L’Étang,L'Etang,,18.3500,-73.2333,Haiti,HT,HTI,Sud,Sud,HT-SD,department,,447.9,,,3,America/Port-au-Prince,TRUE,1332362548
Bidal,Bidal,,18.8500,-71.8333,Haiti,HT,HTI,Centre,Centre,HT-CE,department,,347.4,,,3,America/Port-au-Prince,FALSE,1332014833
"Cote Garde","Cote Garde",,19.7000,-72.8667,Haiti,HT,HTI,Nord-Ouest,Nord-Ouest,HT-NO,department,,35.7,,,4,America/Port-au-Prince,FALSE,1332859875
Décidé,Decide,,19.0333,-72.1167,Haiti,HT,HTI,Centre,Centre,HT-CE,department,,316.3,,,3,America/Port-au-Prince,FALSE,1332896070
"Saut d’Eau Barada","Saut d'Eau Barada",,19.4833,-72.3667,Haiti,HT,HTI,Artibonite,Artibonite,HT-AR,department,,516.3,,,3,America/Port-au-Prince,FALSE,1332876390
"Carrefour Congo","Carrefour Congo","Congo Suzanne",18.2550,-72.7047,Haiti,HT,HTI,Sud-Est,Sud-Est,HT-SE,department,,265.9,,,3,America/Port-au-Prince,FALSE,1332372441
Saint-Francisque,Saint-Francisque,Francisque,19.4105,-72.3117,Haiti,HT,HTI,Artibonite,Artibonite,HT-AR,department,,471.3,,,3,America/Port-au-Prince,FALSE,1332379313
Dumornay,Dumornay,,18.5667,-72.2500,Haiti,HT,HTI,Ouest,Ouest,HT-OU,department,,4029.8,,,2,America/Port-au-Prince,FALSE,1332158467
Dumornay,Dumornay,,18.6519,-72.1264,Haiti,HT,HTI,Ouest,Ouest,HT-OU,department,,321.8,,,3,America/Port-au-Prince,TRUE,1332363125
Cassan,Cassan,,19.0667,-72.3167,Haiti,HT,HTI,Artibonite,Artibonite,HT-AR,department,,208.4,,,3,America/Port-au-Prince,FALSE,1332313403
Landry,Landry,,19.2141,-72.4230,Haiti,HT,HTI,Artibonite,Artibonite,HT-AR,department,,228.3,,,3,America/Port-au-Prince,FALSE,1332073873
Dimisaine,Dimisaine,,18.3680,-73.1373,Haiti,HT,HTI,Nippes,Nippes,HT-NI,department,,137.4,,,4,America/Port-au-Prince,FALSE,1332031856
"Cœur Brulé","Coeur Brule",,19.7167,-72.9167,Haiti,HT,HTI,Nord-Ouest,Nord-Ouest,HT-NO,department,,960.6,,,3,America/Port-au-Prince,FALSE,1332384338
Macabit,Macabit,,18.3667,-73.4500,Haiti,HT,HTI,Nippes,Nippes,HT-NI,department,,211.5,,,3,America/Port-au-Prince,FALSE,1332099228
Pillard,Pillard,,19.7000,-72.3000,Haiti,HT,HTI,Nord,Nord,HT-ND,department,,418.9,,,3,America/Port-au-Prince,FALSE,1332462960
"Petit Paradis","Petit Paradis",,20.0771,-72.8478,Haiti,HT,HTI,Nord-Ouest,Nord-Ouest,HT-NO,department,,227.2,,,3,America/Port-au-Prince,FALSE,1332883771
"Petit Paradis","Petit Paradis",,19.6667,-73.1667,Haiti,HT,HTI,Nord-Ouest,Nord-Ouest,HT-NO,department,,109.2,,,4,America/Port-au-Prince,TRUE,1332397495
Marceline,Marceline,,18.7709,-72.0328,Haiti,HT,HTI,Centre,Centre,HT-CE,department,,741.3,,,3,America/Port-au-Prince,FALSE,1332171700
"Plaine Rollin","Plaine Rollin",,19.5333,-72.5667,Haiti,HT,HTI,Artibonite,Artibonite,HT-AR,department,,115.8,,,4,America/Port-au-Prince,FALSE,1332120076
Dubois,Dubois,,19.1333,-72.4667,Haiti,HT,HTI,Artibonite,Artibonite,HT-AR,department,,1330.9,,,3,America/Port-au-Prince,FALSE,1332586464
Dubois,Dubois,,19.6167,-72.6000,Haiti,HT,HTI,Artibonite,Artibonite,HT-AR,department,,157.6,,,4,America/Port-au-Prince,TRUE,1332780450
"Fond Tristan","Fond Tristan",,18.4167,-72.8500,Haiti,HT,HTI,Ouest,Ouest,HT-OU,department,,3555.6,,,2,America/Port-au-Prince,FALSE,1332942325
Buron,Buron,,18.6667,-74.2500,Haiti,HT,HTI,Grand’Anse,Grand'Anse,HT-GA,department,,299.8,,,3,America/Port-au-Prince,FALSE,1332282533
"Le Beau","Le Beau",,18.4833,-73.5667,Haiti,HT,HTI,Nippes,Nippes,HT-NI,department,,289.3,,,3,America/Port-au-Prince,FALSE,1332784518
Nordet,Nordet,,18.8667,-72.2500,Haiti,HT,HTI,Centre,Centre,HT-CE,department,,237.5,,,3,America/Port-au-Prince,FALSE,1332877291
"Fond Mentin","Fond Mentin",,18.4167,-74.3833,Haiti,HT,HTI,Grand’Anse,Grand'Anse,HT-GA,department,,234.2,,,3,America/Port-au-Prince,FALSE,1332217959
Cusson,Cusson,,19.5109,-72.2731,Haiti,HT,HTI,Nord,Nord,HT-ND,department,,821.3,,,3,America/Port-au-Prince,FALSE,1332796047
Maillard,Maillard,,18.9000,-72.5500,Haiti,HT,HTI,Ouest,Ouest,HT-OU,department,,83.0,,,4,America/Port-au-Prince,FALSE,1332566031
"La Croc","La Croc",,18.1667,-71.8500,Haiti,HT,HTI,Sud-Est,Sud-Est,HT-SE,department,,169.7,,,4,America/Port-au-Prince,FALSE,1332283404
"Nan Perle","Nan Perle",,19.6333,-71.9624,Haiti,HT,HTI,Nord-Est,Nord-Est,HT-NE,department,,181.8,,,4,America/Port-au-Prince,FALSE,1332000076
D’Espagne,D'Espagne,,19.7667,-72.2000,Haiti,HT,HTI,Nord,Nord,HT-ND,department,,1764.5,,,3,America/Port-au-Prince,FALSE,1332500029
Nanterretiste,Nanterretiste,,18.8965,-73.1993,Haiti,HT,HTI,Ouest,Ouest,HT-OU,department,,84.7,,,4,America/Port-au-Prince,FALSE,1332417863
"Morne Folle","Morne Folle",,18.3167,-72.4833,Haiti,HT,HTI,Sud-Est,Sud-Est,HT-SE,department,,429.6,,,3,America/Port-au-Prince,FALSE,1332693085
Poisson,Poisson,,18.4333,-74.3833,Haiti,HT,HTI,Grand’Anse,Grand'Anse,HT-GA,department,,234.2,,,3,America/Port-au-Prince,FALSE,1332789695
Couma,Couma,,18.3833,-72.1500,Haiti,HT,HTI,Ouest,Ouest,HT-OU,department,,23.9,,,4,America/Port-au-Prince,FALSE,1332854659
Lacour,Lacour,,18.2333,-73.6667,Haiti,HT,HTI,Sud,Sud,HT-SD,department,,337.9,,,3,America/Port-au-Prince,FALSE,1332582316
"Trou Pélé","Trou Pele",,18.8333,-72.9833,Haiti,HT,HTI,Ouest,Ouest,HT-OU,department,,12.3,,,4,America/Port-au-Prince,FALSE,1332085697
"Grand Goude","Grand Goude",,19.5833,-71.7500,Haiti,HT,HTI,Nord-Est,Nord-Est,HT-NE,department,,1751.9,,,3,America/Port-au-Prince,FALSE,1332217945
Bélier,Belier,,19.5833,-72.3833,Haiti,HT,HTI,Nord,Nord,HT-ND,department,,409.7,,,3,America/Port-au-Prince,FALSE,1332141958
"Canal des Fourneaux","Canal des Fourneaux",,19.1167,-72.4667,Haiti,HT,HTI,Artibonite,Artibonite,HT-AR,department,,1330.9,,,3,America/Port-au-Prince,FALSE,1332833528
Desglacis,Desglacis,Desglaci,18.1447,-73.9119,Haiti,HT,HTI,Sud,Sud,HT-SD,department,,530.3,,,3,America/Port-au-Prince,FALSE,1332037914
Desglacis,Desglacis,Deglacis,18.3500,-73.8333,Haiti,HT,HTI,Sud,Sud,HT-SD,department,,333.4,,,3,America/Port-au-Prince,TRUE,1332678640
"Boucan Tache","Boucan Tache",,18.8667,-72.0333,Haiti,HT,HTI,Centre,Centre,HT-CE,department,,262.5,,,3,America/Port-au-Prince,FALSE,1332979068
Matinese,Matinese,,18.4167,-72.4333,Haiti,HT,HTI,Ouest,Ouest,HT-OU,department,,274.2,,,3,America/Port-au-Prince,FALSE,1332277720
Gondoyer,Gondoyer,,18.8500,-72.3667,Haiti,HT,HTI,Artibonite,Artibonite,HT-AR,department,,48.3,,,4,America/Port-au-Prince,FALSE,1332351998
"Nan Perrine","Nan Perrine",,18.3800,-72.9097,Haiti,HT,HTI,Ouest,Ouest,HT-OU,department,,43.1,,,4,America/Port-au-Prince,FALSE,1332099260
Facoun,Facoun,,19.1667,-72.3167,Haiti,HT,HTI,Artibonite,Artibonite,HT-AR,department,,281.4,,,3,America/Port-au-Prince,FALSE,1332988020
Gastel,Gastel,,18.4714,-73.5278,Haiti,HT,HTI,Nippes,Nippes,HT-NI,department,,289.3,,,3,America/Port-au-Prince,FALSE,1332129654
"Vieux Gaille","Vieux Gaille","Vieux Calle",19.4559,-71.8313,Haiti,HT,HTI,Nord-Est,Nord-Est,HT-NE,department,,114.2,,,4,America/Port-au-Prince,FALSE,1332675592
Maforouget,Maforouget,Maforouge,19.6394,-72.9472,Haiti,HT,HTI,Artibonite,Artibonite,HT-AR,department,,35.7,,,4,America/Port-au-Prince,FALSE,1332892738
Noyau,Noyau,,18.7000,-72.0833,Haiti,HT,HTI,Ouest,Ouest,HT-OU,department,,169.3,,,4,America/Port-au-Prince,FALSE,1332137073
"Bien Aimé","Bien Aime",,18.7310,-72.1959,Haiti,HT,HTI,Centre,Centre,HT-CE,department,,541.8,,,3,America/Port-au-Prince,FALSE,1332290146
"La Barette","La Barette","La Barrette",19.0667,-72.4000,Haiti,HT,HTI,Artibonite,Artibonite,HT-AR,department,,1322.1,,,3,America/Port-au-Prince,FALSE,1332830696
Georges,Georges,,18.1833,-73.9333,Haiti,HT,HTI,Sud,Sud,HT-SD,department,,493.5,,,3,America/Port-au-Prince,FALSE,1332566748
Georges,Georges,,18.3333,-74.3500,Haiti,HT,HTI,Sud,Sud,HT-SD,department,,214.4,,,3,America/Port-au-Prince,TRUE,1332466444
"Bambou Rigaud","Bambou Rigaud",,19.1500,-72.4333,Haiti,HT,HTI,Artibonite,Artibonite,HT-AR,department,,270.7,,,3,America/Port-au-Prince,FALSE,1332273406
"Nan Salès","Nan Sales","Nan Sales",18.5721,-74.1089,Haiti,HT,HTI,Grand’Anse,Grand'Anse,HT-GA,department,,282.7,,,3,America/Port-au-Prince,FALSE,1332203367
Nicolas,Nicolas,,18.9333,-72.1667,Haiti,HT,HTI,Centre,Centre,HT-CE,department,,222.5,,,3,America/Port-au-Prince,FALSE,1332575795
"Haut Jonc","Haut Jonc",,18.4833,-74.4167,Haiti,HT,HTI,Grand’Anse,Grand'Anse,HT-GA,department,,683.6,,,3,America/Port-au-Prince,FALSE,1332676889
Pelletant,Pelletant,,19.6667,-72.4167,Haiti,HT,HTI,Nord,Nord,HT-ND,department,,67.0,,,4,America/Port-au-Prince,FALSE,1332261844
"Campêche Félix","Campeche Felix",Campêche,18.8667,-72.1000,Haiti,HT,HTI,Centre,Centre,HT-CE,department,,131.6,,,4,America/Port-au-Prince,FALSE,1332867786
"Madame Constant","Madame Constant",,19.4667,-71.8167,Haiti,HT,HTI,Nord-Est,Nord-Est,HT-NE,department,,114.2,,,4,America/Port-au-Prince,FALSE,1332522387
"Bois Neuf","Bois Neuf",,19.7500,-72.5333,Haiti,HT,HTI,Nord,Nord,HT-ND,department,,479.7,,,3,America/Port-au-Prince,FALSE,1332474668
"Bois Neuf","Bois Neuf",,19.3500,-71.7833,Haiti,HT,HTI,Nord-Est,Nord-Est,HT-NE,department,,333.7,,,3,America/Port-au-Prince,FALSE,1332315682
"Bois Neuf","Bois Neuf",,18.4189,-73.5500,Haiti,HT,HTI,Nippes,Nippes,HT-NI,department,,303.8,,,3,America/Port-au-Prince,FALSE,1332414117
"Bas Canal","Bas Canal",,19.7167,-72.1333,Haiti,HT,HTI,Nord,Nord,HT-ND,department,,356.8,,,3,America/Port-au-Prince,FALSE,1332897779
"Brizard Nicole","Brizard Nicole",,19.7667,-72.7833,Haiti,HT,HTI,Nord-Ouest,Nord-Ouest,HT-NO,department,,264.1,,,3,America/Port-au-Prince,FALSE,1332713345
Taluy,Taluy,,18.2667,-72.2667,Haiti,HT,HTI,Sud-Est,Sud-Est,HT-SE,department,,434.4,,,3,America/Port-au-Prince,FALSE,1332033723
"Mare Georges","Mare Georges",,18.7167,-71.9000,Haiti,HT,HTI,Ouest,Ouest,HT-OU,department,,214.9,,,3,America/Port-au-Prince,FALSE,1332691229
Wampas,Wampas,,18.8500,-71.9167,Haiti,HT,HTI,Centre,Centre,HT-CE,department,,372.9,,,3,America/Port-au-Prince,FALSE,1332521002
Monto,Monto,,18.3333,-74.3167,Haiti,HT,HTI,Sud,Sud,HT-SD,department,,302.2,,,3,America/Port-au-Prince,FALSE,1332550370
Guignon,Guignon,,19.1000,-72.6667,Haiti,HT,HTI,Artibonite,Artibonite,HT-AR,department,,287.7,,,3,America/Port-au-Prince,FALSE,1332886047
Morron,Morron,,18.5667,-74.1333,Haiti,HT,HTI,Grand’Anse,Grand'Anse,HT-GA,department,,369.0,,,3,America/Port-au-Prince,FALSE,1332576524
"Maria Lapa","Maria Lapa",,19.2353,-71.9941,Haiti,HT,HTI,Centre,Centre,HT-CE,department,,153.9,,,4,America/Port-au-Prince,FALSE,1332352795
Carrier,Carrier,,19.6333,-71.9000,Haiti,HT,HTI,Nord-Est,Nord-Est,HT-NE,department,,56.9,,,4,America/Port-au-Prince,FALSE,1332406702
"Bassin Dessources","Bassin Dessources",,19.4333,-72.6167,Haiti,HT,HTI,Artibonite,Artibonite,HT-AR,department,,3276.2,,,2,America/Port-au-Prince,FALSE,1332079557
"Nan Mouine","Nan Mouine",,18.0472,-73.7972,Haiti,HT,HTI,Sud,Sud,HT-SD,department,,421.4,,,3,America/Port-au-Prince,FALSE,1332804101
Pavajonc,Pavajonc,"Pavjaons|Pava Jonc",19.0063,-72.6164,Haiti,HT,HTI,Artibonite,Artibonite,HT-AR,department,,269.4,,,3,America/Port-au-Prince,FALSE,1332510445
"Madame Lazarre","Madame Lazarre",,18.2628,-72.6658,Haiti,HT,HTI,Sud-Est,Sud-Est,HT-SE,department,,212.0,,,3,America/Port-au-Prince,FALSE,1332139253
"La Déca","La Deca",,18.3167,-72.8500,Haiti,HT,HTI,Ouest,Ouest,HT-OU,department,,74.0,,,4,America/Port-au-Prince,FALSE,1332788821
"La Croix","La Croix",,19.5833,-72.5500,Haiti,HT,HTI,Nord,Nord,HT-ND,department,,155.2,,,4,America/Port-au-Prince,FALSE,1332713120
"La Croix","La Croix",,19.6901,-72.4122,Haiti,HT,HTI,Nord,Nord,HT-ND,department,,67.0,,,4,America/Port-au-Prince,TRUE,1332977857
"La Boga","La Boga","Morne Boga",18.4386,-73.4218,Haiti,HT,HTI,Nippes,Nippes,HT-NI,department,,388.4,,,3,America/Port-au-Prince,FALSE,1332881777
Banique,Banique,,19.0833,-72.7000,Haiti,HT,HTI,Artibonite,Artibonite,HT-AR,department,,2147.3,,,2,America/Port-au-Prince,FALSE,1332982842
Tibo,Tibo,,18.5000,-74.3833,Haiti,HT,HTI,Grand’Anse,Grand'Anse,HT-GA,department,,238.3,,,3,America/Port-au-Prince,FALSE,1332414985
Campêche,Campeche,,19.1333,-72.0167,Haiti,HT,HTI,Centre,Centre,HT-CE,department,,421.5,,,3,America/Port-au-Prince,FALSE,1332368516
Nastrin,Nastrin,Nastrid,19.8310,-72.7690,Haiti,HT,HTI,Nord-Ouest,Nord-Ouest,HT-NO,department,,234.8,,,3,America/Port-au-Prince,FALSE,1332957915
Yannais,Yannais,,19.4500,-72.4833,Haiti,HT,HTI,Artibonite,Artibonite,HT-AR,department,,434.6,,,3,America/Port-au-Prince,FALSE,1332727290
Docine,Docine,,19.5167,-72.6167,Haiti,HT,HTI,Artibonite,Artibonite,HT-AR,department,,272.0,,,3,America/Port-au-Prince,FALSE,1332140599
Napipe,Napipe,,18.7116,-71.8841,Haiti,HT,HTI,Ouest,Ouest,HT-OU,department,,216.7,,,3,America/Port-au-Prince,FALSE,1332307345
"Poux de Bois","Poux de Bois",,18.7833,-72.3167,Haiti,HT,HTI,Ouest,Ouest,HT-OU,department,,60.0,,,4,America/Port-au-Prince,FALSE,1332803168
Viteau,Viteau,,19.7000,-72.5500,Haiti,HT,HTI,Nord,Nord,HT-ND,department,,401.3,,,3,America/Port-au-Prince,FALSE,1332414913
Mission,Mission,,18.3667,-73.6792,Haiti,HT,HTI,Sud,Sud,HT-SD,department,,51.5,,,4,America/Port-au-Prince,FALSE,1332771828
"Bois Pin Tombé","Bois Pin Tombe",,18.4167,-72.2333,Haiti,HT,HTI,Ouest,Ouest,HT-OU,department,,150.4,,,4,America/Port-au-Prince,FALSE,1332796562
Délorme,Delorme,,18.4500,-72.9500,Haiti,HT,HTI,Ouest,Ouest,HT-OU,department,,51.2,,,4,America/Port-au-Prince,FALSE,1332232779
Mononville,Mononville,,18.7863,-72.3055,Haiti,HT,HTI,Ouest,Ouest,HT-OU,department,,60.0,,,4,America/Port-au-Prince,FALSE,1332363459
"Nan Jumeau","Nan Jumeau","Nan Jeremie",19.1970,-71.7813,Haiti,HT,HTI,Centre,Centre,HT-CE,department,,231.3,,,3,America/Port-au-Prince,FALSE,1332886778
"Nan Aimé","Nan Aime",,19.7833,-72.9833,Haiti,HT,HTI,Nord-Ouest,Nord-Ouest,HT-NO,department,,330.8,,,3,America/Port-au-Prince,FALSE,1332681603
Larode,Larode,,19.4500,-71.7833,Haiti,HT,HTI,Nord-Est,Nord-Est,HT-NE,department,,140.1,,,4,America/Port-au-Prince,FALSE,1332587673
Cercadie,Cercadie,,19.3077,-72.0396,Haiti,HT,HTI,Nord,Nord,HT-ND,department,,367.9,,,3,America/Port-au-Prince,FALSE,1332257854
Vertières,Vertieres,,19.7333,-72.2244,Haiti,HT,HTI,Nord,Nord,HT-ND,department,,9206.0,,,2,America/Port-au-Prince,FALSE,1332956397
"La Coude","La Coude",,18.5550,-74.3211,Haiti,HT,HTI,Grand’Anse,Grand'Anse,HT-GA,department,,320.9,,,3,America/Port-au-Prince,FALSE,1332840884
Cadrien,Cadrien,,18.3833,-72.2667,Haiti,HT,HTI,Ouest,Ouest,HT-OU,department,,175.4,,,4,America/Port-au-Prince,FALSE,1332145644
"Pointe Sable","Pointe Sable",,18.6056,-73.7958,Haiti,HT,HTI,Grand’Anse,Grand'Anse,HT-GA,department,,131.7,,,4,America/Port-au-Prince,FALSE,1332817217
Tomaset,Tomaset,Tomasset,18.4603,-73.6167,Haiti,HT,HTI,Nippes,Nippes,HT-NI,department,,210.7,,,3,America/Port-au-Prince,FALSE,1332362289
Préchet,Prechet,,18.2245,-72.0335,Haiti,HT,HTI,Sud-Est,Sud-Est,HT-SE,department,,211.1,,,3,America/Port-au-Prince,FALSE,1332000024
Guion,Guion,,19.4167,-71.7500,Haiti,HT,HTI,Nord-Est,Nord-Est,HT-NE,department,,242.7,,,3,America/Port-au-Prince,FALSE,1332797743
"Jean Baptiste","Jean Baptiste",,18.4667,-74.2833,Haiti,HT,HTI,Grand’Anse,Grand'Anse,HT-GA,department,,83.8,,,4,America/Port-au-Prince,FALSE,1332669508
L’Étang,L'Etang,,18.4645,-73.6886,Haiti,HT,HTI,Nippes,Nippes,HT-NI,department,,385.0,,,3,America/Port-au-Prince,FALSE,1332906335
Shada,Shada,,19.7333,-72.2000,Haiti,HT,HTI,Nord,Nord,HT-ND,department,,8565.8,,,2,America/Port-au-Prince,FALSE,1332706037
"Nan Pros","Nan Pros",,19.6167,-72.0167,Haiti,HT,HTI,Nord,Nord,HT-ND,department,,373.5,,,3,America/Port-au-Prince,FALSE,1332756077
Canal,Canal,,19.6667,-72.5833,Haiti,HT,HTI,Nord,Nord,HT-ND,department,,307.2,,,3,America/Port-au-Prince,FALSE,1332234300
Mingny,Mingny,,19.6333,-72.0000,Haiti,HT,HTI,Nord,Nord,HT-ND,department,,181.0,,,4,America/Port-au-Prince,FALSE,1332165258
Parois,Parois,,19.4667,-72.0000,Haiti,HT,HTI,Nord-Est,Nord-Est,HT-NE,department,,179.9,,,4,America/Port-au-Prince,FALSE,1332590808
Mathurin,Mathurin,,19.5000,-71.7500,Haiti,HT,HTI,Nord-Est,Nord-Est,HT-NE,department,,222.3,,,3,America/Port-au-Prince,FALSE,1332896611
Docaut,Docaut,,18.3000,-72.6500,Haiti,HT,HTI,Sud-Est,Sud-Est,HT-SE,department,,648.0,,,3,America/Port-au-Prince,FALSE,1332723497
"Gros Moulin","Gros Moulin",,18.4272,-73.3775,Haiti,HT,HTI,Nippes,Nippes,HT-NI,department,,360.2,,,3,America/Port-au-Prince,FALSE,1332377516
Saintelus,Saintelus,,19.2667,-71.7333,Haiti,HT,HTI,Nord-Est,Nord-Est,HT-NE,department,,91.1,,,4,America/Santo_Domingo,FALSE,1332000021
Mombrun,Mombrun,,18.2989,-73.2244,Haiti,HT,HTI,Sud,Sud,HT-SD,department,,283.3,,,3,America/Port-au-Prince,FALSE,1332493038
Cacor,Cacor,"Ka Coq|Cacoq",18.0991,-73.6880,Haiti,HT,HTI,Sud,Sud,HT-SD,department,,380.9,,,3,America/Port-au-Prince,FALSE,1332458411
Mary,Mary,,19.1516,-72.5612,Haiti,HT,HTI,Artibonite,Artibonite,HT-AR,department,,1003.4,,,3,America/Port-au-Prince,FALSE,1332203460
Barada,Barada,,19.4833,-72.3667,Haiti,HT,HTI,Artibonite,Artibonite,HT-AR,department,,516.3,,,3,America/Port-au-Prince,FALSE,1332299076
"Nan Canne","Nan Canne",,18.7603,-72.9542,Haiti,HT,HTI,Ouest,Ouest,HT-OU,department,,5246.2,,,2,America/Port-au-Prince,FALSE,1332122812
L’Épinard,L'Epinard,Lépinard,18.9735,-72.4510,Haiti,HT,HTI,Artibonite,Artibonite,HT-AR,department,,338.3,,,3,America/Port-au-Prince,FALSE,1332151392
Obo,Obo,,19.7550,-73.1508,Haiti,HT,HTI,Nord-Ouest,Nord-Ouest,HT-NO,department,,521.8,,,3,America/Port-au-Prince,FALSE,1332194382
"Ti Maître","Ti Maitre",,19.4500,-71.9167,Haiti,HT,HTI,Nord-Est,Nord-Est,HT-NE,department,,162.6,,,4,America/Port-au-Prince,FALSE,1332590377
Éveillard,Eveillard,,18.3333,-72.6667,Haiti,HT,HTI,Ouest,Ouest,HT-OU,department,,438.7,,,3,America/Port-au-Prince,FALSE,1332593866
Zobodo,Zobodo,,18.2670,-72.6133,Haiti,HT,HTI,Sud-Est,Sud-Est,HT-SE,department,,353.2,,,3,America/Port-au-Prince,FALSE,1332302378
Fonfrède,Fonfrede,,18.2264,-73.7982,Haiti,HT,HTI,Sud,Sud,HT-SD,department,,202.0,,,3,America/Port-au-Prince,FALSE,1332754995
"Ca Reguy","Ca Reguy",,19.5000,-72.5167,Haiti,HT,HTI,Artibonite,Artibonite,HT-AR,department,,444.9,,,3,America/Port-au-Prince,FALSE,1332932594
"Trois Rigoles","Trois Rigoles","Trois Rigole",18.5542,-72.2250,Haiti,HT,HTI,Ouest,Ouest,HT-OU,department,,3469.3,,,2,America/Port-au-Prince,FALSE,1332210540
Gresseau,Gresseau,,18.9810,-72.6198,Haiti,HT,HTI,Artibonite,Artibonite,HT-AR,department,,529.5,,,3,America/Port-au-Prince,FALSE,1332125116
"Puits Chacha","Puits Chacha",Chacha,18.2181,-73.1119,Haiti,HT,HTI,Sud,Sud,HT-SD,department,,65.2,,,4,America/Port-au-Prince,FALSE,1332032468
"Ca Soie","Ca Soie",,19.1500,-72.0333,Haiti,HT,HTI,Centre,Centre,HT-CE,department,,421.4,,,3,America/Port-au-Prince,FALSE,1332360002
Malential,Malential,,19.1154,-71.8650,Haiti,HT,HTI,Centre,Centre,HT-CE,department,,393.3,,,3,America/Port-au-Prince,FALSE,1332062511
Simonette,Simonette,,19.7148,-72.3880,Haiti,HT,HTI,Nord,Nord,HT-ND,department,,116.8,,,4,America/Port-au-Prince,FALSE,1332203533
Matetraversa,Matetraversa,,19.1333,-72.1167,Haiti,HT,HTI,Centre,Centre,HT-CE,department,,368.2,,,3,America/Port-au-Prince,FALSE,1332311370
Coicou,Coicou,,18.1833,-72.7833,Haiti,HT,HTI,Sud-Est,Sud-Est,HT-SE,department,,281.5,,,3,America/Port-au-Prince,FALSE,1332570313
"Source Crabe","Source Crabe",,19.3667,-72.2833,Haiti,HT,HTI,Artibonite,Artibonite,HT-AR,department,,269.7,,,3,America/Port-au-Prince,FALSE,1332740829
Douyac,Douyac,,18.4500,-72.5333,Haiti,HT,HTI,Ouest,Ouest,HT-OU,department,,57.7,,,4,America/Port-au-Prince,FALSE,1332818505
Toutine,Toutine,Troutine,18.7167,-72.0500,Haiti,HT,HTI,Centre,Centre,HT-CE,department,,560.4,,,3,America/Port-au-Prince,FALSE,1332974212
Gaspard,Gaspard,,19.2093,-72.4907,Haiti,HT,HTI,Artibonite,Artibonite,HT-AR,department,,810.0,,,3,America/Port-au-Prince,FALSE,1332786663
Gaspard,Gaspard,,19.3333,-72.3833,Haiti,HT,HTI,Artibonite,Artibonite,HT-AR,department,,543.5,,,3,America/Port-au-Prince,TRUE,1332088404
Lundy,Lundy,,18.2333,-73.5833,Haiti,HT,HTI,Sud,Sud,HT-SD,department,,737.0,,,3,America/Port-au-Prince,FALSE,1332935402
Philibert,Philibert,,19.6554,-71.7748,Haiti,HT,HTI,Nord-Est,Nord-Est,HT-NE,department,,260.3,,,3,America/Port-au-Prince,FALSE,1332127036
"La Pointe","La Pointe",,18.8333,-72.5333,Haiti,HT,HTI,Ouest,Ouest,HT-OU,department,,3403.2,,,2,America/Port-au-Prince,FALSE,1332905386
"La Pointe","La Pointe",,18.6500,-71.8667,Haiti,HT,HTI,Ouest,Ouest,HT-OU,department,,457.6,,,3,America/Port-au-Prince,TRUE,1332076750
"La Pointe","La Pointe",,18.4892,-72.5812,Haiti,HT,HTI,Ouest,Ouest,HT-OU,department,,306.0,,,3,America/Port-au-Prince,TRUE,1332928221
Debouchette,Debouchette,,18.0833,-73.8667,Haiti,HT,HTI,Sud,Sud,HT-SD,department,,446.5,,,3,America/Port-au-Prince,FALSE,1332172178
Lagorge,Lagorge,,19.7667,-73.3500,Haiti,HT,HTI,Nord-Ouest,Nord-Ouest,HT-NO,department,,129.3,,,4,America/Port-au-Prince,FALSE,1332027828
Dolo,Dolo,,19.0676,-71.9525,Haiti,HT,HTI,Centre,Centre,HT-CE,department,,172.2,,,4,America/Port-au-Prince,FALSE,1332872876
"La Revoir","La Revoir","La Revoie|La Revoire",18.1490,-72.8118,Haiti,HT,HTI,Sud-Est,Sud-Est,HT-SE,department,,236.1,,,3,America/Port-au-Prince,FALSE,1332633489
Croix-Mulâtresse,Croix-Mulatresse,"Crois Mulatresse|Croix-Mulatsse",19.1500,-72.6667,Haiti,HT,HTI,Artibonite,Artibonite,HT-AR,department,,396.0,,,3,America/Port-au-Prince,FALSE,1332512902
"Mare Henry","Mare Henry",,18.3667,-73.5667,Haiti,HT,HTI,Sud,Sud,HT-SD,department,,177.1,,,4,America/Port-au-Prince,FALSE,1332790956
Ramadou,Ramadou,,19.8562,-73.2692,Haiti,HT,HTI,Nord-Ouest,Nord-Ouest,HT-NO,department,,296.9,,,3,America/Port-au-Prince,FALSE,1332444856
Pisque,Pisque,,18.3667,-72.4833,Haiti,HT,HTI,Sud-Est,Sud-Est,HT-SE,department,,308.9,,,3,America/Port-au-Prince,FALSE,1332073587
"Nan Bastrac","Nan Bastrac",,18.8568,-72.1223,Haiti,HT,HTI,Centre,Centre,HT-CE,department,,202.1,,,3,America/Port-au-Prince,FALSE,1332278019
Vion,Vion,,19.5667,-72.3500,Haiti,HT,HTI,Nord,Nord,HT-ND,department,,437.4,,,3,America/Port-au-Prince,FALSE,1332766386
Débauché,Debauche,,19.1167,-72.3333,Haiti,HT,HTI,Artibonite,Artibonite,HT-AR,department,,327.6,,,3,America/Port-au-Prince,FALSE,1332363290
Débauché,Debauche,,19.2946,-72.2809,Haiti,HT,HTI,Artibonite,Artibonite,HT-AR,department,,269.7,,,3,America/Port-au-Prince,TRUE,1332990376
"Platon Gine Paille","Platon Gine Paille",,19.2661,-72.4409,Haiti,HT,HTI,Artibonite,Artibonite,HT-AR,department,,270.4,,,3,America/Port-au-Prince,FALSE,1332489710
Duvoisin,Duvoisin,,19.4211,-72.4519,Haiti,HT,HTI,Artibonite,Artibonite,HT-AR,department,,358.0,,,3,America/Port-au-Prince,FALSE,1332703652
"Fond Bleu","Fond Bleu",,19.2020,-71.6555,Haiti,HT,HTI,Centre,Centre,HT-CE,department,,150.0,,,4,America/Port-au-Prince,FALSE,1332437974
Salomon,Salomon,,18.1000,-73.8667,Haiti,HT,HTI,Sud,Sud,HT-SD,department,,333.5,,,3,America/Port-au-Prince,FALSE,1332631873
"Savane à Roche","Savane a Roche","Savane a Roches",19.0110,-72.3670,Haiti,HT,HTI,Artibonite,Artibonite,HT-AR,department,,203.9,,,3,America/Port-au-Prince,FALSE,1332464133
"Mare Citron","Mare Citron",,19.1318,-71.9245,Haiti,HT,HTI,Centre,Centre,HT-CE,department,,209.9,,,3,America/Port-au-Prince,FALSE,1332000087
Moreau,Moreau,,19.1167,-72.5500,Haiti,HT,HTI,Artibonite,Artibonite,HT-AR,department,,1492.9,,,3,America/Port-au-Prince,FALSE,1332495684
"Pont Janvier","Pont Janvier",,18.6165,-72.1049,Haiti,HT,HTI,Ouest,Ouest,HT-OU,department,,34.9,,,4,America/Port-au-Prince,FALSE,1332091594
"Trois Rats","Trois Rats",,18.3500,-73.8333,Haiti,HT,HTI,Sud,Sud,HT-SD,department,,333.4,,,3,America/Port-au-Prince,FALSE,1332189151
Cacao,Cacao,,19.8333,-72.5000,Haiti,HT,HTI,Nord,Nord,HT-ND,department,,420.7,,,3,America/Port-au-Prince,FALSE,1332246822
Guillaumond,Guillaumond,Guillaumonde,18.2294,-72.2697,Haiti,HT,HTI,Sud-Est,Sud-Est,HT-SE,department,,497.4,,,3,America/Port-au-Prince,FALSE,1332118958
Chatelier,Chatelier,,18.3667,-73.3000,Haiti,HT,HTI,Nippes,Nippes,HT-NI,department,,408.1,,,3,America/Port-au-Prince,FALSE,1332473567
"Savane Marc","Savane Marc",,19.4000,-72.3500,Haiti,HT,HTI,Artibonite,Artibonite,HT-AR,department,,719.6,,,3,America/Port-au-Prince,FALSE,1332860830
Gaudin,Gaudin,Godin,19.0564,-72.5346,Haiti,HT,HTI,Artibonite,Artibonite,HT-AR,department,,463.4,,,3,America/Port-au-Prince,FALSE,1332782293
Bayeux,Bayeux,,18.6833,-73.7333,Haiti,HT,HTI,Grand’Anse,Grand'Anse,HT-GA,department,,0,,,5,America/Port-au-Prince,FALSE,1332453145
Bayado,Bayado,,18.4833,-73.4833,Haiti,HT,HTI,Nippes,Nippes,HT-NI,department,,171.0,,,4,America/Port-au-Prince,FALSE,1332495138
Roselière,Roseliere,,19.3507,-72.5628,Haiti,HT,HTI,Artibonite,Artibonite,HT-AR,department,,349.1,,,3,America/Port-au-Prince,FALSE,1332319266
Marcoux,Marcoux,,19.1667,-72.4667,Haiti,HT,HTI,Artibonite,Artibonite,HT-AR,department,,496.2,,,3,America/Port-au-Prince,FALSE,1332422316
Jessin,Jessin,,19.0333,-72.5333,Haiti,HT,HTI,Artibonite,Artibonite,HT-AR,department,,463.4,,,3,America/Port-au-Prince,FALSE,1332134465
Ménard,Menard,,18.5667,-74.1500,Haiti,HT,HTI,Grand’Anse,Grand'Anse,HT-GA,department,,376.0,,,3,America/Port-au-Prince,FALSE,1332496252
"Maïs Graisse","Mais Graisse",,18.8697,-71.7333,Haiti,HT,HTI,Centre,Centre,HT-CE,department,,424.5,,,3,America/Port-au-Prince,FALSE,1332409953
Colinette,Colinette,,18.3230,-72.7297,Haiti,HT,HTI,Ouest,Ouest,HT-OU,department,,237.6,,,3,America/Port-au-Prince,FALSE,1332443062
Villard,Villard,,19.6167,-72.4833,Haiti,HT,HTI,Nord,Nord,HT-ND,department,,1671.4,,,3,America/Port-au-Prince,FALSE,1332449349
"Roches Noires","Roches Noires",,18.8000,-72.2833,Haiti,HT,HTI,Ouest,Ouest,HT-OU,department,,63.5,,,4,America/Port-au-Prince,FALSE,1332386891
"Savane La Hatte","Savane La Hatte",,18.4667,-72.2000,Haiti,HT,HTI,Ouest,Ouest,HT-OU,department,,31.1,,,4,America/Port-au-Prince,FALSE,1332067543
Gouyvier,Gouyvier,,18.6833,-73.7667,Haiti,HT,HTI,Grand’Anse,Grand'Anse,HT-GA,department,,0,,,5,America/Port-au-Prince,FALSE,1332712781
Robion,Robion,Rabion,19.0154,-72.6337,Haiti,HT,HTI,Artibonite,Artibonite,HT-AR,department,,269.4,,,3,America/Port-au-Prince,FALSE,1332316015
Redon,Redon,,18.3333,-73.6167,Haiti,HT,HTI,Sud,Sud,HT-SD,department,,326.0,,,3,America/Port-au-Prince,FALSE,1332118915
"Sans Boute","Sans Boute",,18.9710,-71.9698,Haiti,HT,HTI,Centre,Centre,HT-CE,department,,263.3,,,3,America/Port-au-Prince,FALSE,1332034598
Celan,Celan,,20.0167,-72.7333,Haiti,HT,HTI,Nord-Ouest,Nord-Ouest,HT-NO,department,,391.1,,,3,America/Port-au-Prince,FALSE,1332174155
"Devant Barse","Devant Barse",,18.8667,-72.4500,Haiti,HT,HTI,Ouest,Ouest,HT-OU,department,,67.4,,,4,America/Port-au-Prince,FALSE,1332122653
Grivo,Grivo,,19.7167,-72.8500,Haiti,HT,HTI,Nord-Ouest,Nord-Ouest,HT-NO,department,,1025.3,,,3,America/Port-au-Prince,FALSE,1332963191
"Haut Dupuy","Haut Dupuy",,19.5500,-72.3667,Haiti,HT,HTI,Artibonite,Artibonite,HT-AR,department,,425.8,,,3,America/Port-au-Prince,FALSE,1332098142
Mocaya,Mocaya,,18.3333,-74.0167,Haiti,HT,HTI,Sud,Sud,HT-SD,department,,134.8,,,4,America/Port-au-Prince,FALSE,1332846571
Boujouque,Boujouque,,18.9717,-71.9914,Haiti,HT,HTI,Centre,Centre,HT-CE,department,,263.3,,,3,America/Port-au-Prince,FALSE,1332628798
"Mare Flanga","Mare Flanga",,18.2500,-71.9167,Haiti,HT,HTI,Sud-Est,Sud-Est,HT-SE,department,,265.5,,,3,America/Port-au-Prince,FALSE,1332800803
"Pain Ganot","Pain Ganot",,18.5000,-72.0000,Haiti,HT,HTI,Ouest,Ouest,HT-OU,department,,250.1,,,3,America/Port-au-Prince,FALSE,1332142208
"Bineau Blanche","Bineau Blanche",,18.4333,-72.9333,Haiti,HT,HTI,Ouest,Ouest,HT-OU,department,,824.1,,,3,America/Port-au-Prince,FALSE,1332733838
Motoban,Motoban,,18.2667,-72.8333,Haiti,HT,HTI,Sud-Est,Sud-Est,HT-SE,department,,184.8,,,4,America/Port-au-Prince,FALSE,1332133123
Carobal,Carobal,,19.4333,-72.4000,Haiti,HT,HTI,Artibonite,Artibonite,HT-AR,department,,357.8,,,3,America/Port-au-Prince,FALSE,1332092611
"Fond Tortue","Fond Tortue",,18.4626,-73.7080,Haiti,HT,HTI,Nippes,Nippes,HT-NI,department,,385.0,,,3,America/Port-au-Prince,FALSE,1332856837
Lezinc,Lezinc,,18.4500,-74.4667,Haiti,HT,HTI,Grand’Anse,Grand'Anse,HT-GA,department,,425.4,,,3,America/Port-au-Prince,FALSE,1332231389
Mercredi,Mercredi,,19.5500,-72.4500,Haiti,HT,HTI,Nord,Nord,HT-ND,department,,457.1,,,3,America/Port-au-Prince,FALSE,1332000540
"Grande Terre","Grande Terre",,18.2667,-72.4000,Haiti,HT,HTI,Sud-Est,Sud-Est,HT-SE,department,,700.0,,,3,America/Port-au-Prince,FALSE,1332969474
Robertal,Robertal,,19.2111,-72.1442,Haiti,HT,HTI,Centre,Centre,HT-CE,department,,142.0,,,4,America/Port-au-Prince,FALSE,1332157161
"Vieille Terre","Vieille Terre","Vieux Terre",19.5833,-72.4167,Haiti,HT,HTI,Nord,Nord,HT-ND,department,,41.9,,,4,America/Port-au-Prince,FALSE,1332999355
"Vieille Terre","Vieille Terre","Vieux Terre",19.8292,-73.0144,Haiti,HT,HTI,Nord-Ouest,Nord-Ouest,HT-NO,department,,330.8,,,3,America/Port-au-Prince,FALSE,1332094564
Damnous,Damnous,,19.2000,-72.4833,Haiti,HT,HTI,Artibonite,Artibonite,HT-AR,department,,810.0,,,3,America/Port-au-Prince,FALSE,1332843306
Deleme,Deleme,,19.7167,-73.4000,Haiti,HT,HTI,Nord-Ouest,Nord-Ouest,HT-NO,department,,387.0,,,3,America/Port-au-Prince,FALSE,1332523888
Prevoyance,Prevoyance,,19.5167,-71.7500,Haiti,HT,HTI,Nord-Est,Nord-Est,HT-NE,department,,564.4,,,3,America/Port-au-Prince,FALSE,1332183800
Cacique,Cacique,,18.2883,-73.1032,Haiti,HT,HTI,Sud,Sud,HT-SD,department,,182.8,,,4,America/Port-au-Prince,FALSE,1332218264
Apollon,Apollon,,19.7167,-72.7000,Haiti,HT,HTI,Artibonite,Artibonite,HT-AR,department,,605.5,,,3,America/Port-au-Prince,FALSE,1332121149
"Nan François","Nan Francois",,19.4092,-71.9069,Haiti,HT,HTI,Nord-Est,Nord-Est,HT-NE,department,,162.6,,,4,America/Port-au-Prince,FALSE,1332805937
Bérard,Berard,Berrard,19.2169,-72.5526,Haiti,HT,HTI,Artibonite,Artibonite,HT-AR,department,,790.2,,,3,America/Port-au-Prince,FALSE,1332230005
Pelicié,Pelicie,,19.7167,-73.3333,Haiti,HT,HTI,Nord-Ouest,Nord-Ouest,HT-NO,department,,207.6,,,3,America/Port-au-Prince,FALSE,1332459817
Rondo,Rondo,,18.9667,-72.1833,Haiti,HT,HTI,Centre,Centre,HT-CE,department,,222.5,,,3,America/Port-au-Prince,FALSE,1332322649
Maledemon,Maledemon,,19.4500,-71.8833,Haiti,HT,HTI,Nord-Est,Nord-Est,HT-NE,department,,67.0,,,4,America/Port-au-Prince,FALSE,1332125204
"Gros Liane","Gros Liane",,19.0667,-72.2333,Haiti,HT,HTI,Centre,Centre,HT-CE,department,,191.5,,,4,America/Port-au-Prince,FALSE,1332238108
Tranquille,Tranquille,,18.3167,-72.4500,Haiti,HT,HTI,Sud-Est,Sud-Est,HT-SE,department,,372.8,,,3,America/Port-au-Prince,FALSE,1332952885
"Cocoyer Duchene","Cocoyer Duchene",Cocoyer,18.4016,-73.2864,Haiti,HT,HTI,Nippes,Nippes,HT-NI,department,,396.1,,,3,America/Port-au-Prince,FALSE,1332376664
"Lan Palme","Lan Palme",,18.7244,-71.7797,Haiti,HT,HTI,Centre,Centre,HT-CE,department,,275.3,,,3,America/Port-au-Prince,FALSE,1332879033
"Derrière Goyave","Derriere Goyave",,18.5667,-74.4167,Haiti,HT,HTI,Grand’Anse,Grand'Anse,HT-GA,department,,472.3,,,3,America/Port-au-Prince,FALSE,1332531230
Dufort,Dufort,,19.4833,-71.8667,Haiti,HT,HTI,Nord-Est,Nord-Est,HT-NE,department,,51.4,,,4,America/Port-au-Prince,FALSE,1332359390
"La Croix","La Croix",,18.2208,-72.6119,Haiti,HT,HTI,Sud-Est,Sud-Est,HT-SE,department,,429.4,,,3,America/Port-au-Prince,FALSE,1332480136
"La Croix","La Croix",,18.3167,-72.4667,Haiti,HT,HTI,Sud-Est,Sud-Est,HT-SE,department,,393.8,,,3,America/Port-au-Prince,TRUE,1332847775
Marquis,Marquis,,19.6833,-72.1833,Haiti,HT,HTI,Nord,Nord,HT-ND,department,,519.0,,,3,America/Port-au-Prince,FALSE,1332078373
Desravines,Desravines,,19.5046,-72.1409,Haiti,HT,HTI,Nord,Nord,HT-ND,department,,256.3,,,3,America/Port-au-Prince,FALSE,1332843331
Bouloune,Bouloune,,19.0847,-71.9003,Haiti,HT,HTI,Centre,Centre,HT-CE,department,,393.3,,,3,America/Port-au-Prince,FALSE,1332565558
Bedoret,Bedoret,,19.5833,-72.4500,Haiti,HT,HTI,Nord,Nord,HT-ND,department,,463.2,,,3,America/Port-au-Prince,FALSE,1332049683
"Grand Rac","Grand Rac",,19.3142,-72.6335,Haiti,HT,HTI,Artibonite,Artibonite,HT-AR,department,,349.1,,,3,America/Port-au-Prince,FALSE,1332948876
"Grand Rac","Grand Rac",,19.5500,-72.5500,Haiti,HT,HTI,Artibonite,Artibonite,HT-AR,department,,101.7,,,4,America/Port-au-Prince,TRUE,1332768352
Déro,Dero,,18.3108,-72.9933,Haiti,HT,HTI,Sud-Est,Sud-Est,HT-SE,department,,308.8,,,3,America/Port-au-Prince,FALSE,1332924866
"Bas Cimetière","Bas Cimetiere",,19.5833,-72.4500,Haiti,HT,HTI,Nord,Nord,HT-ND,department,,463.2,,,3,America/Port-au-Prince,FALSE,1332846480
"Boucan Paiement","Boucan Paiement",,18.8285,-72.1576,Haiti,HT,HTI,Centre,Centre,HT-CE,department,,157.7,,,4,America/Port-au-Prince,FALSE,1332405299
"Passe La Boue","Passe La Boue",,19.2833,-72.3000,Haiti,HT,HTI,Artibonite,Artibonite,HT-AR,department,,171.6,,,4,America/Port-au-Prince,FALSE,1332247265
Plotier,Plotier,,18.8000,-72.1333,Haiti,HT,HTI,Centre,Centre,HT-CE,department,,112.0,,,4,America/Port-au-Prince,FALSE,1332973223
Grigri,Grigri,,18.2525,-72.4654,Haiti,HT,HTI,Sud-Est,Sud-Est,HT-SE,department,,1207.5,,,3,America/Port-au-Prince,FALSE,1332343380
"Bois Tombé","Bois Tombe",,18.2728,-71.9602,Haiti,HT,HTI,Sud-Est,Sud-Est,HT-SE,department,,244.4,,,3,America/Port-au-Prince,FALSE,1332554773
"Sable Cabaret","Sable Cabaret",,18.2282,-72.5546,Haiti,HT,HTI,Sud-Est,Sud-Est,HT-SE,department,,405.7,,,3,America/Port-au-Prince,FALSE,1332119246
Oranger,Oranger,,18.3333,-73.1333,Haiti,HT,HTI,Sud,Sud,HT-SD,department,,263.6,,,3,America/Port-au-Prince,FALSE,1332544640
Oranger,Oranger,,18.2500,-71.9000,Haiti,HT,HTI,Sud-Est,Sud-Est,HT-SE,department,,265.5,,,3,America/Port-au-Prince,FALSE,1332584507
"Nan Sabaise","Nan Sabaise","Nan Sabaisse",18.4505,-73.6302,Haiti,HT,HTI,Nippes,Nippes,HT-NI,department,,218.0,,,3,America/Port-au-Prince,FALSE,1332437512
Artaud,Artaud,,19.6504,-71.7509,Haiti,HT,HTI,Nord-Est,Nord-Est,HT-NE,department,,260.3,,,3,America/Port-au-Prince,FALSE,1332161153
"Vieux Caille Germain","Vieux Caille Germain",,19.0500,-72.5833,Haiti,HT,HTI,Artibonite,Artibonite,HT-AR,department,,181.0,,,4,America/Port-au-Prince,FALSE,1332761980
Mirebalaire,Mirebalaire,,18.4000,-72.1667,Haiti,HT,HTI,Ouest,Ouest,HT-OU,department,,23.9,,,4,America/Port-au-Prince,FALSE,1332671559
"Nan Mansolme","Nan Mansolme",,19.8333,-72.9500,Haiti,HT,HTI,Nord-Ouest,Nord-Ouest,HT-NO,department,,141.9,,,4,America/Port-au-Prince,FALSE,1332479056
"Source Rouge","Source Rouge",,18.4000,-74.3000,Haiti,HT,HTI,Sud,Sud,HT-SD,department,,278.2,,,3,America/Port-au-Prince,FALSE,1332056135
Tambouye,Tambouye,,18.2778,-72.6819,Haiti,HT,HTI,Sud-Est,Sud-Est,HT-SE,department,,212.0,,,3,America/Port-au-Prince,FALSE,1332424063
Bambi,Bambi,,19.6333,-72.5500,Haiti,HT,HTI,Nord,Nord,HT-ND,department,,308.6,,,3,America/Port-au-Prince,FALSE,1332051458
Canifice,Canifice,,19.7000,-72.7000,Haiti,HT,HTI,Artibonite,Artibonite,HT-AR,department,,2060.8,,,2,America/Port-au-Prince,FALSE,1332082571
"La Saline","La Saline",,19.9167,-72.9000,Haiti,HT,HTI,Nord-Ouest,Nord-Ouest,HT-NO,department,,188.2,,,4,America/Port-au-Prince,FALSE,1332770766
