city,city_ascii,city_alt,lat,lng,country,iso2,iso3,admin_name,admin_name_ascii,admin_code,admin_type,capital,density,population,population_proper,ranking,timezone,same_name,id
Baghdad,Baghdad,Baghdād|Beghdad|Bagdad,33.3153,44.3661,Iraq,IQ,IRQ,Baghdād,Baghdad,IQ-BG,governorate,primary,8909.2,6183000,8126755,1,Asia/Baghdad,FALSE,1368596238
Mosul,Mosul,"Mousl|Musił|Al Mosul|Mossoul|Moussoul|Al Mūşil|Al Mawşil",36.3400,43.1300,Iraq,IQ,IRQ,Nīnawá,Ninawa,IQ-NI,governorate,admin,585.6,1792000,1792000,1,Asia/Baghdad,FALSE,1368194914
"Al Başrah","Al Basrah",Bassora|Basrah|Basra|Bassra|Bussora|Busrah|Busra|Bassorah,30.5150,47.8100,Iraq,IQ,IRQ,"Al Başrah","Al Basrah",IQ-BA,governorate,admin,1727.7,1326564,1326564,1,Asia/Baghdad,FALSE,1368714645
Kirkuk,Kirkuk,"Kerkouk|Kirkūk|Karkuk|Kirkuk|Kerkuk|Karkh Slukh|Karkh Slukh|Karkūk",35.4667,44.3167,Iraq,IQ,IRQ,Karkūk,Karkuk,IQ-KI,governorate,admin,464.6,975000,975000,2,Asia/Baghdad,FALSE,1368344172
"As Sulaymānīyah","As Sulaymaniyah",Sulaimaniya|Al-Sulaimaniya|Slēmānī|Sleimāni|Sulaymānīyah|Sulaimania|Sulaimany|Sulaimanieh|Slêmanî,35.5572,45.4356,Iraq,IQ,IRQ,"As Sulaymānīyah","As Sulaymaniyah",IQ-SU,governorate,admin,509.1,878146,878146,2,Asia/Baghdad,FALSE,1368735317
"Ar Ramādī","Ar Ramadi",Ramadie|Ramadi|Rumādīyeh|Al-Rumadi|Ramadiyah|Rumādīya|Ramadieh,33.4258,43.2992,Iraq,IQ,IRQ,"Al Anbār","Al Anbar",IQ-AN,governorate,admin,114.2,874543,874543,2,Asia/Baghdad,FALSE,1368838855
Erbil,Erbil,Hawler|Arbeel|Hawlēr|Arbēla|Irbīl|Hewlêr|Arbīl,36.1912,44.0092,Iraq,IQ,IRQ,Arbīl,Arbil,IQ-AR,governorate,admin,70.5,846000,846000,2,Asia/Baghdad,FALSE,1368578192
"An Najaf","An Najaf","Al Najaf al Ashraf|Neshed Ali|Nedjef|Najaf|Meshed ’Ali|An Najaf al Ashraf",32.0000,44.3300,Iraq,IQ,IRQ,"An Najaf","An Najaf",IQ-NA,governorate,admin,698.9,724700,724700,2,Asia/Baghdad,FALSE,1368003357
Karbalā’,Karbala',"Kerbala|Meshed Hussein|Karbalaa|Kerbela|Meshed Hussain",32.6167,44.0333,Iraq,IQ,IRQ,Karbalā’,Karbala',IQ-KA,governorate,admin,507.9,690100,690100,2,Asia/Baghdad,FALSE,1368597794
"An Nāşirīyah","An Nasiriyah","Muntafik|Nasriye|Nasrie|Nasiriyeh|An Nāsirīya|Nāsirīyah|Al-Nasiriya|Muntifik",31.0439,46.2575,Iraq,IQ,IRQ,"Dhī Qār","Dhi Qar",IQ-DQ,governorate,admin,239.1,541600,541600,2,Asia/Baghdad,FALSE,1368273311
"Al Ḩillah","Al Hillah",Hilah|Al-Hella|Hillé|Hilla,32.4775,44.4314,Iraq,IQ,IRQ,Bābil,Babil,IQ-BB,governorate,admin,606.4,541034,541034,2,Asia/Baghdad,FALSE,1368916692
"Al ‘Amārah","Al `Amarah",‘Amāra|Amara|Amarah|Amaré,31.8333,47.1500,Iraq,IQ,IRQ,Maysān,Maysan,IQ-MA,governorate,admin,122.3,511500,511500,2,Asia/Baghdad,FALSE,1368336235
Ba‘qūbah,Ba`qubah,Baqubeh|Ba’qūba|Bakuba|Baquba,33.7500,44.6333,Iraq,IQ,IRQ,Diyālá,Diyala,IQ-DI,governorate,admin,189.3,467900,467900,2,Asia/Baghdad,FALSE,1368444902
"Ad Dīwānīyah","Ad Diwaniyah","Ad Dīwānīya|Ad Diwania|Al-Diwaniya|Hiska|Diwaniyeh|Diwaniyan|Dīwanīya|Diwanie",31.9892,44.9247,Iraq,IQ,IRQ,"Al Qādisīyah","Al Qadisiyah",IQ-QA,governorate,admin,217.9,391600,391600,2,Asia/Baghdad,FALSE,1368864006
"Az Zubayr","Az Zubayr","Az Zuhair|Az Zubair|Zubair|Zobier|El Zubair",30.3833,47.7000,Iraq,IQ,IRQ,"Al Başrah","Al Basrah",IQ-BA,governorate,minor,56.9,370000,370000,2,Asia/Baghdad,FALSE,1368147923
Sawrān,Sawran,"Diyana|Diyane|Diana|Soran|Diyānā|Qaryat Diyānā",36.6606,44.5508,Iraq,IQ,IRQ,Arbīl,Arbil,IQ-AR,governorate,minor,215.5,350000,350000,2,Asia/Baghdad,FALSE,1368321779
Dahūk,Dahuk,Dûhok|Dohuk|Duhuk|Dihōk|Duhok|Dihūk|Dihuk|Dihok,36.8667,43.0000,Iraq,IQ,IRQ,Dahūk,Dahuk,IQ-DA,governorate,admin,647.4,330600,330600,2,Asia/Baghdad,FALSE,1368137126
"Al Kūt","Al Kut","Kut-al-Almārah|Kūt al ‘Amārah|Kūt-al-Imārah|Kut al Imāra|Kūt",32.4907,45.8304,Iraq,IQ,IRQ,Wāsiţ,Wasit,IQ-WA,governorate,admin,124.5,321521,321521,2,Asia/Baghdad,FALSE,1368569694
"Ash Shāmīyah","Ash Shamiyah","Ummal Barur|Shamiya|Ash Shāmīya",31.9636,44.5989,Iraq,IQ,IRQ,"Al Qādisīyah","Al Qadisiyah",IQ-QA,governorate,minor,217.9,300000,300000,2,Asia/Baghdad,FALSE,1368487355
"Al Qurnah","Al Qurnah","Al Qurna|Qurnah",31.0158,47.4306,Iraq,IQ,IRQ,"Al Başrah","Al Basrah",IQ-BA,governorate,minor,117.1,286073,286073,2,Asia/Baghdad,FALSE,1368380047
"Al Ḩamzah","Al Hamzah","Quwām al Hamza|Qawām al Ḩamzah|Ḩamzah",31.7339,45.0086,Iraq,IQ,IRQ,"Al Qādisīyah","Al Qadisiyah",IQ-QA,governorate,minor,217.9,260000,260000,2,Asia/Baghdad,FALSE,1368300397
Rāniyah,Raniyah,Raniya|Rānia|Rānīyah|Raniyeh|Rānyah|Rānya|Ranya|Rania|Ṟaniye,36.2550,44.8836,Iraq,IQ,IRQ,"As Sulaymānīyah","As Sulaymaniyah",IQ-SU,governorate,minor,95.4,257577,257577,2,Asia/Baghdad,FALSE,1368214852
"Ash Shaţrah","Ash Shatrah","Shattrah el Muntifik|Shatrat al Muntafiq|Shatret el Muntefiq|Shatreh|Shattra|Shatra",31.4097,46.1717,Iraq,IQ,IRQ,"Dhī Qār","Dhi Qar",IQ-DQ,governorate,minor,261.3,254000,254000,2,Asia/Baghdad,FALSE,1368920164
"Sab‘ al Būr","Sab` al Bur","Sab al Bor|Saba’ al Bor",33.4644,44.1536,Iraq,IQ,IRQ,Baghdād,Baghdad,IQ-BG,governorate,,2467.6,254000,254000,2,Asia/Baghdad,FALSE,1368355296
"Al Fallūjah","Al Fallujah","Falluja|Al Fallūja|Al Falooja|Fallūjah|Feluja|Feludja",33.3500,43.7833,Iraq,IQ,IRQ,"Al Anbār","Al Anbar",IQ-AN,governorate,minor,186.3,250884,250884,2,Asia/Baghdad,FALSE,1368081888
Kalār,Kalar,Kalar|Kallār|Klar|Kelar,34.6292,45.3222,Iraq,IQ,IRQ,"As Sulaymānīyah","As Sulaymaniyah",IQ-SU,governorate,minor,113.7,250000,250000,2,Asia/Baghdad,FALSE,1368403789
"Abī al Khaşīb","Abi al Khasib","Abū al Khaşīb|Abul Khasib|Abī al Khuşayb",30.4411,47.9725,Iraq,IQ,IRQ,"Al Başrah","Al Basrah",IQ-BA,governorate,minor,178.7,240300,240300,2,Asia/Baghdad,FALSE,1368259214
"As Samāwah","As Samawah",SAMAWA|Samāwah|Samawa,31.3167,45.2833,Iraq,IQ,IRQ,"Al Muthanná","Al Muthanna",IQ-MU,governorate,admin,501.1,215000,215000,2,Asia/Baghdad,FALSE,1368246912
‘Aqrah,`Aqrah,Aora|Ākrē|Akra|Akre|‘Aqra|Akrê,36.7414,43.8933,Iraq,IQ,IRQ,Nīnawá,Ninawa,IQ-NI,governorate,minor,0,212000,212000,2,Asia/Baghdad,FALSE,1368123730
"At Tājī","At Taji","Tadjiya|Camp Taji|Tajidiyah|Kam Taji|Tajidie|Tājī",33.5092,44.2342,Iraq,IQ,IRQ,Baghdād,Baghdad,IQ-BG,governorate,,2467.6,200000,200000,2,Asia/Baghdad,FALSE,1368059456
Zākhū,Zakhu,Zaxu|Zakho|Zākhaw|Zaxo,37.1500,42.6833,Iraq,IQ,IRQ,Dahūk,Dahuk,IQ-DA,governorate,minor,631.8,197000,197000,2,Asia/Baghdad,FALSE,1368905231
"Abū Ghurayb","Abu Ghurayb","Abū Ghraib Farms|Mazārı‘ Abī Gharīb|Mazāri‘ Abī Ghurayb",33.2919,44.0656,Iraq,IQ,IRQ,Baghdād,Baghdad,IQ-BG,governorate,minor,1167.5,189000,189000,2,Asia/Baghdad,FALSE,1368635737
"Al Kūfah","Al Kufah","Kūfa|Qaḑā’ al Kūfah|Al Kūfa|Kūfah|Madīnat al Kūfah",32.0300,44.4000,Iraq,IQ,IRQ,"An Najaf","An Najaf",IQ-NA,governorate,minor,927.6,171305,171305,2,Asia/Baghdad,FALSE,1368929021
"Al Miqdādīyah","Al Miqdadiyah",Shahroban|Shahrābān|Muqdadiyah,33.9786,44.9369,Iraq,IQ,IRQ,Diyālá,Diyala,IQ-DI,governorate,minor,189.3,155968,155968,2,Asia/Baghdad,FALSE,1368045951
Sāmarrā’,Samarra',Saimarreh|Sāmarrah,34.1983,43.8742,Iraq,IQ,IRQ,"Şalāḩ ad Dīn","Salah ad Din",IQ-SD,governorate,minor,21.8,140400,140400,2,Asia/Baghdad,FALSE,1368265789
"Nāḩiyat Ghammās","Nahiyat Ghammas","Ghammās|Ghammās|Al Ghammās",31.7431,44.6194,Iraq,IQ,IRQ,"Al Qādisīyah","Al Qadisiyah",IQ-QA,governorate,,217.9,140000,140000,2,Asia/Baghdad,FALSE,1368372842
"Nāḩiyat Khān Banī Sa‘d","Nahiyat Khan Bani Sa`d","Banī Sa‘d|Khān Bani Sa‘ad|Khān Banī Sa‘d",33.5700,44.5411,Iraq,IQ,IRQ,Diyālá,Diyala,IQ-DI,governorate,,1121.4,127000,127000,2,Asia/Baghdad,FALSE,1368309131
"Ţūz Khūrmātū","Tuz Khurmatu","Touz Hourmato|Tozkhurmato|Tuz Kermatli|Tuz|Ţūz|Tuz Khurmatli|Tozkhurmatu|Khurmati|Ţūzkhūrmātū|Tuz Xurmatu",34.8772,44.6383,Iraq,IQ,IRQ,"Şalāḩ ad Dīn","Salah ad Din",IQ-SD,governorate,minor,93.8,119000,119000,2,Asia/Baghdad,FALSE,1368226016
"Salmān Bāk","Salman Bak","Salmān Pāk",33.1000,44.5833,Iraq,IQ,IRQ,Baghdād,Baghdad,IQ-BG,governorate,,114.9,117500,117500,2,Asia/Baghdad,FALSE,1368786572
"Ar Rumaythah","Ar Rumaythah",Rumeitheh|Rumaithah|Rumaith|Rumaitha|Al-Rumitha|Ubaiyidh|Rumetha,31.5209,45.2017,Iraq,IQ,IRQ,"Al Muthanná","Al Muthanna",IQ-MU,governorate,minor,181.3,115431,115431,2,Asia/Baghdad,FALSE,1368170086
"Qal‘at Sukkar","Qal`at Sukkar","Qal‘at Sikar|Qal‘at es Sikkar|Qal‘a Sikar",31.8589,46.0772,Iraq,IQ,IRQ,"Dhī Qār","Dhi Qar",IQ-DQ,governorate,,138.9,110000,110000,2,Asia/Baghdad,FALSE,1368815122
"Umm Qaşr","Umm Qasr","Um Kasr|Omolgasr",30.0342,47.9294,Iraq,IQ,IRQ,"Al Başrah","Al Basrah",IQ-BA,governorate,,56.9,107620,107620,2,Asia/Baghdad,FALSE,1368478549
Tikrīt,Tikrit,Tikret|Tekrit,34.6100,43.6800,Iraq,IQ,IRQ,"Şalāḩ ad Dīn","Salah ad Din",IQ-SD,governorate,admin,66.9,105700,105700,2,Asia/Baghdad,FALSE,1368199624
"Al Fāw","Al Faw","Al Faw|Fao|Fava|Fao Terminal",29.9758,48.4722,Iraq,IQ,IRQ,"Al Başrah","Al Basrah",IQ-BA,governorate,minor,32.7,105080,105080,2,Asia/Baghdad,FALSE,1368130668
"Nāḩiyat al Iskandarīyah","Nahiyat al Iskandariyah","Al Iskandarīyah|Iskanderiyeh|Iskandarīya|Sikandariyeh|Khan Iskandarīya|Iskenderie|Nāḩīyat al Iskandarīyah",32.9000,44.3500,Iraq,IQ,IRQ,Bābil,Babil,IQ-BB,governorate,,150.8,100600,100600,2,Asia/Baghdad,FALSE,1368051501
"Ad Dujayl","Ad Dujayl","Suneiki|Summeicha|Sumekche|Sumeikeh|Sumaīka|Sumaichah|Sumaicha|Nāḩiyat ad Dujayl|Nahiya Sumaīka|Al Ibrāhīmīyah|Sumaikcheh|Dujail|Dujayl|Sumeicha|Sumaykah",33.8389,44.2481,Iraq,IQ,IRQ,"Şalāḩ ad Dīn","Salah ad Din",IQ-SD,governorate,,103.3,100000,100000,3,Asia/Baghdad,FALSE,1368574619
Rawānduz,Rawanduz,"Roanduz|Rāwandūz|Rawandoz|Ruwan Duz|Roandiz|Revandis|Rawāndiz|Ruwāndūz|Ruwāndiz|Rowandūz|Rewandus|Rawndoz|Ṟewanduz|Rawanduze|Ṟuwandiz|Ruwāndiz",36.6119,44.5247,Iraq,IQ,IRQ,Arbīl,Arbil,IQ-AR,governorate,minor,215.5,95089,95089,3,Asia/Baghdad,FALSE,1368066834
"Nāḩiyat al Karmah","Nahiyat al Karmah","Al Karmah",33.4042,43.9133,Iraq,IQ,IRQ,"Al Anbār","Al Anbar",IQ-AN,governorate,,186.3,95000,95000,3,Asia/Baghdad,FALSE,1368548065
"Al Hindīyah","Al Hindiyah","Tuwairīj|Hindīya|Qaḑā’ al Hindīyah|Ţuwayrīj|Tuwairji",32.5442,44.2197,Iraq,IQ,IRQ,Karbalā’,Karbala',IQ-KA,governorate,minor,1638.2,84100,84100,3,Asia/Baghdad,FALSE,1368398173
"Al Ḩayy","Al Hayy","Al Hai|Kut al Hai|Al Hay",32.1667,46.0500,Iraq,IQ,IRQ,Wāsiţ,Wasit,IQ-WA,governorate,minor,99.7,82900,82900,3,Asia/Baghdad,FALSE,1368988553
"Imam Qasim","Imam Qasim","Al Qāsim|Qāsim|Nāḩiyat al Qāsim",32.3014,44.6892,Iraq,IQ,IRQ,Bābil,Babil,IQ-BB,governorate,,276.3,81500,81500,3,Asia/Baghdad,FALSE,1368437331
"Tall ‘Afar","Tall `Afar","Tall‘afar|Tala'afar|Tal Afar|Tel Afar|Tal ‘Afar|Tele‘fer",36.3742,42.4433,Iraq,IQ,IRQ,Nīnawá,Ninawa,IQ-NI,governorate,minor,122.1,80000,80000,3,Asia/Baghdad,FALSE,1368564375
"Aş Şuwayrah","As Suwayrah",Suweiri|Suwaira|Juweimiseh|Suweireh|Sewairah|Jumeiseh|Jazīra,32.9403,44.6344,Iraq,IQ,IRQ,Wāsiţ,Wasit,IQ-WA,governorate,minor,143.7,77200,77200,3,Asia/Baghdad,FALSE,1368498003
"Al Musayyib","Al Musayyib","Musayyib|Musaīyib|Mosayab|Museyib|Al Musaiyib",32.7786,44.2900,Iraq,IQ,IRQ,Bābil,Babil,IQ-BB,governorate,minor,606.4,76454,76454,3,Asia/Baghdad,FALSE,1368000434
"Al Qā’im","Al Qa'im","Ḩuşaybah|Kseba|Kaşībah|Qsībā|Quşaybah|Dulaym al Ḩusaybah|Hsaiba|El Qa’im|El Kaim|Al-Qaim|Markaz Qaḑā‘ al Qā‘im",34.3688,41.0945,Iraq,IQ,IRQ,"Al Anbār","Al Anbar",IQ-AN,governorate,minor,23.5,74100,74100,3,Asia/Baghdad,FALSE,1368231138
Saymayl,Saymayl,Summayl|Sumayl|Sumel|Semel|Summail|Simel|Sīmayl|Samīl|Summēl|Sumêl|Sêmêl,36.8583,42.8501,Iraq,IQ,IRQ,Dahūk,Dahuk,IQ-DA,governorate,minor,604.9,71557,71557,3,Asia/Baghdad,FALSE,1368902174
"An Nu‘mānīyah","An Nu`maniyah","Bughaila|Baghela|Baghailah|Bogheili|Bogheileh|Al Bughaylah|Na’amiya|N‘amānīya|Bghailah|Bughaylah",32.5000,45.3333,Iraq,IQ,IRQ,Wāsiţ,Wasit,IQ-WA,governorate,minor,143.7,71000,71000,3,Asia/Baghdad,FALSE,1368555186
"Az Zubaydīyah","Az Zubaydiyah",Zubaydīyah|Zubedīya|Ḩamīdīyah,32.7588,45.1773,Iraq,IQ,IRQ,Wāsiţ,Wasit,IQ-WA,governorate,,127.8,70000,70000,3,Asia/Baghdad,FALSE,1368931413
Hīt,Hit,Hit,33.6450,42.8264,Iraq,IQ,IRQ,"Al Anbār","Al Anbar",IQ-AN,governorate,minor,25.5,66700,66700,3,Asia/Baghdad,FALSE,1368649537
Jamjamāl,Jamjamal,Shamshamāl|Chemchemāl|Chamchamāl|Chamchamal|Chemchemał,35.5333,44.8333,Iraq,IQ,IRQ,"As Sulaymānīyah","As Sulaymaniyah",IQ-SU,governorate,minor,90.5,65300,65300,3,Asia/Baghdad,FALSE,1368297719
Ḩalabjah,Halabjah,"Hełebce|Qaḑā’ Ḩalabchah|Halabja",35.1833,45.9833,Iraq,IQ,IRQ,"As Sulaymānīyah","As Sulaymaniyah",IQ-SU,governorate,minor,40.8,65200,65200,3,Asia/Baghdad,FALSE,1368595428
Balad,Balad,Belad|Beled,34.0164,44.1453,Iraq,IQ,IRQ,"Şalāḩ ad Dīn","Salah ad Din",IQ-SD,governorate,minor,103.3,62817,62817,3,Asia/Baghdad,FALSE,1368077707
"Sayyid Şādiq","Sayyid Sadiq","Saiyid Sadiq|Said Sadiq|Seyid Sadiq|Seyyed Şādeq|Seyid Ṣadiq",35.3536,45.8667,Iraq,IQ,IRQ,"As Sulaymānīyah","As Sulaymaniyah",IQ-SU,governorate,minor,100.4,61600,61600,3,Asia/Baghdad,FALSE,1368535515
Bayjī,Bayji,Baiji,34.9292,43.4931,Iraq,IQ,IRQ,"Şalāḩ ad Dīn","Salah ad Din",IQ-SD,governorate,minor,33.8,60000,60000,3,Asia/Baghdad,FALSE,1368780727
"As Sa‘dīyah","As Sa`diyah","Sa‘diyah|As Sa‘dīya|Qizil Robat|Sa‘diye|Al-Saadiyh|Qizil Ribat|Sa‘diyeh",34.1906,45.1208,Iraq,IQ,IRQ,Diyālá,Diyala,IQ-DI,governorate,,44.7,47213,47213,3,Asia/Baghdad,TRUE,1368439343
Ḩadīthah,Hadithah,"Al Ḩadīthah|Haditha",34.1397,42.3781,Iraq,IQ,IRQ,"Al Anbār","Al Anbar",IQ-AN,governorate,minor,26.2,46500,46500,3,Asia/Baghdad,FALSE,1368900463
"Al ‘Azīzīyah","Al `Aziziyah","Azīzīyah|Azizīya|Al ‘Aziziya|Azizie|‘Aziziyeh|Al-Azīzya",32.9083,45.0667,Iraq,IQ,IRQ,Wāsiţ,Wasit,IQ-WA,governorate,minor,80.3,44868,44868,3,Asia/Baghdad,FALSE,1368091168
"Tāzah Khūrmātū","Tazah Khurmatu","Tazah Khormatu|Tāza Khurmātū|Taza Khormatu|Taza Khurmath|Taza Khurmatu|Tāzat Khūrmātū|Taze Xurmatû",35.3028,44.3286,Iraq,IQ,IRQ,Karkūk,Karkuk,IQ-KI,governorate,,27.6,40000,40000,3,Asia/Baghdad,FALSE,1368922262
"Al Hāshimīyah","Al Hashimiyah",Hashimiyah|Hāshimīya|Jarbuīyah|Jarbū‘īya|Al-Hashimiya,32.3664,44.6581,Iraq,IQ,IRQ,Bābil,Babil,IQ-BB,governorate,minor,276.3,37300,37300,3,Asia/Baghdad,FALSE,1368037848
Qalādizay,Qaladizay,"Dizah|Qaladiz|Qeładizê|Qalādizī|Qaladza|Qeładize|Qaladiza|Qala Dīzeh|Qalā Diza|Qal‘at Dizah",36.1833,45.1278,Iraq,IQ,IRQ,"As Sulaymānīyah","As Sulaymaniyah",IQ-SU,governorate,minor,61.4,36792,36792,3,Asia/Baghdad,FALSE,1368327633
"Al Jabāyish","Al Jabayish","Ash Shebaish|Al Kabā’ish|Chabaish|Kibaish|Al Jabā’ish|Al Chabāysh|Al Chabaish|Kabayish|Al Chabāyish|Kabaish|Chubeish",30.9549,46.9751,Iraq,IQ,IRQ,"Dhī Qār","Dhi Qar",IQ-DQ,governorate,minor,52.6,36100,36100,3,Asia/Baghdad,FALSE,1368506768
Buhriz,Buhriz,Bohriz|Bahriz,33.7000,44.6667,Iraq,IQ,IRQ,Diyālá,Diyala,IQ-DI,governorate,,189.3,35400,35400,3,Asia/Baghdad,FALSE,1368638747
"Al Ḩamdānīyah","Al Hamdaniyah","Qarah Qūsh|Al Hamdaniya|Qaḑā’ al Ḩamdānīyah|Qaraqosh|Bakhdīdā|Bakhdeda",36.2697,43.3775,Iraq,IQ,IRQ,Nīnawá,Ninawa,IQ-NI,governorate,minor,125.0,35000,35000,3,Asia/Baghdad,FALSE,1368523059
Kifrī,Kifri,"Zeng Ābād|Sallahiyah|Sallahiya|Salahiyeh|Salāhīya|Kufrī|Kiffrī|Salahie|Kifrî",34.6833,44.9667,Iraq,IQ,IRQ,Diyālá,Diyala,IQ-DI,governorate,minor,19.1,32870,32870,3,Asia/Baghdad,FALSE,1368292327
"Madīnat al Ḩabbānīyah","Madinat al Habbaniyah","Al Habbaniya|Al Ḩabbānīyah|Habbaniyeh|Ḩabbānīyah|Habbānīya",33.3667,43.5667,Iraq,IQ,IRQ,"Al Anbār","Al Anbar",IQ-AN,governorate,,116.4,32300,32300,3,Asia/Baghdad,FALSE,1368678108
"Khānah Sūr","Khanah Sur","Khān as Sūr|Khana Sor|Khina Sûr",36.4731,41.6161,Iraq,IQ,IRQ,Nīnawá,Ninawa,IQ-NI,governorate,,60.2,31161,31161,3,Asia/Baghdad,FALSE,1368503455
‘Aynkāwah,`Aynkawah,"Ainkawa|Ankawa|Markaz ‘Aynkāwah|‘Eynkawa",36.2292,43.9936,Iraq,IQ,IRQ,Arbīl,Arbil,IQ-AR,governorate,minor,215.5,30000,30000,3,Asia/Baghdad,FALSE,1368335955
Jalawlā’,Jalawla',"Qarah Ghān|Jalawlah|Qaraghān|Jalaula|Jalula|Jalūlā’",34.2719,45.1681,Iraq,IQ,IRQ,Diyālá,Diyala,IQ-DI,governorate,,44.7,30000,30000,3,Asia/Baghdad,FALSE,1368851231
Mandalī,Mandali,Mendéli|Mendali,33.7333,45.5500,Iraq,IQ,IRQ,Diyālá,Diyala,IQ-DI,governorate,,17.5,29882,29882,3,Asia/Baghdad,FALSE,1368763045
Ḩarīr,Harir,"Harir|Ḧerîr|Herîr|Dayrah Ḩarīr",36.5517,44.3516,Iraq,IQ,IRQ,Arbīl,Arbil,IQ-AR,governorate,,215.5,28518,28518,3,Asia/Baghdad,FALSE,1368699269
"Ar Ruţbah","Ar Rutbah","Rutbah|Rutba|Al Rutbah",33.0381,40.2844,Iraq,IQ,IRQ,"Al Anbār","Al Anbar",IQ-AN,governorate,minor,0.4,28400,28400,3,Asia/Baghdad,FALSE,1368174661
"Aş Şaqlāwīyah","As Saqlawiyah",Şaklāwīyah|Saqlāwīyd|Saqlāwīya,33.3964,43.6833,Iraq,IQ,IRQ,"Al Anbār","Al Anbar",IQ-AN,governorate,,186.3,25000,25000,3,Asia/Baghdad,FALSE,1368898863
Shaqlāwah,Shaqlawah,Shaglāwa|Shaqlawa|Shaqlāwa|Shaklawa|Sheqławe|Shaqlwah,36.4056,44.3208,Iraq,IQ,IRQ,Arbīl,Arbil,IQ-AR,governorate,minor,215.5,25000,25000,3,Asia/Baghdad,FALSE,1368884610
Makhmūr,Makhmur,Mokhmur|Makhmur|Mexmur|Mexmûr,35.7756,43.5794,Iraq,IQ,IRQ,Arbīl,Arbil,IQ-AR,governorate,minor,36.7,23828,23828,3,Asia/Baghdad,FALSE,1368589887
"Nāḩiyat al Kifl","Nahiyat al Kifl","Kefil|Kefl|Kifl|Kafil|Al Kifl",32.2242,44.3767,Iraq,IQ,IRQ,Bābil,Babil,IQ-BB,governorate,,20.1,22800,22800,3,Asia/Baghdad,FALSE,1368308216
Sinjār,Sinjar,Shingal|Sncar|Sincar|Shengal|Sinjar,36.3225,41.8642,Iraq,IQ,IRQ,Nīnawá,Ninawa,IQ-NI,governorate,minor,60.2,22549,22549,3,Asia/Baghdad,FALSE,1368057870
Zurbāţīyah,Zurbatiyah,Zorbātīya|Zarbātīyeh|Zurbatiya|Zurbātiyeh,33.1500,46.0500,Iraq,IQ,IRQ,Wāsiţ,Wasit,IQ-WA,governorate,,8.0,22400,22400,3,Asia/Baghdad,FALSE,1368601094
Anah,Anah,"Madīnat ‘Anah al Jadīdah|‘Anah al Jadīdah|Ar Rīḩānah|Ar Rayḩānah|Madīnat ‘Annat al Jadīdah|Rayḩānah|‘Annah al Jadīdah|‘Annah",34.3722,41.9875,Iraq,IQ,IRQ,"Al Anbār","Al Anbar",IQ-AN,governorate,minor,0,21000,21000,3,Asia/Baghdad,FALSE,1368909811
Kūysinjaq,Kuysinjaq,"Koisnjaq|Koye|Kou Senjaq|Koi Sanjaq|Koy Senjaq|Kou Senaq|Koysinceq|Kawīyah|Kuwaysinjaq|Kūyah|Koysinjaq",36.0833,44.6333,Iraq,IQ,IRQ,Arbīl,Arbil,IQ-AR,governorate,minor,10.3,19878,19878,3,Asia/Baghdad,FALSE,1368937180
Rāwah,Rawah,Rawa,34.4686,41.9167,Iraq,IQ,IRQ,"Al Anbār","Al Anbar",IQ-AN,governorate,minor,0,19629,19629,3,Asia/Baghdad,FALSE,1368442139
"Tall Qaşab","Tall Qasab",,36.2583,41.9431,Iraq,IQ,IRQ,Nīnawá,Ninawa,IQ-NI,governorate,,60.2,18000,18000,3,Asia/Baghdad,FALSE,1368840597
"Ash Shaykhān","Ash Shaykhan","‘Eyn Sifnî|Ain Sifni|Ain Sufni|Shikhan|‘Ayn Sifnī|Shêxan|Îsifnê",36.6917,43.3500,Iraq,IQ,IRQ,Nīnawá,Ninawa,IQ-NI,governorate,minor,78.7,17766,17766,3,Asia/Baghdad,FALSE,1368512457
Bāţūfah,Batufah,Batifa|Batîfa|Batufe|Batūfa|Batufa|Batofa|Batufa,37.1744,43.0132,Iraq,IQ,IRQ,Dahūk,Dahuk,IQ-DA,governorate,minor,631.8,17186,17186,3,Asia/Baghdad,FALSE,1368000329
"Aḑ Ḑulū‘īyah","Ad Dulu`iyah",Dholuiya,34.0500,44.2000,Iraq,IQ,IRQ,"Şalāḩ ad Dīn","Salah ad Din",IQ-SD,governorate,,21.8,17000,17000,3,Asia/Baghdad,FALSE,1368869426
Sinūnī,Sinuni,Sunūnī|Sinoni|Sinunî|Sinony,36.4575,41.7061,Iraq,IQ,IRQ,Nīnawá,Ninawa,IQ-NI,governorate,,60.2,16798,16798,3,Asia/Baghdad,FALSE,1368606100
"Maşīf Sarsink","Masif Sarsink",Sarsang|Sersîng|Sarsing|Sersink|Sarsink|Sarsank|Serseng,37.0333,43.3333,Iraq,IQ,IRQ,Dahūk,Dahuk,IQ-DA,governorate,,141.8,16766,16766,3,Asia/Baghdad,FALSE,1368000421
"Ḩammām al ‘Alīl","Hammam al `Alil","Hamām al ‘Alil|Ḩammam al ‘Aīl|Hamam Ali|Nāḩiyat Ḩammām al ‘Alīl",36.1581,43.2594,Iraq,IQ,IRQ,Nīnawá,Ninawa,IQ-NI,governorate,,20.8,15985,15985,3,Asia/Baghdad,FALSE,1368957629
Barţalah,Bartalah,"Bartila|Barţallah|Bard Allāh",36.3522,43.3797,Iraq,IQ,IRQ,Nīnawá,Ninawa,IQ-NI,governorate,,125.0,15000,15000,3,Asia/Baghdad,FALSE,1368230046
Amirlī,Amirli,Amurlī|Amarliya|‘Umarliya|‘Umarlīyah|Amarliyah,34.7250,44.5875,Iraq,IQ,IRQ,"Şalāḩ ad Dīn","Salah ad Din",IQ-SD,governorate,,93.8,15000,15000,3,Asia/Baghdad,FALSE,1368331180
"Tall Banāt","Tall Banat","Tal Banat|Tel Benat",36.2550,42.0164,Iraq,IQ,IRQ,Nīnawá,Ninawa,IQ-NI,governorate,,60.2,14000,14000,3,Asia/Baghdad,FALSE,1368054893
Kūhbil,Kuhbil,Gohbil|Guhbl,36.5133,41.9542,Iraq,IQ,IRQ,Nīnawá,Ninawa,IQ-NI,governorate,,60.2,13281,13281,3,Asia/Baghdad,FALSE,1368670995
Khānaqīn,Khanaqin,Khāneqīn|Khanikin|Khaniqin|Khāneqeyn|Khanaqeen|Kanaqin|Xaneqîn,34.3333,45.3833,Iraq,IQ,IRQ,Diyālá,Diyala,IQ-DI,governorate,minor,44.7,11791,11791,3,Asia/Baghdad,FALSE,1368075472
Mahād,Mahad,"Mihad|Muhad|Kumelgeha Mehetê|Muhād|Mihd",36.6472,43.4117,Iraq,IQ,IRQ,Nīnawá,Ninawa,IQ-NI,governorate,,78.7,11000,11000,3,Asia/Baghdad,FALSE,1368572891
"Al ‘Amādīyah","Al `Amadiyah","Amedy|Amedi|Amēdī|Al Amadiya|Amādīyeh|Amādia|Amîdî|‘Amādīyah|‘Amādīya|Amêdî",37.0925,43.4872,Iraq,IQ,IRQ,Dahūk,Dahuk,IQ-DA,governorate,minor,141.8,11000,11000,3,Asia/Baghdad,FALSE,1368510045
"Āltūn Kawbrī","Altun Kawbri","Altun Kopru|Kupri|Altin Kopru|Altoon Kopry|Altun Kupri|Altuni Kopri|Altunkopri|Pirdē|Keupri|Altūn Kūbrī|Ałtûn Koprî",35.7533,44.1436,Iraq,IQ,IRQ,Karkūk,Karkuk,IQ-KI,governorate,,64.4,9275,9275,4,Asia/Baghdad,FALSE,1368208612
Kubaysah,Kubaysah,"Qubaysah|Qaryat Kubaysah|Kebeiseh|Kebeisa|Kubaisa|Kabaisa",33.5928,42.6156,Iraq,IQ,IRQ,"Al Anbār","Al Anbar",IQ-AN,governorate,,25.5,8000,8000,4,Asia/Baghdad,FALSE,1368666809
Barwānah,Barwanah,,34.0992,42.3892,Iraq,IQ,IRQ,"Al Anbār","Al Anbar",IQ-AN,governorate,minor,26.2,7000,7000,3,Asia/Baghdad,FALSE,1368876368
"Al Baghdādī","Al Baghdadi","Khan Baghdadi|Khān al Baghdādī|Khān Bagdādi|Fort Bagdadiah",33.8500,42.5500,Iraq,IQ,IRQ,"Al Anbār","Al Anbar",IQ-AN,governorate,,25.5,5000,5000,4,Asia/Baghdad,FALSE,1368371104
"Al Walīd","Al Walid",,33.4332,38.9374,Iraq,IQ,IRQ,"Al Anbār","Al Anbar",IQ-AN,governorate,,0.1,4373,4373,4,Asia/Baghdad,FALSE,1368300361
Dāyrābūn,Dayrabun,Dêrebun|Derabon|Dêrebûn|Dāyrāyūn|Dayrabūn,37.0842,42.4283,Iraq,IQ,IRQ,Dahūk,Dahuk,IQ-DA,governorate,,631.8,4241,4241,3,Asia/Baghdad,FALSE,1368501092
"An Nukhayb","An Nukhayb","Nukhayb|Al-Nukhiab|Nukhayb Police Post",32.0411,42.2547,Iraq,IQ,IRQ,"Al Anbār","Al Anbar",IQ-AN,governorate,,0.4,4000,4000,4,Asia/Baghdad,FALSE,1368907934
Bāmarnī,Bamarni,Bamerne|Bāmami|Bamarny|Bameṟnî|Bamirni|Bamerni|Bamarne|Bameṟnê,37.1211,43.2692,Iraq,IQ,IRQ,Dahūk,Dahuk,IQ-DA,governorate,minor,141.8,1957,1957,3,Asia/Baghdad,FALSE,1368065984
Ḩardān,Hardan,Hardan|Herdan,36.4750,42.1056,Iraq,IQ,IRQ,Nīnawá,Ninawa,IQ-NI,governorate,,62.6,1917,1917,4,Asia/Baghdad,FALSE,1368143991
Māwat,Mawat,Mawat|Mawet|Māwet,35.9000,45.4167,Iraq,IQ,IRQ,"As Sulaymānīyah","As Sulaymaniyah",IQ-SU,governorate,minor,27.3,1464,1464,3,Asia/Baghdad,FALSE,1368948704
"Sayy Kardān","Sayy Kardan","Kōtān|Kūfan|Sayh Girdakān|Sēgirdkān|Seh Girdkān|Say Girdahkān|Se Grdan|Sai-Gerdakān|Kūtān|Sê Girdan",35.8718,44.4420,Iraq,IQ,IRQ,Arbīl,Arbil,IQ-AR,governorate,,215.5,1308,1308,3,Asia/Baghdad,FALSE,1368000520
"Kānī Māsī","Kani Masi","Kanî Masê|Kāni Mase|Ain Nuni|Kani Mase|Kaniya Mase|Kani Masy|Kany Masy|Kanî Masî",37.2278,43.4372,Iraq,IQ,IRQ,Dahūk,Dahuk,IQ-DA,governorate,minor,141.8,1062,1062,3,Asia/Baghdad,FALSE,1368000298
"Qaryat Karamlays","Qaryat Karamlays","Keramlais|Kirmalays|Karamlish|Karemlesh|Qaryat Kiramlīs",36.3036,43.4128,Iraq,IQ,IRQ,Nīnawá,Ninawa,IQ-NI,governorate,,125.0,1000,1000,4,Asia/Baghdad,FALSE,1368433043
Sharfīyah,Sharfiyah,"Ash Sharāfīyah|Sharafia|Sherefye",36.6889,43.0961,Iraq,IQ,IRQ,Nīnawá,Ninawa,IQ-NI,governorate,,252.6,500,500,3,Asia/Baghdad,FALSE,1368147423
"Sharānish Naşārá","Sharanish Nasara","Shiranish|Sharānish Naşārā|Sharansh|Sharanish Nasara|Sheranish Nesara",37.2339,42.8461,Iraq,IQ,IRQ,Dahūk,Dahuk,IQ-DA,governorate,,631.8,220,220,3,Asia/Baghdad,FALSE,1368586265
Afak,Afak,"Afag|Sok el Afej|Afaq",32.0625,45.2428,Iraq,IQ,IRQ,"Al Qādisīyah","Al Qadisiyah",IQ-QA,governorate,minor,217.9,75,75,3,Asia/Baghdad,FALSE,1368549091
"Gūlah Jaw","Gulah Jaw",Kulajō|Qulaju|Quiaju,34.4654,45.1675,Iraq,IQ,IRQ,Diyālá,Diyala,IQ-DI,governorate,,44.7,,,4,Asia/Baghdad,FALSE,1368478780
Suwaynākh,Suwaynakh,Suwīnah|Suwīnakh,34.2611,42.3047,Iraq,IQ,IRQ,"Al Anbār","Al Anbar",IQ-AN,governorate,,26.2,,,4,Asia/Baghdad,FALSE,1368833740
"Shaykh Watmān","Shaykh Watman","Shêx Wetman|Ash Shaykh ‘Uthmān|Shaikh Utman|Shekh Watman",36.6173,44.9140,Iraq,IQ,IRQ,Arbīl,Arbil,IQ-AR,governorate,,215.5,,,3,Asia/Baghdad,FALSE,1368911931
Janīrān,Janiran,Junayrān,36.3675,44.3908,Iraq,IQ,IRQ,Arbīl,Arbil,IQ-AR,governorate,,215.5,,,3,Asia/Baghdad,FALSE,1368848466
"Qaryat Budaywī Radān","Qaryat Budaywi Radan",,33.1985,44.4480,Iraq,IQ,IRQ,Baghdād,Baghdad,IQ-BG,governorate,,5654.5,,,2,Asia/Baghdad,FALSE,1368000039
"Ḩamzat ‘Abbās","Hamzat `Abbas",,32.3628,44.9825,Iraq,IQ,IRQ,Bābil,Babil,IQ-BB,governorate,,276.3,,,3,Asia/Baghdad,FALSE,1368071204
"Al Barz","Al Barz",Bārīz|Barriz,31.0635,47.3846,Iraq,IQ,IRQ,"Al Başrah","Al Basrah",IQ-BA,governorate,,210.6,,,3,Asia/Baghdad,FALSE,1368970042
"Yāsir Jāsim","Yasir Jasim",,32.2892,44.7887,Iraq,IQ,IRQ,Bābil,Babil,IQ-BB,governorate,,276.3,,,3,Asia/Baghdad,FALSE,1368715767
"‘Alī Āwā","`Ali Awa",Aliyawa|‘Alīāwa|‘Elyawa,35.4468,45.3951,Iraq,IQ,IRQ,"As Sulaymānīyah","As Sulaymaniyah",IQ-SU,governorate,,509.1,,,3,Asia/Baghdad,FALSE,1368485205
"Muḩammad Ḩasānī","Muhammad Hasani",,33.9053,44.9370,Iraq,IQ,IRQ,Diyālá,Diyala,IQ-DI,governorate,,189.3,,,4,Asia/Baghdad,FALSE,1368084905
"Yāsīn ‘Abūd","Yasin `Abud",,34.2635,43.9216,Iraq,IQ,IRQ,"Şalāḩ ad Dīn","Salah ad Din",IQ-SD,governorate,,21.8,,,4,Asia/Baghdad,FALSE,1368945867
"Qaryat Kubaybah","Qaryat Kubaybah",,36.0134,43.3774,Iraq,IQ,IRQ,Nīnawá,Ninawa,IQ-NI,governorate,,125.0,,,4,Asia/Baghdad,FALSE,1368889620
Khānalah,Khanalah,Khānala|Khanale|Xanelê,36.0953,45.1278,Iraq,IQ,IRQ,"As Sulaymānīyah","As Sulaymaniyah",IQ-SU,governorate,,47.4,,,4,Asia/Baghdad,FALSE,1368239653
"Qaryat al Kaşş","Qaryat al Kass",,32.4242,44.3013,Iraq,IQ,IRQ,Bābil,Babil,IQ-BB,governorate,,2215.5,,,2,Asia/Baghdad,FALSE,1368151498
"‘Alī Sa‘d","`Ali Sa`d",,33.4950,44.0757,Iraq,IQ,IRQ,"Al Anbār","Al Anbar",IQ-AN,governorate,,186.3,,,4,Asia/Baghdad,FALSE,1368782965
"Ḩamad Nimr","Hamad Nimr",,33.6686,44.1351,Iraq,IQ,IRQ,Baghdād,Baghdad,IQ-BG,governorate,,3141.4,,,2,Asia/Baghdad,FALSE,1368884306
"Dārī Qalān","Dari Qalan","Dāriqulān|Dar-î Qelan",35.3011,45.7073,Iraq,IQ,IRQ,"As Sulaymānīyah","As Sulaymaniyah",IQ-SU,governorate,,73.3,,,4,Asia/Baghdad,FALSE,1368970538
"Kêle Sipî","Kele Sipi","Kela Spi",36.7017,44.0979,Iraq,IQ,IRQ,Nīnawá,Ninawa,IQ-NI,governorate,,0,,,5,Asia/Baghdad,FALSE,1368646855
"Dashtī Lawkah","Dashti Lawkah","Dashti Loka|Deshtî Loke|Dashtī Lawkā|Dasht-i Lōka|Deshte Lok",36.6192,44.3969,Iraq,IQ,IRQ,Arbīl,Arbil,IQ-AR,governorate,,215.5,,,3,Asia/Baghdad,FALSE,1368773867
"‘Arab Salūm","`Arab Salum",Sālūm,34.1258,44.8457,Iraq,IQ,IRQ,Diyālá,Diyala,IQ-DI,governorate,,44.7,,,4,Asia/Baghdad,FALSE,1368279405
"Qaryat al Lakālik","Qaryat al Lakalik",,34.9856,43.5685,Iraq,IQ,IRQ,"Şalāḩ ad Dīn","Salah ad Din",IQ-SD,governorate,,66.9,,,4,Asia/Baghdad,FALSE,1368760851
"Qarīyat Zahrā’","Qariyat Zahra'",,33.4317,44.5275,Iraq,IQ,IRQ,Diyālá,Diyala,IQ-DI,governorate,,234.1,,,3,Asia/Baghdad,FALSE,1368000031
"Qaryat al Abiyaḑ","Qaryat al Abiyad",,32.0602,45.3716,Iraq,IQ,IRQ,"Al Qādisīyah","Al Qadisiyah",IQ-QA,governorate,,217.9,,,3,Asia/Baghdad,FALSE,1368294414
"Nāv Āshān","Nav Ashan","Navāshān|Nav Ashan",37.0617,42.9081,Iraq,IQ,IRQ,Dahūk,Dahuk,IQ-DA,governorate,,647.4,,,3,Asia/Baghdad,FALSE,1368686385
La‘bīd,La`bid,"Al ‘Ubayd|Dibaîd|Dbaid",36.6539,42.0057,Iraq,IQ,IRQ,Nīnawá,Ninawa,IQ-NI,governorate,,122.1,,,4,Asia/Baghdad,FALSE,1368075962
"Qaryat al Ḩawuz al Sharqī","Qaryat al Hawuz al Sharqi",,32.9131,44.9103,Iraq,IQ,IRQ,Wāsiţ,Wasit,IQ-WA,governorate,,143.7,,,4,Asia/Baghdad,FALSE,1368313676
"Farḩān al Ḩasan","Farhan al Hasan",,32.4080,44.7061,Iraq,IQ,IRQ,Bābil,Babil,IQ-BB,governorate,,276.3,,,3,Asia/Baghdad,FALSE,1368082522
"‘Arab Mahdī al Ḩulū","`Arab Mahdi al Hulu",,34.2446,43.7490,Iraq,IQ,IRQ,"Şalāḩ ad Dīn","Salah ad Din",IQ-SD,governorate,,111.2,,,4,Asia/Baghdad,FALSE,1368165915
"Al Khān","Al Khan",Xan|Khan,36.3698,42.0460,Iraq,IQ,IRQ,Nīnawá,Ninawa,IQ-NI,governorate,,60.2,,,4,Asia/Baghdad,FALSE,1368823371
"Sayyid Ḩamīd","Sayyid Hamid","Said Hamid|Seyd Ḧemîd",35.3150,44.0186,Iraq,IQ,IRQ,Karkūk,Karkuk,IQ-KI,governorate,,118.2,,,4,Asia/Baghdad,FALSE,1368055252
"‘Arab Ţalāl Muḩammad ‘Alī","`Arab Talal Muhammad `Ali",,32.2745,44.7791,Iraq,IQ,IRQ,Bābil,Babil,IQ-BB,governorate,,276.3,,,3,Asia/Baghdad,FALSE,1368070300
"Qaryat as Safīnah","Qaryat as Safinah","Makhlaţ|Mexlat|Makhlat|As Safīnah",35.9813,43.3399,Iraq,IQ,IRQ,Nīnawá,Ninawa,IQ-NI,governorate,,585.6,,,3,Asia/Baghdad,FALSE,1368862848
"Shaḩīd ‘Alá Gāţ‘","Shahid `Ala Gat`",,32.2950,46.0960,Iraq,IQ,IRQ,Wāsiţ,Wasit,IQ-WA,governorate,,99.7,,,4,Asia/Baghdad,FALSE,1368513910
"Ḩasan Khalaf","Hasan Khalaf",,35.1980,44.0112,Iraq,IQ,IRQ,Karkūk,Karkuk,IQ-KI,governorate,,118.2,,,4,Asia/Baghdad,FALSE,1368307301
"Ḩasan Khalaf","Hasan Khalaf",,35.4483,43.2902,Iraq,IQ,IRQ,Karkūk,Karkuk,IQ-KI,governorate,,118.2,,,4,Asia/Baghdad,TRUE,1368805902
"As Salmān","As Salman",Al-Saliman,30.5044,44.5392,Iraq,IQ,IRQ,"Al Muthanná","Al Muthanna",IQ-MU,governorate,minor,0.2,,,3,Asia/Baghdad,FALSE,1368807878
Nizārah,Nizarah,Nizare|Nazareh|Nizār|Nzara,35.6815,45.9610,Iraq,IQ,IRQ,"As Sulaymānīyah","As Sulaymaniyah",IQ-SU,governorate,,38.6,,,4,Asia/Baghdad,FALSE,1368575635
"Qaryat al Farghūl","Qaryat al Farghul",,35.2215,43.9922,Iraq,IQ,IRQ,Karkūk,Karkuk,IQ-KI,governorate,,118.2,,,4,Asia/Baghdad,FALSE,1368698065
"Jāsim Mūjid","Jasim Mujid",,32.4611,44.9704,Iraq,IQ,IRQ,Bābil,Babil,IQ-BB,governorate,,256.0,,,3,Asia/Baghdad,FALSE,1368887619
"Mullā Sulţān","Mulla Sultan",,31.9747,44.5940,Iraq,IQ,IRQ,"Al Qādisīyah","Al Qadisiyah",IQ-QA,governorate,,217.9,,,3,Asia/Baghdad,FALSE,1368336323
"‘Armūţ Ḩassūn","`Armut Hassun",,32.0742,44.5454,Iraq,IQ,IRQ,"An Najaf","An Najaf",IQ-NA,governorate,,927.6,,,3,Asia/Baghdad,FALSE,1368426536
"Īshān ‘Armīzān","Ishan `Armizan","Ishān Rumayzān",32.2250,44.3536,Iraq,IQ,IRQ,Bābil,Babil,IQ-BB,governorate,,2215.5,,,2,Asia/Baghdad,FALSE,1368172420
"‘Umar Āghā Khān Wālī Rustam","`Umar Agha Khan Wali Rustam","‘Umar Āghā Khān|Omer Agha Jan|‘Umer Agha|‘Umer Agha Can Ḧisên",35.0183,45.3359,Iraq,IQ,IRQ,"As Sulaymānīyah","As Sulaymaniyah",IQ-SU,governorate,,113.7,,,4,Asia/Baghdad,FALSE,1368302515
Nūrah,Nurah,Noora|Nore,36.3504,44.7672,Iraq,IQ,IRQ,"As Sulaymānīyah","As Sulaymaniyah",IQ-SU,governorate,,95.4,,,4,Asia/Baghdad,FALSE,1368065465
Nūrah,Nurah,Nura,35.4555,44.8796,Iraq,IQ,IRQ,"As Sulaymānīyah","As Sulaymaniyah",IQ-SU,governorate,,90.5,,,4,Asia/Baghdad,TRUE,1368227442
"Falaḩ al Amāmī","Falah al Amami",,31.3363,45.4089,Iraq,IQ,IRQ,"Al Muthanná","Al Muthanna",IQ-MU,governorate,,501.1,,,3,Asia/Baghdad,FALSE,1368532812
"‘Ābid Salmān","`Abid Salman",,32.2812,44.4734,Iraq,IQ,IRQ,Bābil,Babil,IQ-BB,governorate,,1395.8,,,3,Asia/Baghdad,FALSE,1368627269
"Ālbū Shamandar","Albu Shamandar",,32.4090,44.6044,Iraq,IQ,IRQ,Bābil,Babil,IQ-BB,governorate,,276.3,,,3,Asia/Baghdad,FALSE,1368191867
Mufrawda’,Mufrawda',,33.7667,42.7167,Iraq,IQ,IRQ,"Al Anbār","Al Anbar",IQ-AN,governorate,,25.5,,,4,Asia/Baghdad,FALSE,1368798204
"Jamīl Şabrī","Jamil Sabri",,33.4946,44.3118,Iraq,IQ,IRQ,Baghdād,Baghdad,IQ-BG,governorate,,4451.1,,,2,Asia/Baghdad,FALSE,1368731077
"Qaryat Kuwām ‘Abd Allāh","Qaryat Kuwam `Abd Allah",,32.2451,44.7407,Iraq,IQ,IRQ,Bābil,Babil,IQ-BB,governorate,,276.3,,,3,Asia/Baghdad,FALSE,1368119845
"‘Alī Şubayḩah","`Ali Subayhah","Şabīkhah|Āl Şabīkhah|Subakha|Āl Sabīkha|Āl Şubayḩah",31.1705,45.7523,Iraq,IQ,IRQ,"Al Muthanná","Al Muthanna",IQ-MU,governorate,,100.6,,,4,Asia/Baghdad,FALSE,1368734709
"‘Umrān al Ḩusayn","`Umran al Husayn",,31.9559,44.4649,Iraq,IQ,IRQ,"An Najaf","An Najaf",IQ-NA,governorate,,927.6,,,3,Asia/Baghdad,FALSE,1368459075
"Jāsim Ghāfil","Jasim Ghafil",,34.2065,43.7420,Iraq,IQ,IRQ,"Şalāḩ ad Dīn","Salah ad Din",IQ-SD,governorate,,111.2,,,4,Asia/Baghdad,FALSE,1368590967
"Buyūt al Kuwām","Buyut al Kuwam",,31.0608,46.5565,Iraq,IQ,IRQ,"Dhī Qār","Dhi Qar",IQ-DQ,governorate,,239.1,,,3,Asia/Baghdad,FALSE,1368710817
"Abū Rūbah","Abu Rubah","Abū Rūba|Abū Riyāḩ",31.4333,47.3667,Iraq,IQ,IRQ,Maysān,Maysan,IQ-MA,governorate,,117.6,,,4,Asia/Baghdad,FALSE,1368990855
"Qaryat ‘Abd Allāh al Aḩmad","Qaryat `Abd Allah al Ahmad","Shaikh ‘Abdul Karim|Shaykh ‘Abd al Karūm|Shaykh ‘Abd al Karīm",33.6061,44.6112,Iraq,IQ,IRQ,Diyālá,Diyala,IQ-DI,governorate,,888.5,,,3,Asia/Baghdad,FALSE,1368729190
"Kandālah Qal","Kandalah Qal","Kandah Laqal|Kanda Laqa|Kandālaqal|Kandalatal|Kendałe Tel",35.7979,43.8170,Iraq,IQ,IRQ,Arbīl,Arbil,IQ-AR,governorate,,36.7,,,4,Asia/Baghdad,FALSE,1368000467
"Shayshikal Ḩājjī ‘Īsá","Shayshikal Hajji `Isa","Shashk-î Serû|Shêshkî|Shashek-e Ḩājjī ‘Īsá|Sheshikal Ḩājjī ‘Īsá|Sheshky|Sheshikal Hāji ‘Īsa",35.2654,45.9769,Iraq,IQ,IRQ,"As Sulaymānīyah","As Sulaymaniyah",IQ-SU,governorate,,100.4,,,4,Asia/Baghdad,FALSE,1368919052
"Sayyid ‘Alwān","Sayyid `Alwan",,32.7125,44.2624,Iraq,IQ,IRQ,Karbalā’,Karbala',IQ-KA,governorate,,399.5,,,3,Asia/Baghdad,FALSE,1368356968
"Al ‘Āşī","Al `Asi",Asîhê|‘Asî|‘Asī|Asy,37.0161,42.7043,Iraq,IQ,IRQ,Dahūk,Dahuk,IQ-DA,governorate,,604.9,,,3,Asia/Baghdad,FALSE,1368074202
"Qaryat Kāz̧im al Maḩall","Qaryat Kazim al Mahall","Qaryat Kāz̧im Maḩal",32.6477,44.4811,Iraq,IQ,IRQ,Bābil,Babil,IQ-BB,governorate,,150.8,,,4,Asia/Baghdad,FALSE,1368022925
Kīrah,Kirah,Gira|Gīrah|Gîre,36.8505,43.8572,Iraq,IQ,IRQ,Nīnawá,Ninawa,IQ-NI,governorate,,0,,,4,Asia/Baghdad,FALSE,1368720036
"Ālbū Jaḩīl","Albu Jahil",,32.5580,44.2285,Iraq,IQ,IRQ,Bābil,Babil,IQ-BB,governorate,,606.4,,,3,Asia/Baghdad,FALSE,1368177338
"Ḩasan ash Shāhīn","Hasan ash Shahin",,33.2192,44.2542,Iraq,IQ,IRQ,Baghdād,Baghdad,IQ-BG,governorate,,5654.5,,,2,Asia/Baghdad,FALSE,1368686979
"Kānī Hanjīr","Kani Hanjir",,35.8505,45.0311,Iraq,IQ,IRQ,"As Sulaymānīyah","As Sulaymaniyah",IQ-SU,governorate,,47.4,,,4,Asia/Baghdad,FALSE,1368146937
"Bayt Nāyif Ḩammād","Bayt Nayif Hammad",,35.1091,43.3085,Iraq,IQ,IRQ,"Şalāḩ ad Dīn","Salah ad Din",IQ-SD,governorate,,33.8,,,4,Asia/Baghdad,FALSE,1368743938
"‘Ayn Shukūr Lāwah","`Ayn Shukur Lawah","‘Ayn Shukr Saghīr|‘Ayn Shukr|‘Ain Shukur Saghīr",34.5677,44.8875,Iraq,IQ,IRQ,Diyālá,Diyala,IQ-DI,governorate,,19.1,,,4,Asia/Baghdad,FALSE,1368952866
"‘Abd ash Shukr","`Abd ash Shukr",,34.0365,45.2059,Iraq,IQ,IRQ,Diyālá,Diyala,IQ-DI,governorate,,44.7,,,4,Asia/Baghdad,FALSE,1368344842
"Sarnīl Tūmān","Sarnil Tuman",,32.6792,44.8242,Iraq,IQ,IRQ,Bābil,Babil,IQ-BB,governorate,,150.8,,,4,Asia/Baghdad,FALSE,1368594271
Afriyān,Afriyan,Efriyan|Afrīyah|Afriyan,36.5986,44.2907,Iraq,IQ,IRQ,Arbīl,Arbil,IQ-AR,governorate,,215.5,,,3,Asia/Baghdad,FALSE,1368764560
Sharīrah,Sharirah,Shadīdah,34.6792,44.8090,Iraq,IQ,IRQ,Diyālá,Diyala,IQ-DI,governorate,,19.1,,,4,Asia/Baghdad,FALSE,1368886426
"Al Wālī","Al Wali",Manşūr,32.5500,45.9000,Iraq,IQ,IRQ,Wāsiţ,Wasit,IQ-WA,governorate,,124.5,,,4,Asia/Baghdad,FALSE,1368298461
"Ḩamīd ‘Abbās","Hamid `Abbas",,32.8911,44.9482,Iraq,IQ,IRQ,Wāsiţ,Wasit,IQ-WA,governorate,,80.3,,,4,Asia/Baghdad,FALSE,1368152415
Manīhamīl,Manihamil,,31.2000,45.5500,Iraq,IQ,IRQ,"Al Muthanná","Al Muthanna",IQ-MU,governorate,,55.7,,,4,Asia/Baghdad,FALSE,1368569940
Warwar,Warwar,,32.5345,44.5916,Iraq,IQ,IRQ,Bābil,Babil,IQ-BB,governorate,,150.8,,,4,Asia/Baghdad,FALSE,1368260964
"Biyūt Jabr ash Shīl","Biyut Jabr ash Shil","Jabbār as Suhayl|Jabbār as Suhail",32.2550,45.7004,Iraq,IQ,IRQ,Wāsiţ,Wasit,IQ-WA,governorate,,99.7,,,4,Asia/Baghdad,FALSE,1368066199
"Qal‘at al ‘Ulyā","Qal`at al `Ulya",,34.6567,45.3911,Iraq,IQ,IRQ,"As Sulaymānīyah","As Sulaymaniyah",IQ-SU,governorate,,112.5,,,4,Asia/Baghdad,FALSE,1368759347
Baldah,Baldah,,33.9969,44.3081,Iraq,IQ,IRQ,"Şalāḩ ad Dīn","Salah ad Din",IQ-SD,governorate,,103.3,,,4,Asia/Baghdad,FALSE,1368126678
"Bāḩith al Ḩasan","Bahith al Hasan",,31.5082,46.1518,Iraq,IQ,IRQ,"Dhī Qār","Dhi Qar",IQ-DQ,governorate,,155.5,,,4,Asia/Baghdad,FALSE,1368895161
"Qaryat ‘Alī as Sulţān","Qaryat `Ali as Sultan",,35.0589,43.6949,Iraq,IQ,IRQ,Karkūk,Karkuk,IQ-KI,governorate,,118.2,,,4,Asia/Baghdad,FALSE,1368540071
"Hayzānah al ‘Ulyā","Hayzanah al `Ulya","Hêzankê Jûrî|Hēzānkē Zhōrī|Hizana|Hîzane|Hêzankê Jûrê",36.8670,43.6885,Iraq,IQ,IRQ,Dahūk,Dahuk,IQ-DA,governorate,,141.8,,,4,Asia/Baghdad,FALSE,1368024350
"Ālbū Rāshid","Albu Rashid",,33.4410,43.4615,Iraq,IQ,IRQ,"Al Anbār","Al Anbar",IQ-AN,governorate,,114.2,,,4,Asia/Baghdad,FALSE,1368120088
Spiraw,Spiraw,Spero|Spērō|Spi-Ro|Spîro,36.2853,45.1238,Iraq,IQ,IRQ,"As Sulaymānīyah","As Sulaymaniyah",IQ-SU,governorate,,61.4,,,4,Asia/Baghdad,FALSE,1368837708
Serukanî,Serukani,Sarokani,36.7305,44.0642,Iraq,IQ,IRQ,Nīnawá,Ninawa,IQ-NI,governorate,,0,,,5,Asia/Baghdad,FALSE,1368186969
"Ibrāhīm al Khāţir","Ibrahim al Khatir",,33.8561,44.0096,Iraq,IQ,IRQ,"Şalāḩ ad Dīn","Salah ad Din",IQ-SD,governorate,,103.3,,,4,Asia/Baghdad,FALSE,1368149915
"Qaryat Şakhīrah","Qaryat Sakhirah",,35.7105,43.1468,Iraq,IQ,IRQ,Nīnawá,Ninawa,IQ-NI,governorate,,585.6,,,3,Asia/Baghdad,FALSE,1368721935
"Tall Sahlah","Tall Sahlah","Tel Sehle|Tal Sahla",36.9924,42.3220,Iraq,IQ,IRQ,Nīnawá,Ninawa,IQ-NI,governorate,,122.1,,,4,Asia/Baghdad,FALSE,1368149616
"Bustānī Kawrah","Bustani Kawrah","Bustānah al Kabīr|Bistānayī Gawrah|Bistāna-i Gawra|Bistāna|Bestana|Bustān al Kabīr|Bêstane",36.0460,44.1992,Iraq,IQ,IRQ,Arbīl,Arbil,IQ-AR,governorate,,215.5,,,3,Asia/Baghdad,FALSE,1368092547
"Qaryat Abū Jalīb","Qaryat Abu Jalib",,32.4466,44.3229,Iraq,IQ,IRQ,Bābil,Babil,IQ-BB,governorate,,2215.5,,,2,Asia/Baghdad,FALSE,1368164884
Ummkaybirah,Ummkaybirah,,36.0302,42.2311,Iraq,IQ,IRQ,Nīnawá,Ninawa,IQ-NI,governorate,,20.6,,,4,Asia/Baghdad,FALSE,1368365404
"Hanjīrah Sūrah","Hanjirah Surah",Hanjyra|Hencîre,35.9460,45.4053,Iraq,IQ,IRQ,"As Sulaymānīyah","As Sulaymaniyah",IQ-SU,governorate,,27.3,,,4,Asia/Baghdad,FALSE,1368081232
"Ava Xiraba","Ava Xiraba","Ava Khraba",37.1945,43.0288,Iraq,IQ,IRQ,Dahūk,Dahuk,IQ-DA,governorate,,631.8,,,3,Asia/Baghdad,FALSE,1368619384
"Imām ash Shurfah","Imam ash Shurfah",,32.3692,44.5094,Iraq,IQ,IRQ,Bābil,Babil,IQ-BB,governorate,,276.3,,,3,Asia/Baghdad,FALSE,1368803645
"Ibrāhīm al Mazrū‘","Ibrahim al Mazru`",,30.2608,47.6205,Iraq,IQ,IRQ,"Al Başrah","Al Basrah",IQ-BA,governorate,,56.9,,,4,Asia/Baghdad,FALSE,1368684489
Rūbah,Rubah,,30.7114,47.7833,Iraq,IQ,IRQ,"Al Başrah","Al Basrah",IQ-BA,governorate,,131.0,,,4,Asia/Baghdad,FALSE,1368138395
"Al Ḩārith","Al Harith","Al Ḩārith Bin al Kāz̧im",32.3854,44.6156,Iraq,IQ,IRQ,Bābil,Babil,IQ-BB,governorate,,276.3,,,3,Asia/Baghdad,FALSE,1368044403
"‘Abd Allāh al Ḩamad","`Abd Allah al Hamad",,33.7990,43.9772,Iraq,IQ,IRQ,"Şalāḩ ad Dīn","Salah ad Din",IQ-SD,governorate,,103.3,,,4,Asia/Baghdad,FALSE,1368390732
"Qaddūrī Ibrahīm","Qadduri Ibrahim",,33.6244,44.7735,Iraq,IQ,IRQ,Diyālá,Diyala,IQ-DI,governorate,,63.5,,,4,Asia/Baghdad,FALSE,1368871422
"‘Arab Ḩamzah al Jassām","`Arab Hamzah al Jassam",,34.7702,43.3974,Iraq,IQ,IRQ,"Şalāḩ ad Dīn","Salah ad Din",IQ-SD,governorate,,33.8,,,4,Asia/Baghdad,FALSE,1368239999
"Aţ Ţāysh al Gharbīyah","At Taysh al Gharbiyah",,35.9336,42.8595,Iraq,IQ,IRQ,Nīnawá,Ninawa,IQ-NI,governorate,,585.6,,,3,Asia/Baghdad,FALSE,1368895304
"Ḩasan ‘Alī","Hasan `Ali",,34.4576,43.3851,Iraq,IQ,IRQ,"Şalāḩ ad Dīn","Salah ad Din",IQ-SD,governorate,,66.9,,,4,Asia/Baghdad,FALSE,1368612523
"‘Abd Ḩusayn Āl Ghuşayb","`Abd Husayn Al Ghusayb",,31.8842,46.0236,Iraq,IQ,IRQ,"Dhī Qār","Dhi Qar",IQ-DQ,governorate,,138.9,,,4,Asia/Baghdad,FALSE,1368971488
"Mushīr al ‘Umar","Mushir al `Umar","Qaryat Mushīr al ‘Umar|Mushīn al ‘Umar",32.2132,44.6553,Iraq,IQ,IRQ,Bābil,Babil,IQ-BB,governorate,,276.3,,,3,Asia/Baghdad,FALSE,1368899490
"Maţar Ḩamīd","Matar Hamid",,32.8399,44.4742,Iraq,IQ,IRQ,Bābil,Babil,IQ-BB,governorate,,151.0,,,4,Asia/Baghdad,FALSE,1368511790
"Kunayş Kunjān","Kunays Kunjan",,32.0508,44.6404,Iraq,IQ,IRQ,"Al Qādisīyah","Al Qadisiyah",IQ-QA,governorate,,217.9,,,3,Asia/Baghdad,FALSE,1368714669
"Majīd Muḩammad","Majid Muhammad",,34.0094,44.2853,Iraq,IQ,IRQ,"Şalāḩ ad Dīn","Salah ad Din",IQ-SD,governorate,,129.0,,,4,Asia/Baghdad,FALSE,1368656052
Bināwīlah,Binawilah,Bnawila|Binawila|Binawîle,36.1580,45.0675,Iraq,IQ,IRQ,"As Sulaymānīyah","As Sulaymaniyah",IQ-SU,governorate,,47.4,,,4,Asia/Baghdad,FALSE,1368816650
Bināwīlah,Binawilah,"Binawasuta|Bināwīla|Binawîle-î Chiwarta|Bnawe Sute",35.5982,45.5282,Iraq,IQ,IRQ,"As Sulaymānīyah","As Sulaymaniyah",IQ-SU,governorate,,27.3,,,4,Asia/Baghdad,TRUE,1368746913
"Āthār ash Shāţī","Athar ash Shati",,31.1690,47.4284,Iraq,IQ,IRQ,"Al Başrah","Al Basrah",IQ-BA,governorate,,153.3,,,4,Asia/Baghdad,FALSE,1368162035
"Al Buwaytah","Al Buwaytah","Tel Buwaita|Tall Buwaytah",36.1262,42.5204,Iraq,IQ,IRQ,Nīnawá,Ninawa,IQ-NI,governorate,,122.1,,,4,Asia/Baghdad,FALSE,1368769599
Hāldarah,Haldarah,"Haldara|Hal Dara|Hałedar|Hełdere",35.3896,45.2803,Iraq,IQ,IRQ,"As Sulaymānīyah","As Sulaymaniyah",IQ-SU,governorate,,509.1,,,3,Asia/Baghdad,FALSE,1368307838
"‘Arab Kāz̧im Julayb","`Arab Kazim Julayb",,33.8176,44.8864,Iraq,IQ,IRQ,Diyālá,Diyala,IQ-DI,governorate,,189.3,,,4,Asia/Baghdad,FALSE,1368806714
"Khafīr Ḩamad","Khafir Hamad",,32.3001,44.8054,Iraq,IQ,IRQ,Bābil,Babil,IQ-BB,governorate,,276.3,,,3,Asia/Baghdad,FALSE,1368394887
"Hawd ‘Alī","Hawd `Ali","Hawd ‘Alī",34.4477,45.0567,Iraq,IQ,IRQ,Diyālá,Diyala,IQ-DI,governorate,,19.1,,,4,Asia/Baghdad,FALSE,1368570819
"Mukhlif Muḩammad","Mukhlif Muhammad",,33.5267,44.1923,Iraq,IQ,IRQ,Baghdād,Baghdad,IQ-BG,governorate,,2467.6,,,2,Asia/Baghdad,FALSE,1368828032
"Rashīd Ḩamād","Rashid Hamad",,34.0432,43.7260,Iraq,IQ,IRQ,"Şalāḩ ad Dīn","Salah ad Din",IQ-SD,governorate,,111.2,,,4,Asia/Baghdad,FALSE,1368758215
"Al Kar‘ān","Al Kar`an",,36.0993,41.7353,Iraq,IQ,IRQ,Nīnawá,Ninawa,IQ-NI,governorate,,60.2,,,4,Asia/Baghdad,FALSE,1368758346
"Şubḩī Khuḑīr","Subhi Khudir",,32.9752,44.3035,Iraq,IQ,IRQ,Baghdād,Baghdad,IQ-BG,governorate,,236.5,,,3,Asia/Baghdad,FALSE,1368905807
"Kilnāghājī Bijūk","Kilnaghaji Bijuk","Gilnaghec Pichuk",35.8622,44.7631,Iraq,IQ,IRQ,"As Sulaymānīyah","As Sulaymaniyah",IQ-SU,governorate,,90.5,,,4,Asia/Baghdad,FALSE,1368818221
"Qaryat an Na‘īmīyah","Qaryat an Na`imiyah",,33.2710,43.8319,Iraq,IQ,IRQ,"Al Anbār","Al Anbar",IQ-AN,governorate,,186.3,,,4,Asia/Baghdad,FALSE,1368476312
"Muḩammad Maḩmūd Ibrāhīm","Muhammad Mahmud Ibrahim",,34.5577,43.8476,Iraq,IQ,IRQ,"Şalāḩ ad Dīn","Salah ad Din",IQ-SD,governorate,,21.8,,,4,Asia/Baghdad,FALSE,1368844067
"Ḩusayn al ‘Andī","Husayn al `Andi",,32.5461,46.3119,Iraq,IQ,IRQ,Wāsiţ,Wasit,IQ-WA,governorate,,124.5,,,4,Asia/Baghdad,FALSE,1368976988
"‘Akalat Ḩamādī","`Akalat Hamadi",,34.0973,43.7911,Iraq,IQ,IRQ,"Şalāḩ ad Dīn","Salah ad Din",IQ-SD,governorate,,111.2,,,4,Asia/Baghdad,FALSE,1368136265
"Rahū Dūsī","Rahu Dusi","Sab‘at ‘Ashar Tamūz",32.6073,46.0132,Iraq,IQ,IRQ,Wāsiţ,Wasit,IQ-WA,governorate,,124.5,,,4,Asia/Baghdad,FALSE,1368774927
"Bahīzah al Kabīrah","Bahizah al Kabirah",Bāhizah|Bāhiza,34.3001,45.0998,Iraq,IQ,IRQ,Diyālá,Diyala,IQ-DI,governorate,,44.7,,,4,Asia/Baghdad,FALSE,1368374752
Khazīnah,Khazinah,,35.9531,45.3861,Iraq,IQ,IRQ,"As Sulaymānīyah","As Sulaymaniyah",IQ-SU,governorate,,27.3,,,4,Asia/Baghdad,FALSE,1368771244
"‘Arab al Ḩājj Naz̧īr Muşţafá","`Arab al Hajj Nazir Mustafa",,34.2917,43.7965,Iraq,IQ,IRQ,"Şalāḩ ad Dīn","Salah ad Din",IQ-SD,governorate,,111.2,,,4,Asia/Baghdad,FALSE,1368001516
Dirīn,Dirin,Drîn|Drin,36.6896,43.5275,Iraq,IQ,IRQ,Nīnawá,Ninawa,IQ-NI,governorate,,78.7,,,4,Asia/Baghdad,FALSE,1368299637
Dirīn,Dirin,"Diṟîn Xuwace|Drin Khuja|Khujawa|Xucawa|Dirîn Xace",36.6786,43.8590,Iraq,IQ,IRQ,Nīnawá,Ninawa,IQ-NI,governorate,,0,,,4,Asia/Baghdad,TRUE,1368503639
Mālūmān,Maluman,"Małmin|Māl Min|Mālamīn|Malman|Baluman|Baluman",36.7217,44.2975,Iraq,IQ,IRQ,Arbīl,Arbil,IQ-AR,governorate,,188.7,,,4,Asia/Baghdad,FALSE,1368828000
"Qaryat al Jubūr","Qaryat al Jubur",,34.1415,44.2892,Iraq,IQ,IRQ,"Şalāḩ ad Dīn","Salah ad Din",IQ-SD,governorate,,21.8,,,4,Asia/Baghdad,FALSE,1368876047
Shayrak,Shayrak,Muḩammad,34.4212,45.2188,Iraq,IQ,IRQ,Diyālá,Diyala,IQ-DI,governorate,,44.7,,,4,Asia/Baghdad,FALSE,1368655481
Bāyzāwā,Bayzawa,Baizawa|Bāyizāwā|Bayzawa,35.7676,45.4001,Iraq,IQ,IRQ,"As Sulaymānīyah","As Sulaymaniyah",IQ-SU,governorate,,27.3,,,4,Asia/Baghdad,FALSE,1368783602
"Mahdī Yūnus","Mahdi Yunus",,32.4137,44.9884,Iraq,IQ,IRQ,Bābil,Babil,IQ-BB,governorate,,276.3,,,3,Asia/Baghdad,FALSE,1368761882
"Al Musharraḩ","Al Musharrah","Musharrah|Al Mesharah|Musharraif",31.8222,47.4382,Iraq,IQ,IRQ,Maysān,Maysan,IQ-MA,governorate,,122.3,,,4,Asia/Baghdad,FALSE,1368535004
Sparkapkān,Sparkapkan,Sparkapkan|Sarkapkan|Serkepkan,36.1794,45.1033,Iraq,IQ,IRQ,"As Sulaymānīyah","As Sulaymaniyah",IQ-SU,governorate,,61.4,,,4,Asia/Baghdad,FALSE,1368530698
"Salaf al Bahādil","Salaf al Bahadil",,31.7611,47.1161,Iraq,IQ,IRQ,Maysān,Maysan,IQ-MA,governorate,,43.5,,,4,Asia/Baghdad,FALSE,1368406651
Mushayrafah,Mushayrafah,,35.9977,42.9117,Iraq,IQ,IRQ,Nīnawá,Ninawa,IQ-NI,governorate,,585.6,,,3,Asia/Baghdad,FALSE,1368377264
Mushayrafah,Mushayrafah,Mushirfa|Mushîrfe,36.7624,42.0658,Iraq,IQ,IRQ,Nīnawá,Ninawa,IQ-NI,governorate,,122.1,,,4,Asia/Baghdad,TRUE,1368974847
"Āl Ḩasan","Al Hasan",Hasan,34.6350,43.7203,Iraq,IQ,IRQ,"Şalāḩ ad Dīn","Salah ad Din",IQ-SD,governorate,,66.9,,,4,Asia/Baghdad,FALSE,1368750936
"Ţallā‘ al Janābī","Talla` al Janabi",,32.6998,44.7060,Iraq,IQ,IRQ,Bābil,Babil,IQ-BB,governorate,,150.8,,,4,Asia/Baghdad,FALSE,1368584648
"‘Arab Khālid ad Dibdaywī","`Arab Khalid ad Dibdaywi",,33.1407,44.4188,Iraq,IQ,IRQ,Baghdād,Baghdad,IQ-BG,governorate,,236.5,,,3,Asia/Baghdad,FALSE,1368081500
"Ḩasab Allah ‘Azīz","Hasab Allah `Aziz",,33.7706,44.7751,Iraq,IQ,IRQ,Diyālá,Diyala,IQ-DI,governorate,,189.3,,,4,Asia/Baghdad,FALSE,1368131405
"‘Arab Şāḩī","`Arab Sahi",,31.1942,46.5701,Iraq,IQ,IRQ,"Dhī Qār","Dhi Qar",IQ-DQ,governorate,,239.1,,,3,Asia/Baghdad,FALSE,1368513679
"Shākir Ḩusayn","Shakir Husayn",,31.8654,44.8581,Iraq,IQ,IRQ,"Al Qādisīyah","Al Qadisiyah",IQ-QA,governorate,,217.9,,,3,Asia/Baghdad,FALSE,1368283679
"As Sayyid ‘Abd al Karīm","As Sayyid `Abd al Karim","Saiyid Kuraiyim|Saiyid Abd al Karīm|Sayyid Karīm|Sayyid ‘Abd al Karīm",31.7208,46.0978,Iraq,IQ,IRQ,"Dhī Qār","Dhi Qar",IQ-DQ,governorate,,138.9,,,4,Asia/Baghdad,FALSE,1368875517
Tiyān,Tiyan,Tiyan|Tuwan|Tuwiyan|Tian,37.1171,42.4770,Iraq,IQ,IRQ,Dahūk,Dahuk,IQ-DA,governorate,,631.8,,,3,Asia/Baghdad,FALSE,1368244707
"Şabrī Khalīl","Sabri Khalil",,32.9166,44.9358,Iraq,IQ,IRQ,Wāsiţ,Wasit,IQ-WA,governorate,,80.3,,,4,Asia/Baghdad,FALSE,1368667353
"Ibrāhīm al ‘Alī","Ibrahim al `Ali",,33.8690,44.1973,Iraq,IQ,IRQ,"Şalāḩ ad Dīn","Salah ad Din",IQ-SD,governorate,,103.3,,,4,Asia/Baghdad,FALSE,1368086672
"Ibrāhīm al ‘Alī","Ibrahim al `Ali",,34.3111,43.9468,Iraq,IQ,IRQ,"Şalāḩ ad Dīn","Salah ad Din",IQ-SD,governorate,,21.8,,,4,Asia/Baghdad,TRUE,1368837955
"Qaryat ‘Alī as Sab‘","Qaryat `Ali as Sab`",,33.9287,45.0711,Iraq,IQ,IRQ,Diyālá,Diyala,IQ-DI,governorate,,189.3,,,4,Asia/Baghdad,FALSE,1368245556
"Ḩusayn Ḩamīd Darwīsh","Husayn Hamid Darwish",,34.1752,43.6584,Iraq,IQ,IRQ,"Şalāḩ ad Dīn","Salah ad Din",IQ-SD,governorate,,111.2,,,4,Asia/Baghdad,FALSE,1368847840
"Ja‘far Şādiq","Ja`far Sadiq",,33.5519,44.8330,Iraq,IQ,IRQ,Diyālá,Diyala,IQ-DI,governorate,,17.5,,,4,Asia/Baghdad,FALSE,1368057294
"‘Alī Ḩusayn","`Ali Husayn",,33.1454,44.3837,Iraq,IQ,IRQ,Baghdād,Baghdad,IQ-BG,governorate,,236.5,,,3,Asia/Baghdad,FALSE,1368531794
"Muwayzin Ḩasan","Muwayzin Hasan",,32.6670,44.7811,Iraq,IQ,IRQ,Bābil,Babil,IQ-BB,governorate,,150.8,,,4,Asia/Baghdad,FALSE,1368081875
"As Sādah","As Sadah",,31.3414,46.3590,Iraq,IQ,IRQ,"Dhī Qār","Dhi Qar",IQ-DQ,governorate,,261.3,,,3,Asia/Baghdad,FALSE,1368183524
"Banī Karam","Bani Karam","Bān-i Karam|Ban Karam|Tapi Karam|Bān-e Karam|Banî Kerem|Tepe-î Kerem",35.3386,45.7561,Iraq,IQ,IRQ,"As Sulaymānīyah","As Sulaymaniyah",IQ-SU,governorate,,95.1,,,4,Asia/Baghdad,FALSE,1368961601
"Qaryat Mughayir ‘Abd Allāh al Mahdāwī","Qaryat Mughayir `Abd Allah al Mahdawi",,33.9965,45.0054,Iraq,IQ,IRQ,Diyālá,Diyala,IQ-DI,governorate,,44.7,,,4,Asia/Baghdad,FALSE,1368653963
"Qaryat Sab‘ah Nīsān","Qaryat Sab`ah Nisan",,32.9082,44.9591,Iraq,IQ,IRQ,Wāsiţ,Wasit,IQ-WA,governorate,,80.3,,,4,Asia/Baghdad,FALSE,1368615475
"Kirdah Jā","Kirdah Ja","Girdachāl|Girda Chal|Girde Chał",36.4086,44.2696,Iraq,IQ,IRQ,Arbīl,Arbil,IQ-AR,governorate,,215.5,,,3,Asia/Baghdad,FALSE,1368364214
"Faraj Waysah","Faraj Waysah","Faraj Ways|Ferec Weyse|Faraj Waisa|Ferec Weysî",34.8576,45.1734,Iraq,IQ,IRQ,"As Sulaymānīyah","As Sulaymaniyah",IQ-SU,governorate,,113.7,,,4,Asia/Baghdad,FALSE,1368723794
"‘Ulwān al ‘Abd","`Ulwan al `Abd","Alwār al ‘Abid|Alwān al ‘Abid",33.5678,44.4511,Iraq,IQ,IRQ,Diyālá,Diyala,IQ-DI,governorate,,1327.6,,,3,Asia/Baghdad,FALSE,1368098612
"‘Abbūd ‘Alī","`Abbud `Ali",,33.0204,44.3844,Iraq,IQ,IRQ,Baghdād,Baghdad,IQ-BG,governorate,,236.5,,,3,Asia/Baghdad,FALSE,1368087511
"Shamrān al Faza‘","Shamran al Faza`",,32.4056,44.3806,Iraq,IQ,IRQ,Bābil,Babil,IQ-BB,governorate,,2215.5,,,2,Asia/Baghdad,FALSE,1368178465
"Salaf adh Dhīl","Salaf adh Dhil",,32.0113,46.8085,Iraq,IQ,IRQ,Maysān,Maysan,IQ-MA,governorate,,122.3,,,4,Asia/Baghdad,FALSE,1368909112
"Jāsim Tuhayrab","Jasim Tuhayrab",,33.5518,44.5854,Iraq,IQ,IRQ,Diyālá,Diyala,IQ-DI,governorate,,1036.5,,,3,Asia/Baghdad,FALSE,1368591400
Xatu’awa,Xatu'awa,Khatunawa|Xatunawa,36.6545,43.9006,Iraq,IQ,IRQ,Nīnawá,Ninawa,IQ-NI,governorate,,0,,,5,Asia/Baghdad,FALSE,1368869949
"Al Qaḑāwī","Al Qadawi","Al Qadhāwi|‘Arab Alwara",33.6306,44.7939,Iraq,IQ,IRQ,Diyālá,Diyala,IQ-DI,governorate,,17.5,,,4,Asia/Baghdad,FALSE,1368770030
Dirrī,Dirri,Dṟî|Dry,35.8625,45.3933,Iraq,IQ,IRQ,"As Sulaymānīyah","As Sulaymaniyah",IQ-SU,governorate,,27.3,,,4,Asia/Baghdad,FALSE,1368400201
"Shaykh ‘Abbās al Khamīs","Shaykh `Abbas al Khamis",,32.3242,44.7945,Iraq,IQ,IRQ,Bābil,Babil,IQ-BB,governorate,,276.3,,,3,Asia/Baghdad,FALSE,1368815443
"Qaryat Ţahrāwah","Qaryat Tahrawah",Ţahrāwah,36.3444,43.3266,Iraq,IQ,IRQ,Nīnawá,Ninawa,IQ-NI,governorate,,125.0,,,4,Asia/Baghdad,FALSE,1368542906
Muraybī,Muraybi,,31.1905,47.2190,Iraq,IQ,IRQ,"Al Başrah","Al Basrah",IQ-BA,governorate,,210.6,,,3,Asia/Baghdad,FALSE,1368763213
"Qaryat Ālbū Ḩumayr","Qaryat Albu Humayr",,32.6390,44.4908,Iraq,IQ,IRQ,Bābil,Babil,IQ-BB,governorate,,150.8,,,4,Asia/Baghdad,FALSE,1368519659
"Ashān aş Şaqr","Ashan as Saqr",,32.6841,43.9586,Iraq,IQ,IRQ,Karbalā’,Karbala',IQ-KA,governorate,,507.9,,,3,Asia/Baghdad,FALSE,1368309633
"‘Arab Zuhrah","`Arab Zuhrah","Arab Zuhra",31.6000,47.1333,Iraq,IQ,IRQ,Maysān,Maysan,IQ-MA,governorate,,191.8,,,4,Asia/Baghdad,FALSE,1368001395
"Qaryat Būtah ar Rāki‘ī","Qaryat Butah ar Raki`i",,35.7481,42.9994,Iraq,IQ,IRQ,Nīnawá,Ninawa,IQ-NI,governorate,,7.5,,,5,Asia/Baghdad,FALSE,1368983495
"‘Ādil Ḩamad","`Adil Hamad",,33.5729,44.3348,Iraq,IQ,IRQ,Baghdād,Baghdad,IQ-BG,governorate,,4743.6,,,2,Asia/Baghdad,FALSE,1368145934
"‘Arab ‘Abd Zayd","`Arab `Abd Zayd",,32.5297,44.4845,Iraq,IQ,IRQ,Bābil,Babil,IQ-BB,governorate,,150.8,,,4,Asia/Baghdad,FALSE,1368682763
"‘Arab Ḩusayn","`Arab Husayn","‘Arab Ḩoseyn",33.5287,45.7889,Iraq,IQ,IRQ,Diyālá,Diyala,IQ-DI,governorate,,17.5,,,4,Asia/Baghdad,FALSE,1368301529
"Qaryat ar Rā’idah","Qaryat ar Ra'idah",,32.4492,45.0756,Iraq,IQ,IRQ,Bābil,Babil,IQ-BB,governorate,,169.5,,,4,Asia/Baghdad,FALSE,1368780920
"Bayt Ḩāmid Ḩanwāţ","Bayt Hamid Hanwat",,32.4101,44.5590,Iraq,IQ,IRQ,Bābil,Babil,IQ-BB,governorate,,276.3,,,3,Asia/Baghdad,FALSE,1368323808
"Shaḩādhah Ḑāya‘","Shahadhah Daya`",,34.1017,44.4169,Iraq,IQ,IRQ,Diyālá,Diyala,IQ-DI,governorate,,261.8,,,3,Asia/Baghdad,FALSE,1368306145
"Makţūf ‘Abbās","Maktuf `Abbas",,32.5900,44.2892,Iraq,IQ,IRQ,Bābil,Babil,IQ-BB,governorate,,606.4,,,3,Asia/Baghdad,FALSE,1368766399
"Qaryat Dallī","Qaryat Dalli",,32.2531,44.6348,Iraq,IQ,IRQ,Bābil,Babil,IQ-BB,governorate,,276.3,,,3,Asia/Baghdad,FALSE,1368799217
"Ḩamād ‘Abd Aḩmad","Hamad `Abd Ahmad",,33.7191,44.1656,Iraq,IQ,IRQ,Baghdād,Baghdad,IQ-BG,governorate,,2891.6,,,2,Asia/Baghdad,FALSE,1368316308
"Ni‘mat Bazzūn","Ni`mat Bazzun",,32.3517,44.9245,Iraq,IQ,IRQ,Bābil,Babil,IQ-BB,governorate,,276.3,,,3,Asia/Baghdad,FALSE,1368469938
Deshtetex,Deshtetex,"Dashtatakh|Dashtakh|Takh Plain|Dashta Takh",37.3243,42.7398,Iraq,IQ,IRQ,Dahūk,Dahuk,IQ-DA,governorate,,301.3,,,3,Asia/Baghdad,FALSE,1368267532
"‘Arab Jihād ‘Abbās","`Arab Jihad `Abbas",,32.5511,44.1625,Iraq,IQ,IRQ,Karbalā’,Karbala',IQ-KA,governorate,,389.1,,,3,Asia/Baghdad,FALSE,1368192835
"‘Abd al Karīm al Fahad","`Abd al Karim al Fahad",,30.8085,47.5691,Iraq,IQ,IRQ,"Al Başrah","Al Basrah",IQ-BA,governorate,,117.1,,,4,Asia/Baghdad,FALSE,1368996028
"Al Jahārīs","Al Jaharis",,32.3879,45.0176,Iraq,IQ,IRQ,Bābil,Babil,IQ-BB,governorate,,276.3,,,3,Asia/Baghdad,FALSE,1368791298
"Qaryat al ‘Abbādī","Qaryat al `Abbadi",,33.3591,43.9775,Iraq,IQ,IRQ,Baghdād,Baghdad,IQ-BG,governorate,,189.2,,,4,Asia/Baghdad,FALSE,1368087718
"Qaryat al A‘ājīb","Qaryat al A`ajib",,31.2402,45.0757,Iraq,IQ,IRQ,"Al Muthanná","Al Muthanna",IQ-MU,governorate,,501.1,,,3,Asia/Baghdad,FALSE,1368597719
Jūlmakah,Julmakah,"Cholmak Fattāḩ|Shulmak|Jūlmak Fattāḩ|Chūlmak Fattāḩ",35.5975,45.0492,Iraq,IQ,IRQ,"As Sulaymānīyah","As Sulaymaniyah",IQ-SU,governorate,,509.1,,,3,Asia/Baghdad,FALSE,1368547809
"Qaryat Umm Na‘jah","Qaryat Umm Na`jah",,32.2118,44.3497,Iraq,IQ,IRQ,Bābil,Babil,IQ-BB,governorate,,2215.5,,,2,Asia/Baghdad,FALSE,1368315791
"Qaryat Ālbū Gharīr","Qaryat Albu Gharir",,33.9792,44.3110,Iraq,IQ,IRQ,"Şalāḩ ad Dīn","Salah ad Din",IQ-SD,governorate,,103.3,,,4,Asia/Baghdad,FALSE,1368455441
"‘Awād Faz ‘ah","`Awad Faz `ah",,33.5667,45.1833,Iraq,IQ,IRQ,Diyālá,Diyala,IQ-DI,governorate,,17.5,,,4,Asia/Baghdad,FALSE,1368768437
"Ni‘mah Kāz̧im","Ni`mah Kazim",,32.9233,44.4150,Iraq,IQ,IRQ,Baghdād,Baghdad,IQ-BG,governorate,,236.5,,,3,Asia/Baghdad,FALSE,1368734333
"Al Azrakīyah","Al Azrakiyah",,33.3500,43.7333,Iraq,IQ,IRQ,"Al Anbār","Al Anbar",IQ-AN,governorate,,186.3,,,4,Asia/Baghdad,FALSE,1368524772
"Qaryat Zāmil Fayşal","Qaryat Zamil Faysal",,32.2812,44.9181,Iraq,IQ,IRQ,Bābil,Babil,IQ-BB,governorate,,276.3,,,3,Asia/Baghdad,FALSE,1368161848
"Qaryat Ţarţī‘ah","Qaryat Tarti`ah",,35.8088,43.1475,Iraq,IQ,IRQ,Nīnawá,Ninawa,IQ-NI,governorate,,585.6,,,3,Asia/Baghdad,FALSE,1368991790
"Qaryat Marjānīyah","Qaryat Marjaniyah",,32.6871,44.5095,Iraq,IQ,IRQ,Bābil,Babil,IQ-BB,governorate,,150.8,,,4,Asia/Baghdad,FALSE,1368836233
Mar‘ī,Mar`i,Marai,35.6169,44.1528,Iraq,IQ,IRQ,Karkūk,Karkuk,IQ-KI,governorate,,64.4,,,4,Asia/Baghdad,FALSE,1368020542
Deṟawe,Derawe,Darawa,36.8778,44.7429,Iraq,IQ,IRQ,Arbīl,Arbil,IQ-AR,governorate,,215.5,,,3,Asia/Baghdad,FALSE,1368547581
"Al Mu‘allīyah","Al Mu`alliyah",,33.9028,42.6505,Iraq,IQ,IRQ,"Al Anbār","Al Anbar",IQ-AN,governorate,,25.5,,,4,Asia/Baghdad,FALSE,1368630026
"Nāḩiyat as Salām","Nahiyat as Salam",Sharmokhīya|Sharmukhīyah,31.5365,46.9756,Iraq,IQ,IRQ,Maysān,Maysan,IQ-MA,governorate,,43.4,,,4,Asia/Baghdad,FALSE,1368808649
"Al Yaqā‘ulyā","Al Yaqa`ulya","Mīrzā Rustum|Mūrzah Rustam|Āliqa-i Pichūk|Aliqa Big|Mirza Rustam|Mirzah Rustum|Aliqa Pichuk|Ełqe-î Bchuk|Elîqe-î Gewre",36.0590,44.8817,Iraq,IQ,IRQ,"As Sulaymānīyah","As Sulaymaniyah",IQ-SU,governorate,,47.4,,,4,Asia/Baghdad,FALSE,1368339492
"Bāb ad Durūb","Bab ad Durub","Bāb ad Darub",33.7667,44.6333,Iraq,IQ,IRQ,Diyālá,Diyala,IQ-DI,governorate,,189.3,,,4,Asia/Baghdad,FALSE,1368247277
"Ḩusayn ‘Alī ‘Āyid","Husayn `Ali `Ayid",,34.0176,43.6272,Iraq,IQ,IRQ,"Şalāḩ ad Dīn","Salah ad Din",IQ-SD,governorate,,111.2,,,4,Asia/Baghdad,FALSE,1368180361
Salkhah,Salkhah,Salkha,32.4367,44.3831,Iraq,IQ,IRQ,Bābil,Babil,IQ-BB,governorate,,606.4,,,3,Asia/Baghdad,FALSE,1368254595
"Shaykh Ţawīl","Shaykh Tawil","Shekh Tawel|Shaikh Tawīl|Shêx Tewêł",35.0197,45.4591,Iraq,IQ,IRQ,"As Sulaymānīyah","As Sulaymaniyah",IQ-SU,governorate,,113.7,,,4,Asia/Baghdad,FALSE,1368671189
Summāqah,Summaqah,Samaqa|Smaqa|Sumāqah|Smaqe,35.9836,44.4345,Iraq,IQ,IRQ,Arbīl,Arbil,IQ-AR,governorate,,215.5,,,3,Asia/Baghdad,FALSE,1368706955
"Abū Fishkah","Abu Fishkah",,36.2152,42.8326,Iraq,IQ,IRQ,Nīnawá,Ninawa,IQ-NI,governorate,,585.6,,,3,Asia/Baghdad,FALSE,1368390592
Jīnkanī,Jinkani,Chīnganī|Chingnī,35.3435,44.9071,Iraq,IQ,IRQ,"As Sulaymānīyah","As Sulaymaniyah",IQ-SU,governorate,,90.5,,,4,Asia/Baghdad,FALSE,1368729226
Birifkān,Birifkan,,36.8133,43.2225,Iraq,IQ,IRQ,Nīnawá,Ninawa,IQ-NI,governorate,,78.7,,,4,Asia/Baghdad,FALSE,1368484251
"Sasūn Mūsá","Sasun Musa",,31.2045,45.4308,Iraq,IQ,IRQ,"Al Muthanná","Al Muthanna",IQ-MU,governorate,,55.7,,,4,Asia/Baghdad,FALSE,1368606692
"Şabbār al ‘Abbās","Sabbar al `Abbas",,34.9597,43.3353,Iraq,IQ,IRQ,"Şalāḩ ad Dīn","Salah ad Din",IQ-SD,governorate,,33.8,,,4,Asia/Baghdad,FALSE,1368145442
"Āl Kammūn","Al Kammun",,32.3602,44.7768,Iraq,IQ,IRQ,Bābil,Babil,IQ-BB,governorate,,276.3,,,3,Asia/Baghdad,FALSE,1368043205
"Dār Jalāl","Dar Jalal","Jalāl|Dar Celal|Dar Jalal|Jalal|Der Celal",37.2058,42.7500,Iraq,IQ,IRQ,Dahūk,Dahuk,IQ-DA,governorate,,631.8,,,3,Asia/Baghdad,FALSE,1368374060
"Nāḩiyat aş Şaqlāwīyah","Nahiyat as Saqlawiyah","Aş Şaqlāwīyah",33.3958,43.6829,Iraq,IQ,IRQ,"Al Anbār","Al Anbar",IQ-AN,governorate,,186.3,,,4,Asia/Baghdad,FALSE,1368667786
"Al Jamīlīyah","Al Jamiliyah",,32.1794,46.0283,Iraq,IQ,IRQ,Wāsiţ,Wasit,IQ-WA,governorate,,99.7,,,4,Asia/Baghdad,FALSE,1368815722
"‘Alī al Ḩassānī","`Ali al Hassani",,31.9441,45.8992,Iraq,IQ,IRQ,"Dhī Qār","Dhi Qar",IQ-DQ,governorate,,138.9,,,4,Asia/Baghdad,FALSE,1368335664
"Bayt ‘Abbūd","Bayt `Abbud","Bait ‘Abud",32.3858,46.7283,Iraq,IQ,IRQ,Maysān,Maysan,IQ-MA,governorate,,17.3,,,4,Asia/Baghdad,FALSE,1368000016
"Nāşir Ḩusayn","Nasir Husayn",,33.9157,44.9275,Iraq,IQ,IRQ,Diyālá,Diyala,IQ-DI,governorate,,189.3,,,4,Asia/Baghdad,FALSE,1368302200
"‘Arab Sayyid Kāz̧im an Nafl","`Arab Sayyid Kazim an Nafl",,32.6268,44.7380,Iraq,IQ,IRQ,Bābil,Babil,IQ-BB,governorate,,150.8,,,4,Asia/Baghdad,FALSE,1368724144
"Qaryat Fāliḩ al Ghulām","Qaryat Falih al Ghulam",,31.9441,46.1561,Iraq,IQ,IRQ,"Dhī Qār","Dhi Qar",IQ-DQ,governorate,,138.9,,,4,Asia/Baghdad,FALSE,1368252315
Saynakh,Saynakh,Sainakh|Sainak,30.9231,46.7569,Iraq,IQ,IRQ,"Dhī Qār","Dhi Qar",IQ-DQ,governorate,,221.0,,,3,Asia/Baghdad,FALSE,1368593200
"Qāzān Qāyah","Qazan Qayah","Qazanqa|Qāzānqāya|Fāzān Fāyah|Qazanqaye",35.4039,45.2607,Iraq,IQ,IRQ,"As Sulaymānīyah","As Sulaymaniyah",IQ-SU,governorate,,509.1,,,3,Asia/Baghdad,FALSE,1368105712
"Qaryat al Bandīyah","Qaryat al Bandiyah",,32.3070,44.5578,Iraq,IQ,IRQ,Bābil,Babil,IQ-BB,governorate,,276.3,,,3,Asia/Baghdad,FALSE,1368646482
Zarnūk,Zarnuk,,36.4868,42.8792,Iraq,IQ,IRQ,Nīnawá,Ninawa,IQ-NI,governorate,,474.0,,,3,Asia/Baghdad,FALSE,1368452553
Hārūnah,Harunah,Haruna|Hārūnā|Harona|Harune,37.0446,42.8476,Iraq,IQ,IRQ,Dahūk,Dahuk,IQ-DA,governorate,,636.8,,,3,Asia/Baghdad,FALSE,1368247223
"Al Khazā‘il","Al Khaza`il",,32.0890,44.7628,Iraq,IQ,IRQ,"Al Qādisīyah","Al Qadisiyah",IQ-QA,governorate,,217.9,,,3,Asia/Baghdad,FALSE,1368795742
"Al Khazā‘il","Al Khaza`il",,31.9014,44.8977,Iraq,IQ,IRQ,"Al Qādisīyah","Al Qadisiyah",IQ-QA,governorate,,217.9,,,3,Asia/Baghdad,TRUE,1368136295
Hezîr,Hezir,Hazir,36.9618,44.3114,Iraq,IQ,IRQ,Arbīl,Arbil,IQ-AR,governorate,,215.5,,,3,Asia/Baghdad,FALSE,1368961611
"Qarah Bulāgh aş Şughrá","Qarah Bulagh as Sughra",Qarabolakh|Qerebułakh|Qrebulagh,34.4943,45.1936,Iraq,IQ,IRQ,Diyālá,Diyala,IQ-DI,governorate,,19.1,,,4,Asia/Baghdad,FALSE,1368252201
"‘Arab Waţnī Ḩamūd","`Arab Watni Hamud",,34.7164,43.3592,Iraq,IQ,IRQ,"Şalāḩ ad Dīn","Salah ad Din",IQ-SD,governorate,,33.8,,,4,Asia/Baghdad,FALSE,1368329036
"Qal‘at Shaykh ‘Abdāl","Qal`at Shaykh `Abdal",,32.4058,44.7556,Iraq,IQ,IRQ,Bābil,Babil,IQ-BB,governorate,,276.3,,,3,Asia/Baghdad,FALSE,1368209334
"‘Alī Mukhlif ‘Abd","`Ali Mukhlif `Abd",,33.5217,44.2216,Iraq,IQ,IRQ,Baghdād,Baghdad,IQ-BG,governorate,,2467.6,,,2,Asia/Baghdad,FALSE,1368918314
"‘Abd Allāh al Muḩsin","`Abd Allah al Muhsin","‘Abd al Ḩusayn",32.2980,44.5605,Iraq,IQ,IRQ,Bābil,Babil,IQ-BB,governorate,,276.3,,,3,Asia/Baghdad,FALSE,1368131607
"Jāsim al Ḩamad","Jasim al Hamad",,34.3351,43.6243,Iraq,IQ,IRQ,"Şalāḩ ad Dīn","Salah ad Din",IQ-SD,governorate,,111.2,,,4,Asia/Baghdad,FALSE,1368829599
Kalah,Kalah,,31.4550,44.7988,Iraq,IQ,IRQ,"Al Qādisīyah","Al Qadisiyah",IQ-QA,governorate,,217.9,,,3,Asia/Baghdad,FALSE,1368396246
"Umm ‘Adhá","Umm `Adha",Um-Atha,34.7536,41.9219,Iraq,IQ,IRQ,"Al Anbār","Al Anbar",IQ-AN,governorate,,0,,,5,Asia/Baghdad,FALSE,1368607052
"Jazā‘ Ḩajūl","Jaza` Hajul",,34.4969,43.4603,Iraq,IQ,IRQ,"Şalāḩ ad Dīn","Salah ad Din",IQ-SD,governorate,,66.9,,,4,Asia/Baghdad,FALSE,1368515271
Numayl,Numayl,,35.3092,43.3515,Iraq,IQ,IRQ,"Şalāḩ ad Dīn","Salah ad Din",IQ-SD,governorate,,131.6,,,4,Asia/Baghdad,FALSE,1368795273
"Qaryat al Ḩamām","Qaryat al Hamam",,32.1187,44.6216,Iraq,IQ,IRQ,"Al Qādisīyah","Al Qadisiyah",IQ-QA,governorate,,245.0,,,3,Asia/Baghdad,FALSE,1368709032
"‘Arab Zayd","`Arab Zayd",,33.5393,44.7816,Iraq,IQ,IRQ,Diyālá,Diyala,IQ-DI,governorate,,17.5,,,4,Asia/Baghdad,FALSE,1368229975
"Tall Abū ‘Akrab","Tall Abu `Akrab",,33.1705,44.4345,Iraq,IQ,IRQ,Baghdād,Baghdad,IQ-BG,governorate,,236.5,,,3,Asia/Baghdad,FALSE,1368938513
"‘Arab Muḩammad ‘Alī ar Rāshid","`Arab Muhammad `Ali ar Rashid",,32.7757,44.3687,Iraq,IQ,IRQ,Bābil,Babil,IQ-BB,governorate,,562.0,,,3,Asia/Baghdad,FALSE,1368963502
"Khalīl Ibrāhīm","Khalil Ibrahim",,33.6573,44.2035,Iraq,IQ,IRQ,Baghdād,Baghdad,IQ-BG,governorate,,3141.4,,,2,Asia/Baghdad,FALSE,1368771629
"Qal‘at Bushaytah","Qal`at Bushaytah",,32.6833,44.4500,Iraq,IQ,IRQ,Bābil,Babil,IQ-BB,governorate,,150.8,,,4,Asia/Baghdad,FALSE,1368495519
"Umm Qindīḩah","Umm Qindihah","Umm Qaindiha|Sarhid",31.5667,47.0333,Iraq,IQ,IRQ,Maysān,Maysan,IQ-MA,governorate,,43.4,,,4,Asia/Baghdad,FALSE,1368238832
"Qaryat Sa‘īdīyah ath Thānīyah","Qaryat Sa`idiyah ath Thaniyah",,32.6923,44.4265,Iraq,IQ,IRQ,Bābil,Babil,IQ-BB,governorate,,150.8,,,4,Asia/Baghdad,FALSE,1368717297
"Īshān Abū Luḩf","Ishan Abu Luhf",,32.3487,44.9352,Iraq,IQ,IRQ,Bābil,Babil,IQ-BB,governorate,,276.3,,,3,Asia/Baghdad,FALSE,1368938490
"Abū Kadūr","Abu Kadur","Abū Gadūr",36.3951,42.7500,Iraq,IQ,IRQ,Nīnawá,Ninawa,IQ-NI,governorate,,452.7,,,3,Asia/Baghdad,FALSE,1368877216
"Sayyid Khalīl","Sayyid Khalil",,32.3906,44.9453,Iraq,IQ,IRQ,Bābil,Babil,IQ-BB,governorate,,276.3,,,3,Asia/Baghdad,FALSE,1368945201
"Nūrī Falāḩ","Nuri Falah",,32.4580,44.9843,Iraq,IQ,IRQ,Bābil,Babil,IQ-BB,governorate,,276.3,,,3,Asia/Baghdad,FALSE,1368937602
"Mām Khalīfah","Mam Khalifah","Mam Xelîfe|Mam Khalifa|Māmkhalīfah",36.6395,43.7664,Iraq,IQ,IRQ,Nīnawá,Ninawa,IQ-NI,governorate,,0,,,4,Asia/Baghdad,FALSE,1368539665
"Al Fawwālīyah","Al Fawwaliyah",Al-Fauwālīyah,33.9686,44.4017,Iraq,IQ,IRQ,Diyālá,Diyala,IQ-DI,governorate,,261.8,,,3,Asia/Baghdad,FALSE,1368541234
"Jawād Kāz̧im al Ḩusayn","Jawad Kazim al Husayn",,33.9046,44.1849,Iraq,IQ,IRQ,"Şalāḩ ad Dīn","Salah ad Din",IQ-SD,governorate,,103.3,,,4,Asia/Baghdad,FALSE,1368000147
"Ḩājī Ḩusayn","Haji Husayn","Al Ḩājj Ḩusayn",34.8138,45.2965,Iraq,IQ,IRQ,"As Sulaymānīyah","As Sulaymaniyah",IQ-SU,governorate,,113.7,,,4,Asia/Baghdad,FALSE,1368360425
"Qaryat Aḩmad as Samīr","Qaryat Ahmad as Samir",,34.5425,44.3700,Iraq,IQ,IRQ,"Şalāḩ ad Dīn","Salah ad Din",IQ-SD,governorate,,93.8,,,4,Asia/Baghdad,FALSE,1368606422
Na‘īm,Na`im,,30.9667,47.4000,Iraq,IQ,IRQ,"Al Başrah","Al Basrah",IQ-BA,governorate,,210.6,,,3,Asia/Baghdad,FALSE,1368966104
"Ālbū Shāţī","Albu Shati",,34.2446,44.7905,Iraq,IQ,IRQ,Diyālá,Diyala,IQ-DI,governorate,,19.1,,,4,Asia/Baghdad,FALSE,1368018022
"Huzā‘ Ḩassūn","Huza` Hassun",,33.6884,44.8442,Iraq,IQ,IRQ,Diyālá,Diyala,IQ-DI,governorate,,17.5,,,4,Asia/Baghdad,FALSE,1368813488
"Al Ḩājj ‘Alī","Al Hajj `Ali",,32.4142,44.7074,Iraq,IQ,IRQ,Bābil,Babil,IQ-BB,governorate,,276.3,,,3,Asia/Baghdad,FALSE,1368812578
"Al Ḩajjām Albū ‘Uwayd","Al Hajjam Albu `Uwayd",,30.9061,46.5448,Iraq,IQ,IRQ,"Dhī Qār","Dhi Qar",IQ-DQ,governorate,,221.0,,,3,Asia/Baghdad,FALSE,1368930585
"Umm an Na‘āj","Umm an Na`aj",,31.2101,47.3762,Iraq,IQ,IRQ,"Al Başrah","Al Basrah",IQ-BA,governorate,,210.6,,,3,Asia/Baghdad,FALSE,1368942494
Khafīyah,Khafiyah,,35.6331,41.8701,Iraq,IQ,IRQ,Nīnawá,Ninawa,IQ-NI,governorate,,20.6,,,4,Asia/Baghdad,FALSE,1368961760
"Sayyid Bādī","Sayyid Badi",,32.3640,44.8604,Iraq,IQ,IRQ,Bābil,Babil,IQ-BB,governorate,,276.3,,,3,Asia/Baghdad,FALSE,1368872138
"Qaryat al Jabbūr","Qaryat al Jabbur",,32.2378,44.7137,Iraq,IQ,IRQ,Bābil,Babil,IQ-BB,governorate,,276.3,,,3,Asia/Baghdad,FALSE,1368598392
Rumayjah,Rumayjah,Rumaljah|Rumaijah,30.9333,46.8833,Iraq,IQ,IRQ,"Dhī Qār","Dhi Qar",IQ-DQ,governorate,,52.6,,,4,Asia/Baghdad,FALSE,1368271461
Sansal,Sansal,"Sinsil|Qaryat Sansal|Al ‘Ukaydāt|Qaryat Shanshal",33.9973,44.8790,Iraq,IQ,IRQ,Diyālá,Diyala,IQ-DI,governorate,,189.3,,,4,Asia/Baghdad,FALSE,1368684770
Ḩāşil,Hasil,Ḩāşel|Hesił|Ḧasił|Hasil,35.2941,45.7668,Iraq,IQ,IRQ,"As Sulaymānīyah","As Sulaymaniyah",IQ-SU,governorate,,73.3,,,4,Asia/Baghdad,FALSE,1368683134
Khuwayţir,Khuwaytir,,32.5900,45.4743,Iraq,IQ,IRQ,Wāsiţ,Wasit,IQ-WA,governorate,,124.5,,,4,Asia/Baghdad,FALSE,1368187737
"Yāsīn Ḩalfah","Yasin Halfah",,33.5046,44.0912,Iraq,IQ,IRQ,"Al Anbār","Al Anbar",IQ-AN,governorate,,186.3,,,4,Asia/Baghdad,FALSE,1368804932
"Tall al Jawl","Tall al Jawl",Telcol,35.2175,44.2454,Iraq,IQ,IRQ,Karkūk,Karkuk,IQ-KI,governorate,,27.6,,,4,Asia/Baghdad,FALSE,1368353000
"‘Alī Ḩusayn Şāliḩ","`Ali Husayn Salih",,33.6503,44.2019,Iraq,IQ,IRQ,Baghdād,Baghdad,IQ-BG,governorate,,3141.4,,,2,Asia/Baghdad,FALSE,1368933873
"Qaryat Ţawīlah","Qaryat Tawilah",,33.5738,45.3640,Iraq,IQ,IRQ,Diyālá,Diyala,IQ-DI,governorate,,17.5,,,4,Asia/Baghdad,FALSE,1368395927
"Qaryat Jabr Dhiyāb","Qaryat Jabr Dhiyab",,32.4930,44.4691,Iraq,IQ,IRQ,Bābil,Babil,IQ-BB,governorate,,150.8,,,4,Asia/Baghdad,FALSE,1368442930
"Tall Bū Sifkah","Tall Bu Sifkah",,36.3198,41.9553,Iraq,IQ,IRQ,Nīnawá,Ninawa,IQ-NI,governorate,,60.2,,,4,Asia/Baghdad,FALSE,1368218771
"Al Ma‘bar","Al Ma`bar",Ma‘bar,30.9452,47.2046,Iraq,IQ,IRQ,"Al Başrah","Al Basrah",IQ-BA,governorate,,210.6,,,3,Asia/Baghdad,FALSE,1368598251
"Qaryat ad Darāwīsh","Qaryat ad Darawish",Darāwīsh,36.4248,43.2989,Iraq,IQ,IRQ,Nīnawá,Ninawa,IQ-NI,governorate,,125.0,,,4,Asia/Baghdad,FALSE,1368730010
Karzawr,Karzawr,Kerrzoi|Kerrzai|Kerzūr|Karzor|Kerzor,35.9901,44.0971,Iraq,IQ,IRQ,Arbīl,Arbil,IQ-AR,governorate,,215.5,,,3,Asia/Baghdad,FALSE,1368520131
"Diyāb Khayr Allāh","Diyab Khayr Allah",,31.6439,46.1977,Iraq,IQ,IRQ,"Dhī Qār","Dhi Qar",IQ-DQ,governorate,,138.9,,,4,Asia/Baghdad,FALSE,1368199995
"Az Zuhayrīyah","Az Zuhayriyah",Zahairiya|Zuhayrīyah,31.0624,46.2931,Iraq,IQ,IRQ,"Dhī Qār","Dhi Qar",IQ-DQ,governorate,,239.1,,,3,Asia/Baghdad,FALSE,1368494492
"Az Zuhayrīyah","Az Zuhayriyah",,31.7894,46.2459,Iraq,IQ,IRQ,"Dhī Qār","Dhi Qar",IQ-DQ,governorate,,138.9,,,4,Asia/Baghdad,TRUE,1368585869
"Aḩid al Mujāţam","Ahid al Mujatam",,32.1722,44.3794,Iraq,IQ,IRQ,Bābil,Babil,IQ-BB,governorate,,2215.5,,,2,Asia/Baghdad,FALSE,1368212859
"‘Arab al Waist","`Arab al Waist",,33.9667,44.0833,Iraq,IQ,IRQ,"Şalāḩ ad Dīn","Salah ad Din",IQ-SD,governorate,,103.3,,,4,Asia/Baghdad,FALSE,1368911175
"Kanî Mîran Serû","Kani Miran Seru","Kānī Mīrān-ē Sarū|Kani Miran|Kanî Mîran|Kānī Mīran-e Sarū",35.7251,45.8920,Iraq,IQ,IRQ,"As Sulaymānīyah","As Sulaymaniyah",IQ-SU,governorate,,38.6,,,4,Asia/Baghdad,FALSE,1368049449
"Qarah Tapah","Qarah Tapah","Qara Tappa|Qare Tepe",36.2509,43.2950,Iraq,IQ,IRQ,Nīnawá,Ninawa,IQ-NI,governorate,,125.0,,,4,Asia/Baghdad,FALSE,1368802085
Badr,Badr,,35.7489,42.1222,Iraq,IQ,IRQ,Nīnawá,Ninawa,IQ-NI,governorate,,7.5,,,5,Asia/Baghdad,FALSE,1368282723
Bālqūz,Balquz,"Balqus Jûrî|Balqus Upper|Bālqōz|Barquaz|Berqwez",37.0067,42.7253,Iraq,IQ,IRQ,Dahūk,Dahuk,IQ-DA,governorate,,604.9,,,3,Asia/Baghdad,FALSE,1368490076
Kibawr,Kibawr,Kibor|Kubr|Kubir|Kbor,36.5607,44.2246,Iraq,IQ,IRQ,Arbīl,Arbil,IQ-AR,governorate,,215.5,,,3,Asia/Baghdad,FALSE,1368113764
Tarjīnah,Tarjinah,Targīna|Targīnah|Fārjīnah|Tarjina|Terjîne,36.1986,44.3600,Iraq,IQ,IRQ,Arbīl,Arbil,IQ-AR,governorate,,215.5,,,3,Asia/Baghdad,FALSE,1368000013
"Tabah Rashsh","Tabah Rashsh","Tappah Rashsh|Tepe Rash",35.5555,45.2487,Iraq,IQ,IRQ,"As Sulaymānīyah","As Sulaymaniyah",IQ-SU,governorate,,509.1,,,3,Asia/Baghdad,FALSE,1368000503
"Tabah Rashsh","Tabah Rashsh","Tepe Rash|Tapa Rash|Tepe Ṟesh|Tappeh Rash",35.3418,45.8592,Iraq,IQ,IRQ,"As Sulaymānīyah","As Sulaymaniyah",IQ-SU,governorate,,100.4,,,4,Asia/Baghdad,TRUE,1368153850
"Salmān al ‘Umar","Salman al `Umar",,32.2993,44.7146,Iraq,IQ,IRQ,Bābil,Babil,IQ-BB,governorate,,276.3,,,3,Asia/Baghdad,FALSE,1368922961
"Qaryat Aknīţrah","Qaryat Aknitrah","Qaryat Agnīţrah",36.2394,43.1802,Iraq,IQ,IRQ,Nīnawá,Ninawa,IQ-NI,governorate,,585.6,,,3,Asia/Baghdad,FALSE,1368965675
"Jamā‘at ‘Abd al ‘Ālī","Jama`at `Abd al `Ali",,31.2029,46.2982,Iraq,IQ,IRQ,"Dhī Qār","Dhi Qar",IQ-DQ,governorate,,261.3,,,3,Asia/Baghdad,FALSE,1368000097
"Muḩī ‘Abūd","Muhi `Abud",,32.3188,44.8747,Iraq,IQ,IRQ,Bābil,Babil,IQ-BB,governorate,,276.3,,,3,Asia/Baghdad,FALSE,1368648338
Bahrawān,Bahrawan,"Bahrawa Qarani|Behrawe Qerenî|Barewan Gewre",36.4903,43.7884,Iraq,IQ,IRQ,Nīnawá,Ninawa,IQ-NI,governorate,,0,,,4,Asia/Baghdad,FALSE,1368384005
"‘Abd Ḩatrūsh","`Abd Hatrush",,32.4815,44.9193,Iraq,IQ,IRQ,Bābil,Babil,IQ-BB,governorate,,150.8,,,4,Asia/Baghdad,FALSE,1368460946
Ghammās,Ghammas,Chammās,34.7838,44.6615,Iraq,IQ,IRQ,"Şalāḩ ad Dīn","Salah ad Din",IQ-SD,governorate,,93.8,,,4,Asia/Baghdad,FALSE,1368879495
Nūrik,Nurik,Nork|Norik|Nūrak,35.7832,45.7471,Iraq,IQ,IRQ,"As Sulaymānīyah","As Sulaymaniyah",IQ-SU,governorate,,27.3,,,4,Asia/Baghdad,FALSE,1368217964
"Kurdī Ghaḑab","Kurdi Ghadab",,34.8187,43.7794,Iraq,IQ,IRQ,"Şalāḩ ad Dīn","Salah ad Din",IQ-SD,governorate,,66.9,,,4,Asia/Baghdad,FALSE,1368963590
Darnājawkh,Darnajawkh,Darnājokh,36.4368,42.9728,Iraq,IQ,IRQ,Nīnawá,Ninawa,IQ-NI,governorate,,252.6,,,3,Asia/Baghdad,FALSE,1368881575
Razūk,Razuk,Rizūq|Razuk|Ṟizok|Razōk|Rzok|Ṟezuk,36.7566,43.8307,Iraq,IQ,IRQ,Nīnawá,Ninawa,IQ-NI,governorate,,0,,,4,Asia/Baghdad,FALSE,1368634525
"‘Alī al Aḩmad","`Ali al Ahmad",,33.4951,44.3043,Iraq,IQ,IRQ,Baghdād,Baghdad,IQ-BG,governorate,,2485.6,,,2,Asia/Baghdad,FALSE,1368385442
"‘Arab Jār Allāh Muḩammad","`Arab Jar Allah Muhammad",,32.6585,44.9050,Iraq,IQ,IRQ,Bābil,Babil,IQ-BB,governorate,,150.8,,,4,Asia/Baghdad,FALSE,1368370789
Baytūnī,Baytuni,Batūnīyah,36.4685,41.8805,Iraq,IQ,IRQ,Nīnawá,Ninawa,IQ-NI,governorate,,60.2,,,4,Asia/Baghdad,FALSE,1368412339
"Khalīf ‘Awwād","Khalif `Awwad",,34.6561,43.9006,Iraq,IQ,IRQ,"Şalāḩ ad Dīn","Salah ad Din",IQ-SD,governorate,,66.9,,,4,Asia/Baghdad,FALSE,1368277445
"Muḩammad ‘Annāb","Muhammad `Annab",,32.0727,44.4964,Iraq,IQ,IRQ,"An Najaf","An Najaf",IQ-NA,governorate,,927.6,,,3,Asia/Baghdad,FALSE,1368308562
"Aş Şāliḩīyah","As Salihiyah",Salhia|Salḧye,36.5200,42.4956,Iraq,IQ,IRQ,Nīnawá,Ninawa,IQ-NI,governorate,,122.1,,,4,Asia/Baghdad,FALSE,1368436955
"Aş Şāliḩīyah","As Salihiyah",,36.0825,41.7130,Iraq,IQ,IRQ,Nīnawá,Ninawa,IQ-NI,governorate,,60.2,,,4,Asia/Baghdad,TRUE,1368982849
"Aş Şāliḩīyah","As Salihiyah",,35.6510,42.0814,Iraq,IQ,IRQ,Nīnawá,Ninawa,IQ-NI,governorate,,7.5,,,5,Asia/Baghdad,TRUE,1368272954
"Muḩammad Aḩmad Jāsim","Muhammad Ahmad Jasim",,33.9303,44.3231,Iraq,IQ,IRQ,"Şalāḩ ad Dīn","Salah ad Din",IQ-SD,governorate,,103.3,,,4,Asia/Baghdad,FALSE,1368901467
"‘Alī al Hazā‘","`Ali al Haza`",,35.2633,43.9193,Iraq,IQ,IRQ,Karkūk,Karkuk,IQ-KI,governorate,,118.2,,,4,Asia/Baghdad,FALSE,1368661643
Sadām,Sadam,,31.7342,44.5603,Iraq,IQ,IRQ,"Al Qādisīyah","Al Qadisiyah",IQ-QA,governorate,,217.9,,,3,Asia/Baghdad,FALSE,1368797641
"Sirḩān Dhiyāb","Sirhan Dhiyab",,34.5769,43.3939,Iraq,IQ,IRQ,"Şalāḩ ad Dīn","Salah ad Din",IQ-SD,governorate,,33.8,,,4,Asia/Baghdad,FALSE,1368301682
"Aş Şulayḩāt","As Sulayhat",,31.0844,46.4291,Iraq,IQ,IRQ,"Dhī Qār","Dhi Qar",IQ-DQ,governorate,,239.1,,,3,Asia/Baghdad,FALSE,1368038660
"Sa‘īd Sharhān","Sa`id Sharhan",,32.5282,46.1555,Iraq,IQ,IRQ,Wāsiţ,Wasit,IQ-WA,governorate,,124.5,,,4,Asia/Baghdad,FALSE,1368921820
Amwīlḩah,Amwilhah,,34.9671,41.7753,Iraq,IQ,IRQ,"Al Anbār","Al Anbar",IQ-AN,governorate,,0,,,5,Asia/Baghdad,FALSE,1368421672
Hālah,Halah,Hāla,35.5310,45.1861,Iraq,IQ,IRQ,"As Sulaymānīyah","As Sulaymaniyah",IQ-SU,governorate,,509.1,,,3,Asia/Baghdad,FALSE,1368151969
"Al Jaw‘ānah","Al Jaw`anah",,31.6310,46.1017,Iraq,IQ,IRQ,"Dhī Qār","Dhi Qar",IQ-DQ,governorate,,138.9,,,4,Asia/Baghdad,FALSE,1368968473
"Al ‘Amiyān","Al `Amiyan",,35.6944,42.0639,Iraq,IQ,IRQ,Nīnawá,Ninawa,IQ-NI,governorate,,7.5,,,5,Asia/Baghdad,FALSE,1368694193
Zīrkwayz,Zirkwayz,"Ziṟgwêz-î Bichuk|Zergwez|Kuchik Zerguez|‘Zirgöz-i Pichūk|Kuchuk Zerguez",35.3884,45.4805,Iraq,IQ,IRQ,"As Sulaymānīyah","As Sulaymaniyah",IQ-SU,governorate,,509.1,,,3,Asia/Baghdad,FALSE,1368986647
"‘Abd al Ḩusayn Laftah","`Abd al Husayn Laftah",,32.0886,44.5458,Iraq,IQ,IRQ,"An Najaf","An Najaf",IQ-NA,governorate,,927.6,,,3,Asia/Baghdad,FALSE,1368878669
Maţardalīyah,Matardaliyah,,34.4464,41.2883,Iraq,IQ,IRQ,"Al Anbār","Al Anbar",IQ-AN,governorate,,23.5,,,4,Asia/Baghdad,FALSE,1368472352
Bane,Bane,Bana,36.5520,43.9862,Iraq,IQ,IRQ,Arbīl,Arbil,IQ-AR,governorate,,215.5,,,3,Asia/Baghdad,FALSE,1368596497
Jardāsinah,Jardasinah,Jardasana|Cardasene|Cerdasine,35.2121,45.8290,Iraq,IQ,IRQ,"As Sulaymānīyah","As Sulaymaniyah",IQ-SU,governorate,,73.3,,,4,Asia/Baghdad,FALSE,1368189320
"‘Arab ‘Alwān Laţīf","`Arab `Alwan Latif",,34.3383,44.2109,Iraq,IQ,IRQ,"Şalāḩ ad Dīn","Salah ad Din",IQ-SD,governorate,,21.8,,,4,Asia/Baghdad,FALSE,1368632389
"‘Arab Mut‘ab az Zayyid","`Arab Mut`ab az Zayyid",,33.9096,44.1866,Iraq,IQ,IRQ,"Şalāḩ ad Dīn","Salah ad Din",IQ-SD,governorate,,103.3,,,4,Asia/Baghdad,FALSE,1368756636
"‘Ādil ‘Alī","`Adil `Ali",,32.4864,44.5955,Iraq,IQ,IRQ,Bābil,Babil,IQ-BB,governorate,,221.6,,,3,Asia/Baghdad,FALSE,1368702990
"Jāsim al ‘Abd","Jasim al `Abd",,32.3641,44.8051,Iraq,IQ,IRQ,Bābil,Babil,IQ-BB,governorate,,276.3,,,3,Asia/Baghdad,FALSE,1368185482
"‘Arab Muḩammad al Ḩabīb","`Arab Muhammad al Habib",,34.0334,44.0556,Iraq,IQ,IRQ,"Şalāḩ ad Dīn","Salah ad Din",IQ-SD,governorate,,103.3,,,4,Asia/Baghdad,FALSE,1368517125
"Ad Darwāshah","Ad Darwashah",,32.5903,43.4916,Iraq,IQ,IRQ,Karbalā’,Karbala',IQ-KA,governorate,,31.5,,,4,Asia/Baghdad,FALSE,1368746579
‘Abdallīyah,`Abdalliyah,"‘Abdalīyah|‘Abd Ilyān|‘Abd Līyah",30.4796,47.8603,Iraq,IQ,IRQ,"Al Başrah","Al Basrah",IQ-BA,governorate,,178.7,,,4,Asia/Baghdad,FALSE,1368000320
"Sayyid Muḩammad","Sayyid Muhammad",,31.9447,44.9093,Iraq,IQ,IRQ,"Al Qādisīyah","Al Qadisiyah",IQ-QA,governorate,,217.9,,,3,Asia/Baghdad,FALSE,1368899873
‘Āmirīyah,`Amiriyah,,32.3404,45.6318,Iraq,IQ,IRQ,Wāsiţ,Wasit,IQ-WA,governorate,,138.2,,,4,Asia/Baghdad,FALSE,1368553242
"‘Alī al Ḩassūn","`Ali al Hassun",,33.6444,45.1492,Iraq,IQ,IRQ,Diyālá,Diyala,IQ-DI,governorate,,17.5,,,4,Asia/Baghdad,FALSE,1368844026
‘Umayqah,`Umayqah,‘Umaqah|Umaiqa,34.5642,43.7308,Iraq,IQ,IRQ,"Şalāḩ ad Dīn","Salah ad Din",IQ-SD,governorate,,66.9,,,4,Asia/Baghdad,FALSE,1368939035
"Qaryat Abū al Ward aş Şarrānīyah","Qaryat Abu al Ward as Sarraniyah",,33.9191,44.8673,Iraq,IQ,IRQ,Diyālá,Diyala,IQ-DI,governorate,,189.3,,,4,Asia/Baghdad,FALSE,1368255433
"Qaryat ash Shaykh Jadīd","Qaryat ash Shaykh Jadid",,34.1672,42.3757,Iraq,IQ,IRQ,"Al Anbār","Al Anbar",IQ-AN,governorate,,26.2,,,4,Asia/Baghdad,FALSE,1368577556
"Al Ghuwām","Al Ghuwam",,32.1154,44.8236,Iraq,IQ,IRQ,"Al Qādisīyah","Al Qadisiyah",IQ-QA,governorate,,217.9,,,3,Asia/Baghdad,FALSE,1368297733
"Kāz̧im Abū Ţaggah","Kazim Abu Taggah",,31.8045,44.4449,Iraq,IQ,IRQ,"An Najaf","An Najaf",IQ-NA,governorate,,391.7,,,3,Asia/Baghdad,FALSE,1368333237
"Aḩmad ad Duwīj","Ahmad ad Duwij",,33.7537,43.9614,Iraq,IQ,IRQ,"Şalāḩ ad Dīn","Salah ad Din",IQ-SD,governorate,,103.3,,,4,Asia/Baghdad,FALSE,1368174740
"Qaryat Būthah","Qaryat Buthah",,36.7255,42.2577,Iraq,IQ,IRQ,Nīnawá,Ninawa,IQ-NI,governorate,,122.1,,,4,Asia/Baghdad,FALSE,1368870583
"‘Awwād Muşliḩ","`Awwad Muslih",,34.4317,43.3431,Iraq,IQ,IRQ,"Şalāḩ ad Dīn","Salah ad Din",IQ-SD,governorate,,66.9,,,4,Asia/Baghdad,FALSE,1368681729
"‘Umar Mandān as Suflá","`Umar Mandan as Sufla",Dalo|Dalu,34.4370,44.8142,Iraq,IQ,IRQ,Diyālá,Diyala,IQ-DI,governorate,,19.1,,,4,Asia/Baghdad,FALSE,1368901855
"Al Jinjāwīyah","Al Jinjawiyah",,31.2624,45.5342,Iraq,IQ,IRQ,"Al Muthanná","Al Muthanna",IQ-MU,governorate,,55.7,,,4,Asia/Baghdad,FALSE,1368129377
"Muḩsin Abū Ţabīkh","Muhsin Abu Tabikh","Saiyid Muhsin Abu Tabīkh|Sayyid Mushih Abu Tabīkh|Sayyid Muḩsin Abū Ţabīkh",31.4424,45.2961,Iraq,IQ,IRQ,"Al Muthanná","Al Muthanna",IQ-MU,governorate,,181.3,,,4,Asia/Baghdad,FALSE,1368540817
"‘Alī an Nu‘mān","`Ali an Nu`man",,33.4581,43.3928,Iraq,IQ,IRQ,"Al Anbār","Al Anbar",IQ-AN,governorate,,114.2,,,4,Asia/Baghdad,FALSE,1368906866
"Qaryat Ţūk","Qaryat Tuk","Ash Shaykh Maḩmūd ‘Abd Allāh",34.6477,44.4727,Iraq,IQ,IRQ,"Şalāḩ ad Dīn","Salah ad Din",IQ-SD,governorate,,93.8,,,4,Asia/Baghdad,FALSE,1368185304
"Yaḩyá Muḩammad Idhām","Yahya Muhammad Idham",,33.9077,44.7473,Iraq,IQ,IRQ,Diyālá,Diyala,IQ-DI,governorate,,189.3,,,4,Asia/Baghdad,FALSE,1368568175
"Muşţafá Ḩasan Aḩmad","Mustafa Hasan Ahmad",,33.9274,44.3256,Iraq,IQ,IRQ,"Şalāḩ ad Dīn","Salah ad Din",IQ-SD,governorate,,103.3,,,4,Asia/Baghdad,FALSE,1368002201
"‘Arab Ālbū Nīsān","`Arab Albu Nisan",,34.2644,43.8218,Iraq,IQ,IRQ,"Şalāḩ ad Dīn","Salah ad Din",IQ-SD,governorate,,111.2,,,4,Asia/Baghdad,FALSE,1368312714
Sulāf,Sulaf,Sîlav|Silav|Solav|Shulāf|Sulav,36.9423,42.6737,Iraq,IQ,IRQ,Dahūk,Dahuk,IQ-DA,governorate,,604.9,,,3,Asia/Baghdad,FALSE,1368656101
"‘Arab Ḩamūd al Jābir","`Arab Hamud al Jabir",,33.1001,44.2630,Iraq,IQ,IRQ,Baghdād,Baghdad,IQ-BG,governorate,,236.5,,,3,Asia/Baghdad,FALSE,1368981791
"Muḩammad Zu‘aytir","Muhammad Zu`aytir",,33.5524,44.1140,Iraq,IQ,IRQ,"Şalāḩ ad Dīn","Salah ad Din",IQ-SD,governorate,,186.3,,,4,Asia/Baghdad,FALSE,1368856197
Lazākah,Lazakah,Lazāga,36.4954,42.8105,Iraq,IQ,IRQ,Nīnawá,Ninawa,IQ-NI,governorate,,580.6,,,3,Asia/Baghdad,FALSE,1368785447
"Laftah al Ḩīlān","Laftah al Hilan",,34.0594,44.1928,Iraq,IQ,IRQ,"Şalāḩ ad Dīn","Salah ad Din",IQ-SD,governorate,,21.8,,,4,Asia/Baghdad,FALSE,1368048841
"Ḩaz̧ā’ir al Aghnām","Haza'ir al Aghnam",,31.5916,44.9212,Iraq,IQ,IRQ,"Al Qādisīyah","Al Qadisiyah",IQ-QA,governorate,,217.9,,,3,Asia/Baghdad,FALSE,1368834914
"‘Arab Khalīl Jamāl","`Arab Khalil Jamal",,34.3459,43.1517,Iraq,IQ,IRQ,"Şalāḩ ad Dīn","Salah ad Din",IQ-SD,governorate,,111.2,,,4,Asia/Baghdad,FALSE,1368149398
"Kāz̧im al Ḩasan","Kazim al Hasan",,32.3581,44.7660,Iraq,IQ,IRQ,Bābil,Babil,IQ-BB,governorate,,276.3,,,3,Asia/Baghdad,FALSE,1368632593
"Sayyid Khayyūn","Sayyid Khayyun",,31.7423,44.4867,Iraq,IQ,IRQ,"An Najaf","An Najaf",IQ-NA,governorate,,391.7,,,3,Asia/Baghdad,FALSE,1368599794
"Mīrah Kirah","Mirah Kirah","Mērakira|Mira Kra|Mêkera|Mîra Kira",37.0636,43.5526,Iraq,IQ,IRQ,Dahūk,Dahuk,IQ-DA,governorate,,141.8,,,4,Asia/Baghdad,FALSE,1368772854
"Qaryat al Mazūkah al Janūbīyah","Qaryat al Mazukah al Janubiyah",,32.2888,44.3123,Iraq,IQ,IRQ,"An Najaf","An Najaf",IQ-NA,governorate,,32.6,,,4,Asia/Baghdad,FALSE,1368939822
Sidhādīyah,Sidhadiyah,,33.8167,42.7500,Iraq,IQ,IRQ,"Al Anbār","Al Anbar",IQ-AN,governorate,,25.5,,,4,Asia/Baghdad,FALSE,1368567123
"Ghazāl Muḑḩī","Ghazal Mudhi",,34.7481,43.4321,Iraq,IQ,IRQ,"Şalāḩ ad Dīn","Salah ad Din",IQ-SD,governorate,,33.8,,,4,Asia/Baghdad,FALSE,1368082623
Gundik,Gundik,Gundk|Gundik,37.0365,43.2880,Iraq,IQ,IRQ,Dahūk,Dahuk,IQ-DA,governorate,,141.8,,,4,Asia/Baghdad,FALSE,1368468456
"Aḩmad Jāsim Salmān","Ahmad Jasim Salman",,34.2282,43.5226,Iraq,IQ,IRQ,"Şalāḩ ad Dīn","Salah ad Din",IQ-SD,governorate,,111.2,,,4,Asia/Baghdad,FALSE,1368377059
"Ḩusayn al ‘Ulaywī","Husayn al `Ulaywi","Ḩasan al ‘Adī",33.5511,45.3082,Iraq,IQ,IRQ,Diyālá,Diyala,IQ-DI,governorate,,17.5,,,4,Asia/Baghdad,FALSE,1368991516
"Hātif Ḩabīb","Hatif Habib",,32.0300,44.6235,Iraq,IQ,IRQ,"Al Qādisīyah","Al Qadisiyah",IQ-QA,governorate,,217.9,,,3,Asia/Baghdad,FALSE,1368118137
"‘Alī Ţa‘mah","`Ali Ta`mah",,34.4227,43.9553,Iraq,IQ,IRQ,"Şalāḩ ad Dīn","Salah ad Din",IQ-SD,governorate,,21.8,,,4,Asia/Baghdad,FALSE,1368595255
"Qaryat Ba‘wīzah","Qaryat Ba`wizah","Qaryat Ba‘wīdawah|Qaryat Ba‘wīdah|Ba‘wīzah",36.4322,43.1573,Iraq,IQ,IRQ,Nīnawá,Ninawa,IQ-NI,governorate,,125.0,,,4,Asia/Baghdad,FALSE,1368951284
"Qaryat al Ḩaşá al Qadīmah","Qaryat al Hasa al Qadimah",,34.4681,43.1342,Iraq,IQ,IRQ,"Şalāḩ ad Dīn","Salah ad Din",IQ-SD,governorate,,36.5,,,4,Asia/Baghdad,FALSE,1368748906
"Qaryat al Khanak","Qaryat al Khanak",,34.7072,43.6554,Iraq,IQ,IRQ,"Şalāḩ ad Dīn","Salah ad Din",IQ-SD,governorate,,66.9,,,4,Asia/Baghdad,FALSE,1368059481
"Shayţān Raḩmān Āwā","Shaytan Rahman Awa","Shayţānah|Shaytana|Shaitana|Shayţān|Shaltan Rahman Awa|Shełtan Ṟeḧman Awa",35.8417,44.3790,Iraq,IQ,IRQ,Arbīl,Arbil,IQ-AR,governorate,,215.5,,,3,Asia/Baghdad,FALSE,1368000518
"‘Abd Allāh as Sa‘dūn","`Abd Allah as Sa`dun","Az Zawāmil",32.2039,45.7773,Iraq,IQ,IRQ,Wāsiţ,Wasit,IQ-WA,governorate,,99.7,,,4,Asia/Baghdad,FALSE,1368123217
"Raḩīl Ibrāhīm","Rahil Ibrahim",,34.5342,43.2934,Iraq,IQ,IRQ,"Şalāḩ ad Dīn","Salah ad Din",IQ-SD,governorate,,33.8,,,4,Asia/Baghdad,FALSE,1368179262
"Tall Ālbū Sāţūrah","Tall Albu Saturah",,31.5191,45.3322,Iraq,IQ,IRQ,"Al Muthanná","Al Muthanna",IQ-MU,governorate,,181.3,,,4,Asia/Baghdad,FALSE,1368552103
"Qal‘at Sayyid Ḩasan","Qal`at Sayyid Hasan",,31.5362,47.3266,Iraq,IQ,IRQ,Maysān,Maysan,IQ-MA,governorate,,117.6,,,4,Asia/Baghdad,FALSE,1368678408
"Shulaykh Ālbū ‘Uyūn","Shulaykh Albu `Uyun",,31.7517,44.9811,Iraq,IQ,IRQ,"Al Qādisīyah","Al Qadisiyah",IQ-QA,governorate,,217.9,,,3,Asia/Baghdad,FALSE,1368539952
"‘Arab Maḩmūd al Kabīr","`Arab Mahmud al Kabir",,32.5076,46.5847,Iraq,IQ,IRQ,Maysān,Maysan,IQ-MA,governorate,,17.3,,,4,Asia/Baghdad,FALSE,1368068856
Ḩasanān,Hasanan,,35.7299,42.2539,Iraq,IQ,IRQ,Nīnawá,Ninawa,IQ-NI,governorate,,7.5,,,5,Asia/Baghdad,FALSE,1368373384
"Kānī Tūwah","Kani Tuwah","Kānī Tūwān|Kani Too|Kanî Tû|Kahnatiya|Kaniya Tuya",37.1968,43.1096,Iraq,IQ,IRQ,Dahūk,Dahuk,IQ-DA,governorate,,631.8,,,3,Asia/Baghdad,FALSE,1368243435
"Ḩalāwī al Farḩān","Halawi al Farhan",,32.3017,44.8802,Iraq,IQ,IRQ,Bābil,Babil,IQ-BB,governorate,,276.3,,,3,Asia/Baghdad,FALSE,1368366835
"Qarah Yatāgh","Qarah Yatagh","Qarah Yaţāq|Qara Taq|Qarah Tāq|Qarat Tāq|Qarataq|Qara Takh",34.4867,44.9667,Iraq,IQ,IRQ,Diyālá,Diyala,IQ-DI,governorate,,19.1,,,4,Asia/Baghdad,FALSE,1368732010
"‘Abd Farḩān","`Abd Farhan",,33.8134,44.8849,Iraq,IQ,IRQ,Diyālá,Diyala,IQ-DI,governorate,,148.3,,,4,Asia/Baghdad,FALSE,1368564222
"Sabīlīyat ‘Azīz Aghā","Sabiliyat `Aziz Agha",,36.2502,42.2253,Iraq,IQ,IRQ,Nīnawá,Ninawa,IQ-NI,governorate,,60.2,,,4,Asia/Baghdad,FALSE,1368434066
"Jawād az Zahrī","Jawad az Zahri",,32.2867,44.8516,Iraq,IQ,IRQ,Bābil,Babil,IQ-BB,governorate,,276.3,,,3,Asia/Baghdad,FALSE,1368009925
"Ash Shursh","Ash Shursh",,31.8511,44.5421,Iraq,IQ,IRQ,"Al Qādisīyah","Al Qadisiyah",IQ-QA,governorate,,217.9,,,3,Asia/Baghdad,FALSE,1368954059
"Qaryat Kharābat Zard","Qaryat Kharabat Zard",,35.5997,43.3765,Iraq,IQ,IRQ,Arbīl,Arbil,IQ-AR,governorate,,59.2,,,4,Asia/Baghdad,FALSE,1368670594
Ghadīr,Ghadir,Khuḑayr|Ghudayr,31.1210,46.2490,Iraq,IQ,IRQ,"Dhī Qār","Dhi Qar",IQ-DQ,governorate,,239.1,,,3,Asia/Baghdad,FALSE,1368567682
"Sa‘īd al ‘Ubayd","Sa`id al `Ubayd","Sa‘īd al ‘Abīd|Sayyid al ‘Abīd",31.5454,46.2322,Iraq,IQ,IRQ,"Dhī Qār","Dhi Qar",IQ-DQ,governorate,,138.9,,,4,Asia/Baghdad,FALSE,1368792545
Shawārah,Shawarah,,34.8789,44.7008,Iraq,IQ,IRQ,"Şalāḩ ad Dīn","Salah ad Din",IQ-SD,governorate,,93.8,,,4,Asia/Baghdad,FALSE,1368840270
Balāgh,Balagh,Būlāq|Brakh|Brax,36.3159,44.1358,Iraq,IQ,IRQ,Arbīl,Arbil,IQ-AR,governorate,,215.5,,,3,Asia/Baghdad,FALSE,1368944706
"Shākir Riḑā","Shakir Rida",,32.5765,44.1707,Iraq,IQ,IRQ,Karbalā’,Karbala',IQ-KA,governorate,,389.1,,,3,Asia/Baghdad,FALSE,1368880873
Rūz,Ruz,,33.7000,45.1833,Iraq,IQ,IRQ,Diyālá,Diyala,IQ-DI,governorate,,17.5,,,4,Asia/Baghdad,FALSE,1368978059
Dūlāwah,Dulawah,"Dulāwasuta|Dulah Wasunah|Dālāwa Ruta|Dawlah Wasutah|Delawe-î Rûte",35.7971,44.8473,Iraq,IQ,IRQ,"As Sulaymānīyah","As Sulaymaniyah",IQ-SU,governorate,,90.5,,,4,Asia/Baghdad,FALSE,1368610340
‘Uwaybidah,`Uwaybidah,,31.1436,46.2537,Iraq,IQ,IRQ,"Dhī Qār","Dhi Qar",IQ-DQ,governorate,,239.7,,,3,Asia/Baghdad,FALSE,1368481082
"Al Wasţānīyah","Al Wastaniyah",,33.8443,42.5783,Iraq,IQ,IRQ,"Al Anbār","Al Anbar",IQ-AN,governorate,,25.5,,,4,Asia/Baghdad,FALSE,1368385448
Ūr,Ur,"Ur Junction",30.9561,46.1278,Iraq,IQ,IRQ,"Dhī Qār","Dhi Qar",IQ-DQ,governorate,,239.1,,,3,Asia/Baghdad,FALSE,1368000090
"Karīm al Ḩasan","Karim al Hasan",,31.5810,46.2212,Iraq,IQ,IRQ,"Dhī Qār","Dhi Qar",IQ-DQ,governorate,,138.9,,,4,Asia/Baghdad,FALSE,1368206184
"Ḩasan Qibāq","Hasan Qibaq","Ḧesen Qebax|Ḩasan Qabgh|Ḩasan Qabāgh",35.7884,44.4913,Iraq,IQ,IRQ,Karkūk,Karkuk,IQ-KI,governorate,,464.6,,,3,Asia/Baghdad,FALSE,1368000550
"Muḩammad Burīzah","Muhammad Burizah",,35.2565,44.7891,Iraq,IQ,IRQ,"As Sulaymānīyah","As Sulaymaniyah",IQ-SU,governorate,,90.5,,,4,Asia/Baghdad,FALSE,1368145310
"‘Arab Muḩammad al Khiḑr","`Arab Muhammad al Khidr",,35.1061,43.1383,Iraq,IQ,IRQ,"Şalāḩ ad Dīn","Salah ad Din",IQ-SD,governorate,,33.8,,,4,Asia/Baghdad,FALSE,1368999888
"Qaryat Ālbū Sawdah","Qaryat Albu Sawdah",,33.4339,43.9202,Iraq,IQ,IRQ,"Al Anbār","Al Anbar",IQ-AN,governorate,,186.3,,,4,Asia/Baghdad,FALSE,1368853724
"Kand Āghā","Kand Agha",,35.8703,44.7606,Iraq,IQ,IRQ,"As Sulaymānīyah","As Sulaymaniyah",IQ-SU,governorate,,108.1,,,4,Asia/Baghdad,FALSE,1368813701
"‘Īsá al Fāris","`Isa al Faris",,33.4605,43.4606,Iraq,IQ,IRQ,"Al Anbār","Al Anbar",IQ-AN,governorate,,114.2,,,4,Asia/Baghdad,FALSE,1368632129
"Mazāḩam Jāsim","Mazaham Jasim",,34.4599,43.8977,Iraq,IQ,IRQ,"Şalāḩ ad Dīn","Salah ad Din",IQ-SD,governorate,,21.8,,,4,Asia/Baghdad,FALSE,1368730981
Saryūd,Saryud,,32.8926,45.0668,Iraq,IQ,IRQ,Wāsiţ,Wasit,IQ-WA,governorate,,129.1,,,4,Asia/Baghdad,FALSE,1368212434
"Jawād al Kāz̧im","Jawad al Kazim",,33.5072,44.4633,Iraq,IQ,IRQ,Diyālá,Diyala,IQ-DI,governorate,,1121.4,,,3,Asia/Baghdad,FALSE,1368061669
"Bayt ‘Ankūsh","Bayt `Ankush","Bayt ‘Anhūsn",33.8220,45.3660,Iraq,IQ,IRQ,Diyālá,Diyala,IQ-DI,governorate,,17.5,,,4,Asia/Baghdad,FALSE,1368841726
"Qaryat Ḩāyif Fahd","Qaryat Hayif Fahd",,32.4463,44.6558,Iraq,IQ,IRQ,Bābil,Babil,IQ-BB,governorate,,276.3,,,3,Asia/Baghdad,FALSE,1368166958
"Al Muşandaq","Al Musandaq","Musandak|Musandaq|Umm Sunduk",32.5183,46.4308,Iraq,IQ,IRQ,Wāsiţ,Wasit,IQ-WA,governorate,,124.5,,,4,Asia/Baghdad,FALSE,1368721716
"Qaryat ‘Adhbah","Qaryat `Adhbah",Adhba|‘Adhbah,36.2289,43.1062,Iraq,IQ,IRQ,Nīnawá,Ninawa,IQ-NI,governorate,,585.6,,,3,Asia/Baghdad,FALSE,1368381074
"Qaryat Ţarbzāwah","Qaryat Tarbzawah","Qaryat Ţawbzāwah|Qaryat Ţarbazāwah",36.3861,43.3520,Iraq,IQ,IRQ,Nīnawá,Ninawa,IQ-NI,governorate,,125.0,,,4,Asia/Baghdad,FALSE,1368199717
Shirkah,Shirkah,Shirkā,36.5753,44.4230,Iraq,IQ,IRQ,Arbīl,Arbil,IQ-AR,governorate,,215.5,,,3,Asia/Baghdad,FALSE,1368386080
"Ḩaydar Bayk","Haydar Bayk","Ḩaydar Beg|Ḧeyder Beg",35.8222,44.8734,Iraq,IQ,IRQ,"As Sulaymānīyah","As Sulaymaniyah",IQ-SU,governorate,,90.5,,,4,Asia/Baghdad,FALSE,1368707900
"Qaryat as Salmān","Qaryat as Salman",,35.1196,43.4665,Iraq,IQ,IRQ,"Şalāḩ ad Dīn","Salah ad Din",IQ-SD,governorate,,33.8,,,4,Asia/Baghdad,FALSE,1368720073
Taymānah,Taymanah,Taimana|Taymana|Tīmān|Tīmānah|Teymane,34.9122,45.2707,Iraq,IQ,IRQ,"As Sulaymānīyah","As Sulaymaniyah",IQ-SU,governorate,,113.7,,,4,Asia/Baghdad,FALSE,1368506909
Baomandan,Baomandan,,35.7500,45.0833,Iraq,IQ,IRQ,"As Sulaymānīyah","As Sulaymaniyah",IQ-SU,governorate,,47.4,,,4,Asia/Baghdad,FALSE,1368409956
"Tall Ḩātim","Tall Hatim",,36.0665,41.8063,Iraq,IQ,IRQ,Nīnawá,Ninawa,IQ-NI,governorate,,46.1,,,4,Asia/Baghdad,FALSE,1368777631
"‘Abd ‘Alī an Nāhī","`Abd `Ali an Nahi","‘Arab ‘Alī an Nāhī",32.7344,44.3358,Iraq,IQ,IRQ,Bābil,Babil,IQ-BB,governorate,,606.4,,,3,Asia/Baghdad,FALSE,1368358469
"Qaryat Zuhaylīlah","Qaryat Zuhaylilah","Haylīlah al Kubrá",35.7870,43.2153,Iraq,IQ,IRQ,Nīnawá,Ninawa,IQ-NI,governorate,,585.6,,,3,Asia/Baghdad,FALSE,1368110017
"Qalā Jawghah ī Shaykh Salām","Qala Jawghah i Shaykh Salam","Qala Chogha-i Khwārū|Qeła Choghe-î Xwarû",35.7979,44.8372,Iraq,IQ,IRQ,"As Sulaymānīyah","As Sulaymaniyah",IQ-SU,governorate,,90.5,,,4,Asia/Baghdad,FALSE,1368168626
"‘Alī ‘Abūd","`Ali `Abud",‘Alī‘Abbūd,34.8139,43.3093,Iraq,IQ,IRQ,"Şalāḩ ad Dīn","Salah ad Din",IQ-SD,governorate,,33.8,,,4,Asia/Baghdad,FALSE,1368002345
"Qaryat al Aşyūd","Qaryat al Asyud","Qaryat Aşyūr ash Sharqīyah",34.0478,45.2578,Iraq,IQ,IRQ,Diyālá,Diyala,IQ-DI,governorate,,44.7,,,4,Asia/Baghdad,FALSE,1368916980
"Shākir Maḩmūd","Shakir Mahmud",,33.6029,44.1775,Iraq,IQ,IRQ,Baghdād,Baghdad,IQ-BG,governorate,,3141.4,,,2,Asia/Baghdad,FALSE,1368097618
"Qūjī Dārrah Bān","Quji Darrah Ban",,35.8944,45.4029,Iraq,IQ,IRQ,"As Sulaymānīyah","As Sulaymaniyah",IQ-SU,governorate,,27.3,,,4,Asia/Baghdad,FALSE,1368886126
"Imām Zayd al ‘Ābidīn","Imam Zayd al `Abidin",,32.4091,44.3683,Iraq,IQ,IRQ,Bābil,Babil,IQ-BB,governorate,,2215.5,,,2,Asia/Baghdad,FALSE,1368975041
"Bū Māstī","Bu Masti",,32.7533,44.2661,Iraq,IQ,IRQ,Bābil,Babil,IQ-BB,governorate,,605.4,,,3,Asia/Baghdad,FALSE,1368767536
"Muḩammad az Zanbūr","Muhammad az Zanbur",,34.5558,43.8619,Iraq,IQ,IRQ,"Şalāḩ ad Dīn","Salah ad Din",IQ-SD,governorate,,21.8,,,4,Asia/Baghdad,FALSE,1368346324
"Jāsim Anşīf","Jasim Ansif",,33.9260,45.1910,Iraq,IQ,IRQ,Diyālá,Diyala,IQ-DI,governorate,,17.5,,,4,Asia/Baghdad,FALSE,1368839095
"Kāz̧im ‘Ujayl","Kazim `Ujayl",,32.1230,44.5771,Iraq,IQ,IRQ,"An Najaf","An Najaf",IQ-NA,governorate,,927.6,,,3,Asia/Baghdad,FALSE,1368083229
"Ibrāhīm ‘Awdah","Ibrahim `Awdah",,33.8674,44.9877,Iraq,IQ,IRQ,Diyālá,Diyala,IQ-DI,governorate,,189.3,,,4,Asia/Baghdad,FALSE,1368867349
"Qaryat al ‘Urūbah","Qaryat al `Urubah","Qaryat al A‘rūbah",33.7476,44.5373,Iraq,IQ,IRQ,Diyālá,Diyala,IQ-DI,governorate,,189.3,,,4,Asia/Baghdad,FALSE,1368639087
"Qaryat al ‘Urūbah","Qaryat al `Urubah",,34.4211,45.2913,Iraq,IQ,IRQ,Diyālá,Diyala,IQ-DI,governorate,,44.7,,,4,Asia/Baghdad,TRUE,1368399971
"Yūnus Ḩamādī","Yunus Hamadi","Yūnis Ḩamādī",35.3966,43.5390,Iraq,IQ,IRQ,Karkūk,Karkuk,IQ-KI,governorate,,118.2,,,4,Asia/Baghdad,FALSE,1368609015
"Layl Kān","Layl Kan",Lelkan|Lilkan|Lēlkān|Lîlkan|Lêlkan,36.9191,44.5604,Iraq,IQ,IRQ,Arbīl,Arbil,IQ-AR,governorate,,215.5,,,3,Asia/Baghdad,FALSE,1368974931
‘Asyān,`Asyan,‘Esyan|Esian|Esia|Êsyan,36.7153,43.2931,Iraq,IQ,IRQ,Nīnawá,Ninawa,IQ-NI,governorate,,78.7,,,4,Asia/Baghdad,FALSE,1368983577
Ghālī,Ghali,,32.9822,45.8810,Iraq,IQ,IRQ,Wāsiţ,Wasit,IQ-WA,governorate,,8.0,,,5,Asia/Baghdad,FALSE,1368000172
Khūrmāl,Khurmal,Khormāl|Xurmał|Khurmal,35.2997,46.0351,Iraq,IQ,IRQ,"As Sulaymānīyah","As Sulaymaniyah",IQ-SU,governorate,,100.4,,,4,Asia/Baghdad,FALSE,1368205756
"Sūsay Alamray","Susay Alamray","Sūsē-i Ālamre|Suse Sarw|Susê-î Serû|Susê-î Ałemrê",35.7845,45.1548,Iraq,IQ,IRQ,"As Sulaymānīyah","As Sulaymaniyah",IQ-SU,governorate,,47.4,,,4,Asia/Baghdad,FALSE,1368272042
"Murayjāt aş Şurayşīr","Murayjat as Suraysir",,34.5298,41.7515,Iraq,IQ,IRQ,"Al Anbār","Al Anbar",IQ-AN,governorate,,0,,,5,Asia/Baghdad,FALSE,1368940583
"Shaykh ‘Awdālān","Shaykh `Awdalan","Shaykh Awadālān|Shêx ‘Ewdałan|Awadalan|Shekh Awdalan|Shêx ‘Awdałan",36.2341,45.2193,Iraq,IQ,IRQ,"As Sulaymānīyah","As Sulaymaniyah",IQ-SU,governorate,,61.4,,,4,Asia/Baghdad,FALSE,1368652553
Sāyah,Sayah,Saye|Saya,36.5714,44.8145,Iraq,IQ,IRQ,Arbīl,Arbil,IQ-AR,governorate,,215.5,,,3,Asia/Baghdad,FALSE,1368975499
"Abū Tufayjah","Abu Tufayjah","As Sayyid Mahdī Āl Tufayjah|Bū Tufayjah",32.3500,44.2833,Iraq,IQ,IRQ,Karbalā’,Karbala',IQ-KA,governorate,,389.1,,,3,Asia/Baghdad,FALSE,1368227011
"Qaryat Āl Yūnus","Qaryat Al Yunus","Qaryat Āl Yūnis",33.2507,43.8535,Iraq,IQ,IRQ,Baghdād,Baghdad,IQ-BG,governorate,,456.8,,,3,Asia/Baghdad,FALSE,1368336677
"‘Āyid as Sayyid Jām‘","`Ayid as Sayyid Jam`",,32.3260,44.5591,Iraq,IQ,IRQ,Bābil,Babil,IQ-BB,governorate,,276.3,,,3,Asia/Baghdad,FALSE,1368641815
"Qaryat al Jifjāfah","Qaryat al Jifjafah","Al Chifchafa",32.8172,44.3690,Iraq,IQ,IRQ,Bābil,Babil,IQ-BB,governorate,,150.8,,,4,Asia/Baghdad,FALSE,1368256383
"Ālbū Ghallāb","Albu Ghallab",,33.4783,43.2042,Iraq,IQ,IRQ,"Al Anbār","Al Anbar",IQ-AN,governorate,,114.2,,,4,Asia/Baghdad,FALSE,1368674607
Sartay,Sartay,Sertê|Sārtī,35.5561,44.6251,Iraq,IQ,IRQ,Karkūk,Karkuk,IQ-KI,governorate,,464.6,,,3,Asia/Baghdad,FALSE,1368245153
Sītak,Sitak,Sîtek|Seetak,35.6372,45.5153,Iraq,IQ,IRQ,"As Sulaymānīyah","As Sulaymaniyah",IQ-SU,governorate,,27.3,,,4,Asia/Baghdad,FALSE,1368384014
"Qaryat ash Shaykh Tamīm","Qaryat ash Shaykh Tamim",,33.7413,44.8108,Iraq,IQ,IRQ,Diyālá,Diyala,IQ-DI,governorate,,17.5,,,4,Asia/Baghdad,FALSE,1368410187
"Yāsīn Ḩamādī","Yasin Hamadi",,32.7582,44.7487,Iraq,IQ,IRQ,Bābil,Babil,IQ-BB,governorate,,150.8,,,4,Asia/Baghdad,FALSE,1368651133
"Mahdī Hajir","Mahdi Hajir",,33.8697,44.4170,Iraq,IQ,IRQ,"Şalāḩ ad Dīn","Salah ad Din",IQ-SD,governorate,,103.3,,,4,Asia/Baghdad,FALSE,1368267861
Ḩāmid,Hamid,,32.9500,45.0472,Iraq,IQ,IRQ,Wāsiţ,Wasit,IQ-WA,governorate,,80.3,,,4,Asia/Baghdad,FALSE,1368604324
"Kānī Bawt","Kani Bawt","Kānī Bōt|Kani Bot|Kani But|Kanî But|Kānī Būt|Kaniye Bot",36.9625,44.1462,Iraq,IQ,IRQ,Arbīl,Arbil,IQ-AR,governorate,,215.5,,,3,Asia/Baghdad,FALSE,1368804477
Mamdī,Mamdi,Mamdî|Mamdi|Mamandi|Memendî,36.5484,44.2855,Iraq,IQ,IRQ,Arbīl,Arbil,IQ-AR,governorate,,215.5,,,3,Asia/Baghdad,FALSE,1368281960
"Al Kafārāt","Al Kafarat",,31.9892,45.3161,Iraq,IQ,IRQ,"Al Qādisīyah","Al Qadisiyah",IQ-QA,governorate,,217.9,,,3,Asia/Baghdad,FALSE,1368623734
Janlāh,Janlah,Changalāwa,34.9668,44.4534,Iraq,IQ,IRQ,Karkūk,Karkuk,IQ-KI,governorate,,27.9,,,4,Asia/Baghdad,FALSE,1368654379
"Dār ‘Abbās","Dar `Abbas",,31.6385,47.3897,Iraq,IQ,IRQ,Maysān,Maysan,IQ-MA,governorate,,42.6,,,4,Asia/Baghdad,FALSE,1368076445
Arţājah,Artajah,,34.4408,41.4085,Iraq,IQ,IRQ,"Al Anbār","Al Anbar",IQ-AN,governorate,,23.5,,,4,Asia/Baghdad,FALSE,1368652378
Şunaydīq,Sunaydiq,Sunaidīj|Şunaydij,32.8550,44.2225,Iraq,IQ,IRQ,Bābil,Babil,IQ-BB,governorate,,606.4,,,3,Asia/Baghdad,FALSE,1368656362
"‘Alwān al Wādī","`Alwan al Wadi",,34.0751,43.8060,Iraq,IQ,IRQ,"Şalāḩ ad Dīn","Salah ad Din",IQ-SD,governorate,,111.2,,,4,Asia/Baghdad,FALSE,1368846711
"Ḩamad Abū Shuwayrab","Hamad Abu Shuwayrab",,34.1396,43.5421,Iraq,IQ,IRQ,"Şalāḩ ad Dīn","Salah ad Din",IQ-SD,governorate,,111.2,,,4,Asia/Baghdad,FALSE,1368186361
"Qaryat Ḩaysh","Qaryat Haysh",,32.1080,44.6290,Iraq,IQ,IRQ,"Al Qādisīyah","Al Qadisiyah",IQ-QA,governorate,,217.9,,,3,Asia/Baghdad,FALSE,1368691663
Shūsh,Shush,Shosh,36.7963,43.7559,Iraq,IQ,IRQ,Nīnawá,Ninawa,IQ-NI,governorate,,0,,,5,Asia/Baghdad,FALSE,1368099911
"Āl Bū Ja‘r","Al Bu Ja`r",,33.4675,43.2220,Iraq,IQ,IRQ,"Al Anbār","Al Anbar",IQ-AN,governorate,,114.2,,,4,Asia/Baghdad,FALSE,1368342848
"Qaryat al Wasmīyah","Qaryat al Wasmiyah",,32.3002,44.3212,Iraq,IQ,IRQ,"An Najaf","An Najaf",IQ-NA,governorate,,843.4,,,3,Asia/Baghdad,FALSE,1368075082
"‘Abd Allāh ‘Abbās","`Abd Allah `Abbas",,32.8981,44.3923,Iraq,IQ,IRQ,Baghdād,Baghdad,IQ-BG,governorate,,234.3,,,3,Asia/Baghdad,FALSE,1368039216
"Qaryat Namīşah","Qaryat Namisah",Namisa|Namīsah,35.3092,43.5485,Iraq,IQ,IRQ,Karkūk,Karkuk,IQ-KI,governorate,,118.2,,,4,Asia/Baghdad,FALSE,1368925432
"Ḩamzah Jabbār","Hamzah Jabbar",,32.4122,44.6192,Iraq,IQ,IRQ,Bābil,Babil,IQ-BB,governorate,,276.3,,,3,Asia/Baghdad,FALSE,1368253788
Maḩmūd,Mahmud,,32.6219,45.4061,Iraq,IQ,IRQ,Wāsiţ,Wasit,IQ-WA,governorate,,80.3,,,4,Asia/Baghdad,FALSE,1368000023
"‘Abd Dubayy","`Abd Dubayy",,33.7282,44.8584,Iraq,IQ,IRQ,Diyālá,Diyala,IQ-DI,governorate,,17.5,,,4,Asia/Baghdad,FALSE,1368440538
"‘Arab Faraj Ḩamādī Rimḩ","`Arab Faraj Hamadi Rimh",,33.5393,44.0297,Iraq,IQ,IRQ,"Al Anbār","Al Anbar",IQ-AN,governorate,,186.3,,,4,Asia/Baghdad,FALSE,1368003159
"‘Azīz ‘Aţīyah","`Aziz `Atiyah",,33.9579,44.2751,Iraq,IQ,IRQ,"Şalāḩ ad Dīn","Salah ad Din",IQ-SD,governorate,,103.3,,,4,Asia/Baghdad,FALSE,1368017732
Sūrsūrah,Sursurah,Sorsōra,36.5094,44.3527,Iraq,IQ,IRQ,Arbīl,Arbil,IQ-AR,governorate,,215.5,,,3,Asia/Baghdad,FALSE,1368591887
"Ţāhā Yāsīn","Taha Yasin",,33.6438,44.3461,Iraq,IQ,IRQ,Baghdād,Baghdad,IQ-BG,governorate,,3141.4,,,2,Asia/Baghdad,FALSE,1368539360
"‘Arab ‘Ubayd Ḩamzah","`Arab `Ubayd Hamzah",,32.6437,44.4417,Iraq,IQ,IRQ,Bābil,Babil,IQ-BB,governorate,,150.8,,,4,Asia/Baghdad,FALSE,1368634983
"Qaryat Asqaf","Qaryat Asqaf",,36.3876,43.4517,Iraq,IQ,IRQ,Nīnawá,Ninawa,IQ-NI,governorate,,125.0,,,4,Asia/Baghdad,FALSE,1368559620
"Ya‘qūb al Burhān","Ya`qub al Burhan","Ya‘qūb Burhān",31.5770,46.2317,Iraq,IQ,IRQ,"Dhī Qār","Dhi Qar",IQ-DQ,governorate,,138.9,,,4,Asia/Baghdad,FALSE,1368110504
Bīrawkān,Birawkan,Birokan|Bīrōkān|Bîrokan,36.2819,44.4396,Iraq,IQ,IRQ,Arbīl,Arbil,IQ-AR,governorate,,215.5,,,3,Asia/Baghdad,FALSE,1368000381
"‘Ali al Amīr","`Ali al Amir",,32.5442,45.6818,Iraq,IQ,IRQ,Wāsiţ,Wasit,IQ-WA,governorate,,124.5,,,4,Asia/Baghdad,FALSE,1368383154
"Al ‘Iz̧āmī","Al `Izami",,29.5041,46.3173,Iraq,IQ,IRQ,"Al Muthanná","Al Muthanna",IQ-MU,governorate,,0.2,,,5,Asia/Baghdad,FALSE,1368825739
"Dwāzidah Hawār","Dwazidah Hawar","‘Umar Afandī|Ūmr Efiendi|‘Umr Effendi|Dwazda Hawar|Duwāzdah Hawār|Dwanze Hewar",35.5426,43.7919,Iraq,IQ,IRQ,Karkūk,Karkuk,IQ-KI,governorate,,36.7,,,4,Asia/Baghdad,FALSE,1368286374
"Karayzah Rabāţ","Karayzah Rabat","Karezai Rabat|Kārēza Rabāt|Karêze Ṟebet|Karêze-î Ṟebat",35.1925,45.2899,Iraq,IQ,IRQ,"As Sulaymānīyah","As Sulaymaniyah",IQ-SU,governorate,,90.5,,,4,Asia/Baghdad,FALSE,1368052187
"Qaryat Tabah","Qaryat Tabah",Balāwāt|Bālāwāt,36.2294,43.4033,Iraq,IQ,IRQ,Nīnawá,Ninawa,IQ-NI,governorate,,125.0,,,4,Asia/Baghdad,FALSE,1368490954
Qāwunīlā,Qawunila,Qaunira|Qaunila,36.9000,44.5491,Iraq,IQ,IRQ,Arbīl,Arbil,IQ-AR,governorate,,215.5,,,3,Asia/Baghdad,FALSE,1368828118
"‘Ab al ‘Alī","`Ab al `Ali",,35.2332,43.1443,Iraq,IQ,IRQ,"Şalāḩ ad Dīn","Salah ad Din",IQ-SD,governorate,,33.8,,,4,Asia/Baghdad,FALSE,1368190545
"Muḩammad as Saḩī","Muhammad as Sahi",,32.4083,44.6292,Iraq,IQ,IRQ,Bābil,Babil,IQ-BB,governorate,,276.3,,,3,Asia/Baghdad,FALSE,1368191377
"Ḩusayn al Khamīs","Husayn al Khamis",,33.7699,44.1560,Iraq,IQ,IRQ,"Şalāḩ ad Dīn","Salah ad Din",IQ-SD,governorate,,103.3,,,4,Asia/Baghdad,FALSE,1368971393
"Qaryat al Bu‘ayjī","Qaryat al Bu`ayji",,34.8960,43.5196,Iraq,IQ,IRQ,"Şalāḩ ad Dīn","Salah ad Din",IQ-SD,governorate,,66.9,,,4,Asia/Baghdad,FALSE,1368095013
Bārjīrkān,Barjirkan,Bargirdkān|Bargrka|Bergirke,36.5111,44.7979,Iraq,IQ,IRQ,Arbīl,Arbil,IQ-AR,governorate,,215.5,,,3,Asia/Baghdad,FALSE,1368730494
"‘Arab Jāsim Muḩammad","`Arab Jasim Muhammad",,33.8618,44.1260,Iraq,IQ,IRQ,"Şalāḩ ad Dīn","Salah ad Din",IQ-SD,governorate,,103.3,,,4,Asia/Baghdad,FALSE,1368340030
"‘Arab Jāsim Muḩammad","`Arab Jasim Muhammad",,34.3125,43.8439,Iraq,IQ,IRQ,"Şalāḩ ad Dīn","Salah ad Din",IQ-SD,governorate,,21.8,,,4,Asia/Baghdad,TRUE,1368000134
"‘Arab Jāsim Muḩammad","`Arab Jasim Muhammad",,34.4844,43.9347,Iraq,IQ,IRQ,"Şalāḩ ad Dīn","Salah ad Din",IQ-SD,governorate,,21.8,,,4,Asia/Baghdad,TRUE,1368241040
"‘Arab Jāsim Muḩammad","`Arab Jasim Muhammad",,34.0756,44.1942,Iraq,IQ,IRQ,"Şalāḩ ad Dīn","Salah ad Din",IQ-SD,governorate,,21.8,,,4,Asia/Baghdad,TRUE,1368239937
"Mūsá al Maţar","Musa al Matar","Husain al Mata|Ḩusayn al Maţar|Ḩusayn al Muţā",31.3074,46.2092,Iraq,IQ,IRQ,"Dhī Qār","Dhi Qar",IQ-DQ,governorate,,261.3,,,3,Asia/Baghdad,FALSE,1368810921
"Qaryat al ‘Arīshah al ‘Ulyā","Qaryat al `Arishah al `Ulya",,35.4673,43.8238,Iraq,IQ,IRQ,Karkūk,Karkuk,IQ-KI,governorate,,118.2,,,4,Asia/Baghdad,FALSE,1368688637
"Fāliḩ Shiyā‘","Falih Shiya`",,32.5191,46.3778,Iraq,IQ,IRQ,Wāsiţ,Wasit,IQ-WA,governorate,,124.5,,,4,Asia/Baghdad,FALSE,1368010627
"Michah Shal","Michah Shal","Mcha Shal|Micha Shal|Mche Shel",34.7241,45.3792,Iraq,IQ,IRQ,"As Sulaymānīyah","As Sulaymaniyah",IQ-SU,governorate,,113.7,,,4,Asia/Baghdad,FALSE,1368344144
"Mukhaylif aţ Ţu‘mah","Mukhaylif at Tu`mah",,31.9036,45.9776,Iraq,IQ,IRQ,"Dhī Qār","Dhi Qar",IQ-DQ,governorate,,138.9,,,4,Asia/Baghdad,FALSE,1368075084
"‘Arab ‘Alī Nafī","`Arab `Ali Nafi",,34.2174,43.7847,Iraq,IQ,IRQ,"Şalāḩ ad Dīn","Salah ad Din",IQ-SD,governorate,,111.2,,,4,Asia/Baghdad,FALSE,1368332542
"Raml Sayyid Nūr","Raml Sayyid Nur","Nazl Sayyid Nūr|Sayyid Nūr|Saiyid Nūr",31.7527,44.5137,Iraq,IQ,IRQ,"An Najaf","An Najaf",IQ-NA,governorate,,391.7,,,3,Asia/Baghdad,FALSE,1368959758
"Nāyif ‘Alī","Nayif `Ali",,33.3807,43.8888,Iraq,IQ,IRQ,"Al Anbār","Al Anbar",IQ-AN,governorate,,186.3,,,4,Asia/Baghdad,FALSE,1368140374
"‘Ajāj Nawāf","`Ajaj Nawaf",,34.3753,43.5785,Iraq,IQ,IRQ,"Şalāḩ ad Dīn","Salah ad Din",IQ-SD,governorate,,66.9,,,4,Asia/Baghdad,FALSE,1368383573
Albūrāmī,Alburami,,31.6011,46.2034,Iraq,IQ,IRQ,"Dhī Qār","Dhi Qar",IQ-DQ,governorate,,138.9,,,4,Asia/Baghdad,FALSE,1368640699
"‘Alī Jafāl","`Ali Jafal",,33.8776,44.0044,Iraq,IQ,IRQ,"Şalāḩ ad Dīn","Salah ad Din",IQ-SD,governorate,,103.3,,,4,Asia/Baghdad,FALSE,1368739192
"Day Kā","Day Ka","Dê Ge|Dēga|Deka|Dê Ke|Dega",36.1693,45.2028,Iraq,IQ,IRQ,"As Sulaymānīyah","As Sulaymaniyah",IQ-SU,governorate,,61.4,,,4,Asia/Baghdad,FALSE,1368212159
"Kurdī Muḩammad","Kurdi Muhammad",,34.2839,43.9013,Iraq,IQ,IRQ,"Şalāḩ ad Dīn","Salah ad Din",IQ-SD,governorate,,21.8,,,4,Asia/Baghdad,FALSE,1368743851
"‘Arab wa Shaykh Ghadīr","`Arab wa Shaykh Ghadir",,34.7312,43.9269,Iraq,IQ,IRQ,"Şalāḩ ad Dīn","Salah ad Din",IQ-SD,governorate,,66.9,,,4,Asia/Baghdad,FALSE,1368927380
