city,city_ascii,city_alt,lat,lng,country,iso2,iso3,admin_name,admin_name_ascii,admin_code,admin_type,capital,density,population,population_proper,ranking,timezone,same_name,id
Prizren,Prizren,Përzeren|Perzerin|Prizren,42.2128,20.7392,Kosovo,XK,XKS,Prizren,Prizren,XK-27,municipality,admin,207.6,220128,220128,2,Europe/Belgrade,FALSE,1901360309
Pristina,Pristina,Priština|Prishtinë|Prishtina,42.6633,21.1622,Kosovo,XK,XKS,Prishtinë,Prishtine,XK-26,municipality,primary,309.2,198897,198897,1,Europe/Belgrade,FALSE,1901760068
Ferizaj,Ferizaj,Ferezaj|Ferizovik|Uroševac,42.3667,21.1667,Kosovo,XK,XKS,Ferizaj,Ferizaj,XK-03,municipality,admin,123.7,108610,108610,2,Europe/Belgrade,FALSE,1901875540
Pejë,Peje,Peja|Ipek|Peć,42.6603,20.2917,Kosovo,XK,XKS,Pejë,Peje,XK-24,municipality,admin,81.2,96450,96450,2,Europe/Belgrade,FALSE,1901339694
Gjakovë,Gjakove,Djakovaica|Dakovaica|Yaqova|Djakovo|Djakovica|Ðakovica,42.3833,20.4333,Kosovo,XK,XKS,Gjakovë,Gjakove,XK-05,municipality,admin,161.1,94556,94556,2,Europe/Belgrade,FALSE,1901089874
Gjilan,Gjilan,Gniljane|Gilan|Gnjilane,42.4647,21.4669,Kosovo,XK,XKS,Gjilan,Gjilan,XK-06,municipality,admin,138.4,90178,90178,2,Europe/Belgrade,FALSE,1901235642
Podujevë,Podujeve,Podujevo|Podjevë|Besiana|Podujeva|Besianë,42.9105,21.1911,Kosovo,XK,XKS,Podujevë,Podujeve,XK-25,municipality,admin,139.8,88499,88499,2,Europe/Belgrade,FALSE,1901550082
Mitrovicë,Mitrovice,"Kosovska Mitrovica|Mitrovica Kosovska|Titova Mitrovica|Mitrovica",42.8833,20.8667,Kosovo,XK,XKS,,,,,admin,257.9,85360,85360,2,Europe/Belgrade,FALSE,1901138430
Lipjan,Lipjan,Lipljane|Lipljan,42.5300,21.1386,Kosovo,XK,XKS,Lipjan,Lipjan,XK-17,municipality,admin,79.5,77605,77605,2,Europe/Belgrade,FALSE,1901682048
Vushtrri,Vushtrri,Vuçitërnë|Vučitrn,42.8222,20.9694,Kosovo,XK,XKS,Vushtrri,Vushtrri,XK-35,municipality,admin,78.2,69870,69870,2,Europe/Belgrade,FALSE,1901107642
Suharekë,Suhareke,"Suha Reka|Sukarekë|Lumthatë|Suharjeka|Suva Reka|Suva Reki",42.3800,20.8219,Kosovo,XK,XKS,Suharekë,Suhareke,XK-33,municipality,admin,28.9,59722,59722,2,Europe/Belgrade,FALSE,1901918563
Gllogovc,Gllogovc,Gllogoci|Gllogofc|Glogovce|Drenas|Drenasi|Gllogoc|Glogovac,42.6236,20.8939,Kosovo,XK,XKS,Gllogovc,Gllogovc,XK-07,municipality,admin,22.3,58531,58531,2,Europe/Belgrade,FALSE,1901031751
Rahovec,Rahovec,Rahavec|Orahovac,42.3994,20.6547,Kosovo,XK,XKS,Rahovec,Rahovec,XK-28,municipality,admin,57.2,56208,56208,2,Europe/Belgrade,FALSE,1901336358
Skenderaj,Skenderaj,Skënderaj|Srbica,42.7333,20.7833,Kosovo,XK,XKS,Skenderaj,Skenderaj,XK-32,municipality,admin,25.1,50858,50858,2,Europe/Belgrade,FALSE,1901259570
Viti,Viti,Vitina,42.3167,21.3500,Kosovo,XK,XKS,Viti,Viti,XK-34,municipality,admin,18.2,46987,46987,2,Europe/Belgrade,FALSE,1901328795
"Fushë Kosovë","Fushe Kosove","Kosovo Polje|Fushë-Kosova|Kosovo",42.6300,21.1200,Kosovo,XK,XKS,"Fushë Kosovë","Fushe Kosove",XK-04,municipality,admin,223.1,39948,39948,2,Europe/Belgrade,FALSE,1901134407
Istog,Istog,Istogu|Burim|Burimi|Istok,42.7833,20.4833,Kosovo,XK,XKS,Istog,Istog,XK-10,municipality,admin,11.3,39289,39289,2,Europe/Belgrade,FALSE,1901248770
Klinë,Kline,Kliha|Klina,42.6167,20.5667,Kosovo,XK,XKS,Klinë,Kline,XK-14,municipality,admin,17.9,38496,38496,2,Europe/Belgrade,FALSE,1901230162
Kamenicë,Kamenice,"Kosovska Kamenica|Dardanë|Dardana|Gurash|Kamenica",42.5839,21.5750,Kosovo,XK,XKS,Kamenicë,Kamenice,XK-13,municipality,admin,85.1,36085,36085,2,Europe/Belgrade,FALSE,1901851592
Dragash,Dragash,Dragaš|Dagash|Dragashi|Sharr|Sharri,42.0611,20.6528,Kosovo,XK,XKS,Dragash,Dragash,XK-02,municipality,admin,2.6,34827,34827,2,Europe/Belgrade,FALSE,1901112530
Kaçanik,Kacanik,Orhanye|Kačanik,42.2467,21.2553,Kosovo,XK,XKS,Kaçanik,Kacanik,XK-12,municipality,admin,71.1,33409,33409,2,Europe/Belgrade,FALSE,1901200321
Shtime,Shtime,Štimlja|Štimlje,42.4333,21.0333,Kosovo,XK,XKS,Shtime,Shtime,XK-31,municipality,admin,53.9,27324,27324,2,Europe/Belgrade,FALSE,1901598505
Leposaviq,Leposaviq,Leposavići|Leposavić,43.1000,20.8000,Kosovo,XK,XKS,Leposaviq,Leposaviq,XK-16,municipality,admin,34.5,18600,18600,2,Europe/Belgrade,FALSE,1901974597
Zveçan,Zvecan,Zaccan|Zvečan,42.9000,20.8333,Kosovo,XK,XKS,Zveçan,Zvecan,XK-37,municipality,admin,136.5,16650,16650,2,Europe/Belgrade,FALSE,1901208362
"Zubin Potok","Zubin Potok","Zubinpotok|Zubin Potok",42.9167,20.6833,Kosovo,XK,XKS,"Zubin Potok","Zubin Potok",XK-36,municipality,admin,45.4,15200,15200,2,Europe/Belgrade,FALSE,1901608808
Vitomiricë,Vitomirice,Vitomirushë|Vitomiric|Vitomerica|Arbnia|Vitomirica,42.6819,20.3173,Kosovo,XK,XKS,Pejë,Peje,XK-24,municipality,,177.3,14523,14523,3,Europe/Belgrade,FALSE,1901482786
Matiçan,Matican,Matičane|Matiqan,42.6449,21.1918,Kosovo,XK,XKS,Prishtinë,Prishtine,XK-26,municipality,,497.5,13876,13876,3,Europe/Belgrade,FALSE,1901916938
Shtërpcë,Shterpce,Štrice|Štrpce,42.2333,21.0167,Kosovo,XK,XKS,Shtërpcë,Shterpce,XK-30,municipality,admin,56.0,13858,13858,2,Europe/Belgrade,FALSE,1901828239
Graçanicë,Gracanice,"Ulkian|Gračanica|Graqanicë|Manastir Gračanica|Gracanicë",42.6000,21.2000,Kosovo,XK,XKS,Graçanicë,Gracanice,XK-08,municipality,admin,34.3,10675,10675,2,Europe/Belgrade,FALSE,1901753443
"Hani i Elezit","Hani i Elezit","Han i Elezit|Ðeneral Janković|Jankovic|Dženeral Janković",42.1475,21.2992,Kosovo,XK,XKS,"Hani i Elezit","Hani i Elezit",XK-09,municipality,admin,30.6,9403,9403,2,Europe/Belgrade,FALSE,1901964789
Dushanovë,Dushanove,Dušanovac|Rrallinë|Arbanë|Dushanova|Arbana|Dušanovo,42.2347,20.7091,Kosovo,XK,XKS,Prizren,Prizren,XK-27,municipality,,349.6,9398,9398,3,Europe/Belgrade,FALSE,1901150015
Zhur,Zhur,Zhuri|Žur,42.1639,20.6211,Kosovo,XK,XKS,Prizren,Prizren,XK-27,municipality,,349.6,8927,8927,3,Europe/Belgrade,FALSE,1901520274
"Donje Žabare","Donje Zabare","Zabari i Ultë|Zhabar i Poshtëm|Zhabari i Ultë|Zhabarë",42.8714,20.8411,Kosovo,XK,XKS,"Mitrovicë e Jugut","Mitrovice e Jugut",XK-38,municipality,,285.4,7394,7394,3,Europe/Belgrade,FALSE,1901942268
Hajvali,Hajvali,Ajvalija,42.6167,21.1833,Kosovo,XK,XKS,Prishtinë,Prishtine,XK-26,municipality,,497.5,7391,7391,3,Europe/Belgrade,FALSE,1901787211
Novobërdë,Novoberde,"Artanë|Artana|Novo Brdo|Novobërda",42.6000,21.4333,Kosovo,XK,XKS,Novobërdë,Novoberde,XK-21,municipality,admin,32.9,7121,7121,2,Europe/Belgrade,FALSE,1901684676
Obiliq,Obiliq,Kastriot|Gllaboder|Obilić,42.6900,21.0778,Kosovo,XK,XKS,Obiliq,Obiliq,XK-22,municipality,admin,65.5,6864,6864,2,Europe/Belgrade,FALSE,1901102771
Junik,Junik,Junik,42.4761,20.2775,Kosovo,XK,XKS,Junik,Junik,XK-11,municipality,admin,77.8,6084,6084,2,Europe/Belgrade,FALSE,1901930204
Lubizhdë,Lubizhde,Lupisht|Lubizhda|Ljubižda|Ljubižde,42.2380,20.7615,Kosovo,XK,XKS,Prizren,Prizren,XK-27,municipality,,349.6,5982,5982,3,Europe/Belgrade,TRUE,1901080082
Ranillug,Ranillug,Ranillugu|Ranllug|Ranilug,42.4920,21.5590,Kosovo,XK,XKS,Ranillug,Ranillug,XK-29,municipality,admin,74.7,5800,5800,2,Europe/Belgrade,FALSE,1901029901
Bresje,Bresje,Brecë|Bresja|Bresje,42.6264,21.0874,Kosovo,XK,XKS,"Fushë Kosovë","Fushe Kosove",XK-04,municipality,,616.9,5596,5596,3,Europe/Belgrade,FALSE,1901668701
Mamushë,Mamushe,Mamuşa|Mamuša|Mamusha|Mamus,42.3167,20.7167,Kosovo,XK,XKS,Mamushë,Mamushe,XK-19,municipality,admin,470.7,5507,5507,2,Europe/Belgrade,FALSE,1901042958
Korishë,Korishe,Korish|Koriš|Koriša,42.2576,20.7981,Kosovo,XK,XKS,Prizren,Prizren,XK-27,municipality,,349.6,5279,5279,3,Europe/Belgrade,FALSE,1901393938
Damjan,Damjan,Demjan|Damnjane|Damjane,42.2960,20.5162,Kosovo,XK,XKS,Gjakovë,Gjakove,XK-05,municipality,,190.8,5133,5133,4,Europe/Belgrade,FALSE,1901520545
Mejë,Meje,Meja,42.3745,20.4001,Kosovo,XK,XKS,Gjakovë,Gjakove,XK-05,municipality,,190.8,4888,4888,4,Europe/Belgrade,FALSE,1901494593
Shipol,Shipol,Sipol|Šipolje,42.8636,20.8489,Kosovo,XK,XKS,"Mitrovicë e Jugut","Mitrovice e Jugut",XK-38,municipality,,285.4,4834,4834,3,Europe/Belgrade,FALSE,1901863128
Gjonaj,Gjonaj,Ðone|Djonaj|Ðonaj,42.2505,20.6172,Kosovo,XK,XKS,Prizren,Prizren,XK-27,municipality,,349.6,4818,4818,3,Europe/Belgrade,FALSE,1901651079
Restelicë,Restelice,Rastelica|Restelica,41.9428,20.6684,Kosovo,XK,XKS,Dragash,Dragash,XK-02,municipality,,75.2,4698,4698,4,Europe/Belgrade,FALSE,1901713812
Pleshinë,Pleshine,Pleshtinë|Plešina,42.3444,21.1067,Kosovo,XK,XKS,Ferizaj,Ferizaj,XK-03,municipality,,387.4,4506,4506,3,Europe/Belgrade,FALSE,1901015183
"Krushë e Madhe","Krushe e Madhe","Krusha e Madhe|Krushë|Kruša-Vogele|Velika Kruša",42.3190,20.6360,Kosovo,XK,XKS,Rahovec,Rahovec,XK-28,municipality,,248.0,4473,4473,3,Europe/Belgrade,FALSE,1901592537
Greme,Greme,Gremë|Grebno,42.3183,21.1572,Kosovo,XK,XKS,Ferizaj,Ferizaj,XK-03,municipality,,387.4,4421,4421,3,Europe/Belgrade,FALSE,1901709475
Komogllavë,Komogllave,"Kamena Glava",42.3431,21.2158,Kosovo,XK,XKS,Ferizaj,Ferizaj,XK-03,municipality,,387.4,4404,4404,3,Europe/Belgrade,FALSE,1901858263
Komoran,Komoran,Bushat|Bushati|Kamarani|Kamaran|Komorane,42.5789,20.9039,Kosovo,XK,XKS,Gllogovc,Gllogovc,XK-07,municipality,,255.4,4393,4393,3,Europe/Belgrade,FALSE,1901144598
Pozharan,Pozharan,Pozheran|Požarane|Požaranje,42.3648,21.3372,Kosovo,XK,XKS,Viti,Viti,XK-34,municipality,,177.0,4247,4247,4,Europe/Belgrade,FALSE,1901243584
"Stanoc i Poshtëm","Stanoc i Poshtem","Stanofc i Poshtëm|Stanovci i Poshtëm|Čerkez-kej|Donje Stanovce",42.7597,21.0491,Kosovo,XK,XKS,Vushtrri,Vushtrri,XK-35,municipality,,235.1,4237,4237,3,Europe/Belgrade,FALSE,1901316389
Rogovë,Rogove,Rogovo,42.3312,20.5801,Kosovo,XK,XKS,Gjakovë,Gjakove,XK-05,municipality,,215.9,4115,4115,3,Europe/Belgrade,FALSE,1901098711
Tërstenik,Terstenik,Qendresë|Tërsteniku|Qendresa|Trstenik,42.6575,20.8544,Kosovo,XK,XKS,Gllogovc,Gllogovc,XK-07,municipality,,255.4,3903,3903,3,Europe/Belgrade,FALSE,1901732751
Smirë,Smire,Smira,42.2982,21.3212,Kosovo,XK,XKS,Viti,Viti,XK-34,municipality,,177.0,3872,3872,4,Europe/Belgrade,FALSE,1901554671
Istinić,Istinic,Isnic|Isniq|Istinic|Isniqi|Istiniq|Rrezari|Isnik|Isniki|Isnić,42.5569,20.3028,Kosovo,XK,XKS,Deçan,Decan,XK-01,municipality,,142.9,3871,3871,4,Europe/Belgrade,FALSE,1901950117
Deçan,Decan,Dečane|Dečani,42.5333,20.2833,Kosovo,XK,XKS,Deçan,Decan,XK-01,municipality,admin,142.9,3803,3803,2,Europe/Belgrade,FALSE,1901189818
Gllamnik,Gllamnik,Gllamniku|Vendenisi|Vendenis|Gllavnik|Glavnik,42.8707,21.1828,Kosovo,XK,XKS,Podujevë,Podujeve,XK-25,municipality,,144.3,3794,3794,4,Europe/Belgrade,FALSE,1901074031
Ratkoc,Ratkoc,Ratkovc|Ratkovce|Ratkovac,42.4094,20.5397,Kosovo,XK,XKS,Rahovec,Rahovec,XK-28,municipality,,248.0,3791,3791,3,Europe/Belgrade,FALSE,1901540335
Nekodim,Nekodim,Nekodin|Nikodin|Nekodim,42.3492,21.1728,Kosovo,XK,XKS,Ferizaj,Ferizaj,XK-03,municipality,,387.4,3718,3718,3,Europe/Belgrade,FALSE,1901409714
Banjë,Banje,Bajë|Banja,42.4644,20.7791,Kosovo,XK,XKS,Malishevë,Malisheve,XK-18,municipality,,230.0,3639,3639,3,Europe/Belgrade,FALSE,1901009959
Llashkadrenoc,Llashkadrenoc,"Vllashkidrenovc|Llashkadrënoc|Vlavshki Drenovac|Vlaški Drenovac",42.5396,20.7179,Kosovo,XK,XKS,Malishevë,Malisheve,XK-18,municipality,,230.0,3573,3573,3,Europe/Belgrade,FALSE,1901999480
"Donji Crnobreg","Donji Crnobreg","Qarrabregu i Poshtëm|Carabreg i Ulët|Carrabregu i Poshtëm|Cërrabreg|Carrabreg i Poshtem|Crni Breg|Crnabreg",42.5333,20.2833,Kosovo,XK,XKS,Deçan,Decan,XK-01,municipality,,142.9,3505,3505,4,Europe/Belgrade,FALSE,1901991644
"Donji Livoč","Donji Livoc","Livoçi i Ultë|Livoç i Poshtëm|Livoçi i Poshtëm|Livoc|Livoq i Poshtëm|Livoç i Ultë",42.4307,21.4539,Kosovo,XK,XKS,Gjilan,Gjilan,XK-06,municipality,,254.5,3497,3497,3,Europe/Belgrade,FALSE,1901567737
Koretin,Koretin,Koretini|Koretin,42.5500,21.5972,Kosovo,XK,XKS,Kamenicë,Kamenice,XK-13,municipality,,76.3,3476,3476,4,Europe/Belgrade,FALSE,1901628043
Llapushnik,Llapushnik,Lopušnik|Llapushniku|Lapušnik,42.5656,20.8439,Kosovo,XK,XKS,Gllogovc,Gllogovc,XK-07,municipality,,255.4,3433,3433,3,Europe/Belgrade,FALSE,1901693547
Sllovi,Sllovi,Slovinje,42.5217,21.2212,Kosovo,XK,XKS,Lipjan,Lipjan,XK-17,municipality,,208.2,3428,3428,3,Europe/Belgrade,FALSE,1901741697
"Jerli Talinovac","Jerli Talinovac","Jerlitalinovc|Talinoc i Jerlive|Jerli|Jerli Talinovci",42.3863,21.1514,Kosovo,XK,XKS,Ferizaj,Ferizaj,XK-03,municipality,,387.4,3428,3428,3,Europe/Belgrade,FALSE,1901915648
"Veliki Kičić","Veliki Kicic","Kçiq i Madh|Kçiqi i Madh|Velike Kičiće|Veliko Kičiće",42.8706,20.9222,Kosovo,XK,XKS,"Mitrovicë e Jugut","Mitrovice e Jugut",XK-38,municipality,,285.4,3412,3412,3,Europe/Belgrade,FALSE,1901968489
"Hoçë e Qytetit","Hoce e Qytetit","Hoqa e Zagragjës|Hoça e Gjytetit|Hoça|Haqa e Zagragjesë|Hoçë|Hoqë|Oče Zagradske|Oče Zagradska|Hoča Zagradska",42.1749,20.6902,Kosovo,XK,XKS,Prizren,Prizren,XK-27,municipality,,349.6,3410,3410,3,Europe/Belgrade,FALSE,1901985406
Malishevë,Malisheve,Mališevo,42.4828,20.7461,Kosovo,XK,XKS,Malishevë,Malisheve,XK-18,municipality,admin,11.1,3395,3395,2,Europe/Belgrade,FALSE,1901597212
Mushtishtë,Mushtishte,Mushtisht|Mushitishtë|Mušutište,42.2986,20.8889,Kosovo,XK,XKS,Suharekë,Suhareke,XK-33,municipality,,205.7,3394,3394,3,Europe/Belgrade,FALSE,1901340571
Bllacë,Bllace,Blace,42.4231,20.8625,Kosovo,XK,XKS,Suharekë,Suhareke,XK-33,municipality,,205.7,3357,3357,3,Europe/Belgrade,FALSE,1901570157
"Strellc i Epërm","Strellc i Eperm","Stralic i Epërm|Strallc i Epërm|Stralli i Epërm|Strellci i Epërm|Strellc|Gornji Streoci|Streoci|Gornji Streoc",42.5786,20.2941,Kosovo,XK,XKS,Deçan,Decan,XK-01,municipality,,142.9,3347,3347,4,Europe/Belgrade,FALSE,1901787123
"Donje Gadimlje","Donje Gadimlje","Gadime e Ulët|Gadimla e Ultë|Gadime e Ultë|Gadime e Poshtëme|Gadime e Poshtme|Donja Gadimlja",42.4767,21.2055,Kosovo,XK,XKS,Lipjan,Lipjan,XK-17,municipality,,208.2,3337,3337,3,Europe/Belgrade,FALSE,1901370892
Zhegër,Zheger,Žegra,42.3706,21.4850,Kosovo,XK,XKS,Gjilan,Gjilan,XK-06,municipality,,254.5,3327,3327,3,Europe/Belgrade,FALSE,1901243102
Studençan,Studencan,Studenqan|Strudeçane|Studenčane,42.3586,20.7586,Kosovo,XK,XKS,Suharekë,Suhareke,XK-33,municipality,,205.7,3311,3311,3,Europe/Belgrade,FALSE,1901948975
Samodraža,Samodraza,Samodrazhe|Samodraže|Samodrezh|Samadrexhë,42.3634,20.7403,Kosovo,XK,XKS,Suharekë,Suhareke,XK-33,municipality,,205.7,3249,3249,3,Europe/Belgrade,FALSE,1901402640
Xërxë,Xerxe,Žirče|Zirze|Zrze,42.3482,20.5693,Kosovo,XK,XKS,Rahovec,Rahovec,XK-28,municipality,,248.0,3184,3184,3,Europe/Belgrade,FALSE,1901185209
Malishevë,Malisheve,Maleševo|Malishte-a|Mališevo,42.4528,21.5069,Kosovo,XK,XKS,Gjilan,Gjilan,XK-06,municipality,,254.5,3165,3165,3,Europe/Belgrade,FALSE,1901828254
Arllat,Arllat,Orlash|Arllati|Orlat|Arlat|Orlatti|Orlate,42.5452,20.8329,Kosovo,XK,XKS,Gllogovc,Gllogovc,XK-07,municipality,,255.4,3134,3134,3,Europe/Belgrade,FALSE,1901913710
Nekoc,Nekoc,Nekovc|Nekofc|Nekoci|Nekaj|Nukovcje|Nekovce,42.5355,20.8973,Kosovo,XK,XKS,Gllogovc,Gllogovc,XK-07,municipality,,255.4,3118,3118,3,Europe/Belgrade,FALSE,1901440027
Obranqë,Obranqe,Obrançë|Obrança|Abrangjë|Obrandža|Obrangj|Obranža|Kastrati|Kastrat,42.9139,21.1706,Kosovo,XK,XKS,Podujevë,Podujeve,XK-25,municipality,,144.3,3092,3092,4,Europe/Belgrade,FALSE,1901926592
Sopijë,Sopije,Sopin|Sopi|Sopia|Sopina,42.3356,20.8436,Kosovo,XK,XKS,Suharekë,Suhareke,XK-33,municipality,,205.7,3017,3017,3,Europe/Belgrade,FALSE,1901003913
"Dumnicë e Poshtme","Dumnice e Poshtme","Donja Dubnica|Dumnicë e Poshtëme|Livadhi|Livadhia|Dumnica e Poshtme|Dumnica e Ultë",42.9667,21.2000,Kosovo,XK,XKS,Podujevë,Podujeve,XK-25,municipality,,150.4,2975,2975,4,Europe/Belgrade,FALSE,1901898373
Brekoc,Brekoc,Brekovë|Brekovc|Brekovac,42.3581,20.4056,Kosovo,XK,XKS,Gjakovë,Gjakove,XK-05,municipality,,190.8,2948,2948,4,Europe/Belgrade,FALSE,1901929012
Mazgit,Mazgit,"Donji Mazgit|Mazoit|Mazgit",42.6890,21.0908,Kosovo,XK,XKS,Obiliq,Obiliq,XK-22,municipality,,248.8,2886,2886,3,Europe/Belgrade,FALSE,1901573311
Brodosanë,Brodosane,Bresanë|Bradosavci|Brdosavce|Brodosavce,42.1288,20.7325,Kosovo,XK,XKS,Dragash,Dragash,XK-02,municipality,,75.2,2839,2839,4,Europe/Belgrade,FALSE,1901149040
Bresalc,Bresalc,Brasaljce|Brasalc|Bresaljce|Bresaic|Bresalci|Bresallc,42.4964,21.4050,Kosovo,XK,XKS,Gjilan,Gjilan,XK-06,municipality,,254.5,2823,2823,3,Europe/Belgrade,FALSE,1901975203
"Bardhi i Madh","Bardhi i Madh","Veliki Belaćevac|Bellaqefci i Madh",42.6315,21.0222,Kosovo,XK,XKS,"Fushë Kosovë","Fushe Kosove",XK-04,municipality,,696.3,2750,2750,3,Europe/Belgrade,FALSE,1901491398
Romajë,Romaje,Ramajë|Ramaja|Romaja,42.2919,20.5928,Kosovo,XK,XKS,Prizren,Prizren,XK-27,municipality,,349.6,2747,2747,3,Europe/Belgrade,FALSE,1901038556
Llaushë,Llaushe,Lauša,42.7295,20.7711,Kosovo,XK,XKS,Skenderaj,Skenderaj,XK-32,municipality,,151.8,2744,2744,4,Europe/Belgrade,FALSE,1901191008
Lubizhdë,Lubizhde,"Lubizhdë e Hasit|Lupishtë e Hasit|Lupishtë|Lubizhë e Hasit|Lubizhda e Hasit|Ljubižde Has|Ljubižda Has|Ljubižda|Ljubižde",42.2505,20.6172,Kosovo,XK,XKS,Prizren,Prizren,XK-27,municipality,,349.6,2719,2719,3,Europe/Belgrade,FALSE,1901965073
Polac,Polac,"Veljić Mahala|Poljance",42.7378,20.8233,Kosovo,XK,XKS,Skenderaj,Skenderaj,XK-32,municipality,,12.3,2701,2701,4,Europe/Belgrade,FALSE,1901654767
"Llapashticë e Poshtme","Llapashtice e Poshtme","Llapashtice e Poshtëme|Llapashtica e Poshtme|Donja Lapaštica",42.8875,21.1733,Kosovo,XK,XKS,Podujevë,Podujeve,XK-25,municipality,,144.3,2701,2701,4,Europe/Belgrade,FALSE,1901122148
Rogaçicë,Rogacice,Rogoçica|Roganë|Rogana|Rogačica,42.5556,21.6831,Kosovo,XK,XKS,Kamenicë,Kamenice,XK-13,municipality,,76.3,2668,2668,4,Europe/Belgrade,FALSE,1901251524
Dobrčane,Dobrcane,Dobërçani|Miresh|Miroshi|Dobërqan|Dobërçan,42.4732,21.5714,Kosovo,XK,XKS,Gjilan,Gjilan,XK-06,municipality,,254.5,2659,2659,3,Europe/Belgrade,FALSE,1901331540
"Gadime e Epërme","Gadime e Eperme","Gadimla e Epërme|Gornja Grdimlja|Gornja Gadimija|Gornje Gadimlje",42.4900,21.2259,Kosovo,XK,XKS,Lipjan,Lipjan,XK-17,municipality,,208.2,2641,2641,3,Europe/Belgrade,FALSE,1901049031
Vrellë,Vrelle,Vrella|Tedel|Tedeli|Vrelo|Vrela,42.7706,20.4044,Kosovo,XK,XKS,Istog,Istog,XK-10,municipality,,103.2,2641,2641,4,Europe/Belgrade,FALSE,1901303837
Bradash,Bradash,Bradaš|Bradaša|Bradeš|Bradashi,42.9399,21.1388,Kosovo,XK,XKS,Podujevë,Podujeve,XK-25,municipality,,144.3,2567,2567,4,Europe/Belgrade,FALSE,1901456490
Kllokot,Kllokot,Klokot|Kllotkot,42.3667,21.3833,Kosovo,XK,XKS,Kllokot,Kllokot,XK-15,municipality,admin,88.9,2556,2556,2,Europe/Belgrade,FALSE,1901445768
"Gornji Livoč","Gornji Livoc","Livoç i Epërm|Livoçi i Epërm|Livoq i Epërm",42.4539,21.4316,Kosovo,XK,XKS,Gjilan,Gjilan,XK-06,municipality,,254.5,2551,2551,3,Europe/Belgrade,FALSE,1901376481
Kolovicë,Kolovice,Kojlovica|Kojilovica,42.6852,21.1968,Kosovo,XK,XKS,Prishtinë,Prishtine,XK-26,municipality,,497.5,2545,2545,3,Europe/Belgrade,FALSE,1901497091
Petrovë,Petrove,Petrovo,42.4055,21.0392,Kosovo,XK,XKS,Shtime,Shtime,XK-31,municipality,,248.3,2543,2543,3,Europe/Belgrade,FALSE,1901341774
Grejkoc,Grejkoc,Greikoc|Grejkovc|Grekovce|Grekoc|Grejkovce,42.2840,20.8340,Kosovo,XK,XKS,Suharekë,Suhareke,XK-33,municipality,,205.7,2534,2534,3,Europe/Belgrade,FALSE,1901343364
Shalë,Shale,Sedllar|Sedllarë|Seglare|Shale|Sedlare,42.5024,20.9209,Kosovo,XK,XKS,Lipjan,Lipjan,XK-17,municipality,,208.2,2517,2517,3,Europe/Belgrade,FALSE,1901149773
"Stanoc i Epërm","Stanoc i Eperm","Stanovc i Epërm|Statofc i Epërm|Stanovci i Epërm|Gornje Stanovce",42.7611,21.0513,Kosovo,XK,XKS,Vushtrri,Vushtrri,XK-35,municipality,,235.1,2501,2501,3,Europe/Belgrade,FALSE,1901444120
Gjylekar,Gjylekar,Skifteraj|Gjylekarë|Ðelekare,42.3478,21.4278,Kosovo,XK,XKS,Viti,Viti,XK-34,municipality,,177.0,2499,2499,4,Europe/Belgrade,FALSE,1901730063
Varosh,Varosh,"Varoš|Varoš Selo",42.3422,21.1764,Kosovo,XK,XKS,Ferizaj,Ferizaj,XK-03,municipality,,387.4,2483,2483,3,Europe/Belgrade,FALSE,1901201111
Sverkë,Sverke,Sferkë|Svrhë|Cvrhë|Svrhe,42.5437,20.6141,Kosovo,XK,XKS,Klinë,Kline,XK-14,municipality,,155.8,2448,2448,4,Europe/Belgrade,FALSE,1901125495
Gllarevë,Gllareve,Qëndresa|Qëndresë|Gllareva|Iglarevo,42.5926,20.6686,Kosovo,XK,XKS,Klinë,Kline,XK-14,municipality,,155.8,2448,2448,4,Europe/Belgrade,FALSE,1901890280
Odanovce,Odanovce,Hodonoc|Hodonovc|Hodanovci|Hodonovci|Hodanoci|Hodonc|Hodanaj,42.5381,21.6789,Kosovo,XK,XKS,Ranillug,Ranillug,XK-29,municipality,,76.3,2446,2446,4,Europe/Belgrade,FALSE,1901344082
Piranë,Pirane,Piran|Pirana|Pirane,42.2922,20.6736,Kosovo,XK,XKS,Prizren,Prizren,XK-27,municipality,,349.6,2417,2417,3,Europe/Belgrade,FALSE,1901586887
Gatnje,Gatnje,"Gornje Gatnje|Donje Gatnje|Gatnë|Gaçkë|Gatnja",42.2953,21.1508,Kosovo,XK,XKS,Ferizaj,Ferizaj,XK-03,municipality,,387.4,2368,2368,3,Europe/Belgrade,FALSE,1901568657
"Llapashticë e Epërme","Llapashtice e Eperme","Gornja Lapaštica",42.8967,21.1395,Kosovo,XK,XKS,Podujevë,Podujeve,XK-25,municipality,,144.3,2363,2363,4,Europe/Belgrade,FALSE,1901316693
Bajçinë,Bajcine,Bajčina|Anallap|Anallapi|Bajqinë,42.9509,21.1569,Kosovo,XK,XKS,Podujevë,Podujeve,XK-25,municipality,,144.3,2358,2358,4,Europe/Belgrade,FALSE,1901676557
Radostë,Radoste,Radoste|Radosti,42.3887,20.5371,Kosovo,XK,XKS,Rahovec,Rahovec,XK-28,municipality,,248.0,2346,2346,3,Europe/Belgrade,FALSE,1901343514
Batlava,Batlava,Batllavë,42.8358,21.2469,Kosovo,XK,XKS,Podujevë,Podujeve,XK-25,municipality,,144.3,2334,2334,4,Europe/Belgrade,FALSE,1901196964
Kabash,Kabash,Kabaš,42.3030,21.3533,Kosovo,XK,XKS,Viti,Viti,XK-34,municipality,,177.0,2324,2324,4,Europe/Belgrade,FALSE,1901735860
"Gornja Slatina","Gornja Slatina","Sllatinë e Epërme|Sllatinë|Slatina",42.3599,21.2959,Kosovo,XK,XKS,Viti,Viti,XK-34,municipality,,220.7,2317,2317,3,Europe/Belgrade,FALSE,1901847996
Baicë,Baice,"Baica e Elshanit|Banjica",42.5202,20.9148,Kosovo,XK,XKS,Lipjan,Lipjan,XK-17,municipality,,224.1,2307,2307,3,Europe/Belgrade,FALSE,1901332622
Bellacërkë,Bellacerke,"Bellacrkvë|Belacërk|Bela Crkva",42.3500,20.5833,Kosovo,XK,XKS,Rahovec,Rahovec,XK-28,municipality,,248.0,2270,2270,3,Europe/Belgrade,FALSE,1901483108
Raushiq,Raushiq,"Rrafshi|Stari Raušić|Raushiqi|Raush|Raushi|Raušić",42.6148,20.3121,Kosovo,XK,XKS,Pejë,Peje,XK-24,municipality,,177.3,2260,2260,4,Europe/Belgrade,FALSE,1901577361
Skivjan,Skivjan,Skivljane|Skivijani|Skifiani|Skifjan|Skivjane,42.4303,20.3838,Kosovo,XK,XKS,Gjakovë,Gjakove,XK-05,municipality,,190.8,2254,2254,4,Europe/Belgrade,FALSE,1901692096
Sečište,Seciste,Seçishtë|Seqishtë|Sećište,42.1442,21.2939,Kosovo,XK,XKS,"Hani i Elezit","Hani i Elezit",XK-09,municipality,,126.0,2252,2252,4,Europe/Belgrade,FALSE,1901375291
"Nëntë Jugoviq","Nente Jugoviq","Devet Jugovića",42.7161,21.1496,Kosovo,XK,XKS,Prishtinë,Prishtine,XK-26,municipality,,497.5,2229,2229,3,Europe/Belgrade,FALSE,1901307359
Carralukë,Carraluke,"Caralug|Crni Lug",42.5182,20.7857,Kosovo,XK,XKS,Malishevë,Malisheve,XK-18,municipality,,230.0,2226,2226,3,Europe/Belgrade,FALSE,1901695292
"Dobrajë e Madhe","Dobraje e Madhe","Dobraja e Madhe|Velika Dobranja|Dobranja",42.5424,21.0461,Kosovo,XK,XKS,Lipjan,Lipjan,XK-17,municipality,,208.2,2224,2224,3,Europe/Belgrade,FALSE,1901022956
Ðinovce,Dinovce,Gjinovc|Gjinofc|Gjinoc|Džinovce,42.3185,20.8184,Kosovo,XK,XKS,Suharekë,Suhareke,XK-33,municipality,,205.7,2221,2221,3,Europe/Belgrade,FALSE,1901376972
Barilevë,Barileve,Bariljevo,42.7544,21.1191,Kosovo,XK,XKS,Prishtinë,Prishtine,XK-26,municipality,,497.5,2212,2212,3,Europe/Belgrade,FALSE,1901723162
Ðurakovac,Durakovac,Gjurakovc|Durakovac|Gjurakoc|Gjurakoc|Gurrakoc|Gurakoc|Gurakoci,42.7256,20.4719,Kosovo,XK,XKS,Istog,Istog,XK-10,municipality,,103.2,2209,2209,4,Europe/Belgrade,FALSE,1901063679
Bellanicë,Bellanice,Belanica,42.4575,20.8141,Kosovo,XK,XKS,Malishevë,Malisheve,XK-18,municipality,,230.0,2207,2207,3,Europe/Belgrade,FALSE,1901753689
"Veliko Ribare","Veliko Ribare","Ribar i Madh|Ribari i Madh",42.5098,21.0403,Kosovo,XK,XKS,Lipjan,Lipjan,XK-17,municipality,,208.2,2200,2200,3,Europe/Belgrade,FALSE,1901270736
Astrazup,Astrazup,Astrazub|Astrozub|Ostrozub,42.4478,20.6981,Kosovo,XK,XKS,Malishevë,Malisheve,XK-18,municipality,,230.0,2192,2192,3,Europe/Belgrade,FALSE,1901127345
Leshak,Leshak,Lezak|Lešak|Leshaku,43.1669,20.7419,Kosovo,XK,XKS,Leposaviq,Leposaviq,XK-16,municipality,,23.6,2180,2180,4,Europe/Belgrade,FALSE,1901028008
Prugoc,Prugoc,Prugovne|Prugovce|Prugovac,42.7341,21.1081,Kosovo,XK,XKS,Prishtinë,Prishtine,XK-26,municipality,,497.5,2168,2168,3,Europe/Belgrade,FALSE,1901958907
Prilep,Prilep,Përlep|Arrnjet|Arrnjeti|Prelep|Prejlepi|Prejlep|Prilip|Prilep,42.5000,20.3167,Kosovo,XK,XKS,Deçan,Decan,XK-01,municipality,,142.9,2165,2165,4,Europe/Belgrade,FALSE,1901908886
Peqan,Peqan,Reçan|Pećane,42.3825,20.8230,Kosovo,XK,XKS,Suharekë,Suhareke,XK-33,municipality,,205.7,2151,2151,3,Europe/Belgrade,FALSE,1901707058
Janjevë,Janjeve,Janjevo,42.5739,21.2489,Kosovo,XK,XKS,Lipjan,Lipjan,XK-17,municipality,,208.5,2137,2137,3,Europe/Belgrade,FALSE,1901732421
Beguncë,Begunce,Begunce,42.3014,21.3885,Kosovo,XK,XKS,Viti,Viti,XK-34,municipality,,177.0,2133,2133,4,Europe/Belgrade,FALSE,1901535397
Balovac,Balovac,Balloc|Ballofci|Ballsh|Ballshi|Ballovc|Balovce|Ballofc,42.8953,21.2367,Kosovo,XK,XKS,Podujevë,Podujeve,XK-25,municipality,,144.3,2131,2131,4,Europe/Belgrade,FALSE,1901296816
"Prekaz i Epërm","Prekaz i Eperm","Prekazi i Epërm|Gornje Prekaze",42.7823,20.8290,Kosovo,XK,XKS,Skenderaj,Skenderaj,XK-32,municipality,,151.8,2126,2126,4,Europe/Belgrade,FALSE,1901264599
Begracë,Begrace,Bellogaraca|Belogradce|Belograce,42.3103,21.2428,Kosovo,XK,XKS,Kaçanik,Kacanik,XK-12,municipality,,164.5,2116,2116,4,Europe/Belgrade,FALSE,1901876999
"Donji Streoc","Donji Streoc","Strellc i Ulët|Strellc i Ultë|Stralic i Poshtëm|Stralli i Poshtëm|Strellc i Pashtëm|Strellc i Poshtëm|Strellci i Poshtëm|Donji Streoci",42.5806,20.3161,Kosovo,XK,XKS,Deçan,Decan,XK-01,municipality,,142.9,2114,2114,4,Europe/Belgrade,FALSE,1901089172
"Lupç i Poshtëm","Lupc i Poshtem","Lupçi i Ultë|Lupçi i Poshtëm|Kulinas|Kulinasi|Donje Ljupče",42.7939,21.1508,Kosovo,XK,XKS,Podujevë,Podujeve,XK-25,municipality,,144.3,2113,2113,4,Europe/Belgrade,FALSE,1901862236
Kushnin,Kushnin,Kushnik|Kušneni|Kushin|Kušnin,42.2754,20.5372,Kosovo,XK,XKS,Prizren,Prizren,XK-27,municipality,,200.8,2110,2110,3,Europe/Belgrade,FALSE,1901297182
Tankosiq,Tankosiq,Tankosić,42.3792,21.2892,Kosovo,XK,XKS,Ferizaj,Ferizaj,XK-03,municipality,,387.4,2096,2096,3,Europe/Belgrade,FALSE,1901352799
Letanc,Letanc,Letaniç|Letanci|Letani|Letan|Letance,42.9305,21.1859,Kosovo,XK,XKS,Podujevë,Podujeve,XK-25,municipality,,144.3,2080,2080,4,Europe/Belgrade,FALSE,1901477744
Koshare,Koshare,Kosharë|Košare,42.4178,21.0961,Kosovo,XK,XKS,Ferizaj,Ferizaj,XK-03,municipality,,379.9,2077,2077,3,Europe/Belgrade,FALSE,1901753817
Lashkobare,Lashkobare,Lashkobarë|Laškobare,42.3944,21.1233,Kosovo,XK,XKS,Ferizaj,Ferizaj,XK-03,municipality,,387.4,2075,2075,3,Europe/Belgrade,FALSE,1901860177
Toponica,Toponica,Topanicë|Toponicë|Topanica|Troje,42.5294,21.6264,Kosovo,XK,XKS,Kamenicë,Kamenice,XK-13,municipality,,76.3,2061,2061,4,Europe/Belgrade,FALSE,1901100192
Vranić,Vranic,Vraniq|Vraniç|Vraniće|Vranići|Uraniq,42.3261,20.9141,Kosovo,XK,XKS,Suharekë,Suhareke,XK-33,municipality,,205.7,2051,2051,3,Europe/Belgrade,FALSE,1901585963
Maxhunaj,Maxhunaj,"Novosellë Magjun|Novo Selo Madjunsko|Madžun|Novosellë e Magjunit|Novo Selo Madžunsko|Novo Selo|Novo Selo Mađunsko",42.7831,21.0207,Kosovo,XK,XKS,Vushtrri,Vushtrri,XK-35,municipality,,235.1,2035,2035,3,Europe/Belgrade,FALSE,1901252662
Vrban,Vrban,Vërbani|Verban|Vërban,42.3010,21.2786,Kosovo,XK,XKS,Viti,Viti,XK-34,municipality,,177.0,2008,2008,4,Europe/Belgrade,FALSE,1901790418
Vaganicë,Vaganice,"Gornja Vaganica|Vaganica",42.8564,20.8603,Kosovo,XK,XKS,"Mitrovicë e Jugut","Mitrovice e Jugut",XK-38,municipality,,285.4,2000,2000,3,Europe/Belgrade,FALSE,1901018399
Brezne,Brezne,Breznë|Brezë|Bréense|Breza|Brezna,42.1224,20.6321,Kosovo,XK,XKS,Dragash,Dragash,XK-02,municipality,,75.2,1990,1990,4,Europe/Belgrade,FALSE,1901487846
"Muhadžer Talinovac","Muhadzer Talinovac","Muhađer Talinovac|Muhaxher|Muadžir Talinovci|Muhaxher-talinovc|Talinoc i Muhaxherëve",42.3925,21.1747,Kosovo,XK,XKS,Ferizaj,Ferizaj,XK-03,municipality,,387.4,1961,1961,3,Europe/Belgrade,FALSE,1901633043
Prilepnica,Prilepnica,Pritepnica|Perlepnicë|Përlepnicë,42.5128,21.5192,Kosovo,XK,XKS,Gjilan,Gjilan,XK-06,municipality,,254.5,1944,1944,3,Europe/Belgrade,FALSE,1901707429
"Stari Kačanik","Stari Kacanik","Kaçanik i Vjetër|Kaçaniku i Vjetër|Staro Kačanik",42.2969,21.2231,Kosovo,XK,XKS,Kaçanik,Kacanik,XK-12,municipality,,164.5,1940,1940,4,Europe/Belgrade,FALSE,1901421803
Remnik,Remnik,Remniku|Ribnik|Ribnik,42.3594,21.4414,Kosovo,XK,XKS,Viti,Viti,XK-34,municipality,,187.8,1844,1844,4,Europe/Belgrade,FALSE,1901065474
Jashanicë,Jashanice,"Joshanicë|Jashanica e Epërme|Donja Jošanica|Gornja Jošanica|Bardhaj|Bardhani|Bardhan|Jashanica e Poshtme|Jošanica",42.6667,20.6472,Kosovo,XK,XKS,Klinë,Kline,XK-14,municipality,,154.8,1784,1784,4,Europe/Belgrade,FALSE,1901491070
Zym,Zym,Zümi|Zimbi|Zjum,42.2750,20.6240,Kosovo,XK,XKS,Prizren,Prizren,XK-27,municipality,,349.6,1782,1782,3,Europe/Belgrade,FALSE,1901630099
Dresnik,Dresnik,"Dërsnik|Dërsniku|Gornji Drsnik|Drsnik",42.6061,20.6008,Kosovo,XK,XKS,Klinë,Kline,XK-14,municipality,,155.8,1770,1770,4,Europe/Belgrade,FALSE,1901445406
Svetlje,Svetlje,Sfeqël|Svečelj|Sfeçla|Svećnje|Laberioni|Sveçël|Laberion|Sfeçël|Svečelj,42.8833,21.2167,Kosovo,XK,XKS,Podujevë,Podujeve,XK-25,municipality,,144.3,1739,1739,4,Europe/Belgrade,FALSE,1901051573
Partesh,Partesh,Parteš,42.4019,21.4336,Kosovo,XK,XKS,Partesh,Partesh,XK-23,municipality,admin,95.0,1738,1738,2,Europe/Belgrade,FALSE,1901909986
Koshtovë,Koshtove,Košutovo,42.8744,20.7861,Kosovo,XK,XKS,"Mitrovicë e Jugut","Mitrovice e Jugut",XK-38,municipality,,285.4,1702,1702,3,Europe/Belgrade,FALSE,1901246514
Vlashnjë,Vlashnje,Vllashnjë|Vljašna|Vlašnja,42.2025,20.6625,Kosovo,XK,XKS,Prizren,Prizren,XK-27,municipality,,349.6,1700,1700,3,Europe/Belgrade,FALSE,1901520131
Duhël,Duhel,Dulë|Duhle|Dulje,42.4092,20.8728,Kosovo,XK,XKS,Suharekë,Suhareke,XK-33,municipality,,11.9,1688,1688,4,Europe/Belgrade,FALSE,1901881364
Krajk,Krajk,Krajkë|Krajka|Krajk,42.2831,20.6602,Kosovo,XK,XKS,Prizren,Prizren,XK-27,municipality,,349.6,1676,1676,3,Europe/Belgrade,FALSE,1901968534
"Gornje Nerodimlje","Gornje Nerodimlje","Nerodime e Epërme|Neredime e Eperme|Nerodimja e Epërme",42.3703,21.0786,Kosovo,XK,XKS,Ferizaj,Ferizaj,XK-03,municipality,,387.4,1648,1648,3,Europe/Belgrade,FALSE,1901034595
Raçak,Racak,Reçak|Račak,42.4293,21.0170,Kosovo,XK,XKS,Shtime,Shtime,XK-31,municipality,,248.3,1638,1638,3,Europe/Belgrade,FALSE,1901877512
Majac,Majac,Majaci|Majas|Majasi|Majance|Majanc,42.8133,21.1347,Kosovo,XK,XKS,Podujevë,Podujeve,XK-25,municipality,,144.3,1622,1622,4,Europe/Belgrade,FALSE,1901375212
Leshan,Leshan,Leshtane|Lešane,42.3278,20.7811,Kosovo,XK,XKS,Suharekë,Suhareke,XK-33,municipality,,205.7,1607,1607,3,Europe/Belgrade,FALSE,1901970699
Velekincë,Velekince,Velekince,42.4283,21.4783,Kosovo,XK,XKS,Gjilan,Gjilan,XK-06,municipality,,254.5,1602,1602,3,Europe/Belgrade,FALSE,1901725071
Runik,Runik,Rudnik|Rudnik,42.7836,20.7058,Kosovo,XK,XKS,Skenderaj,Skenderaj,XK-32,municipality,,151.8,1585,1585,4,Europe/Belgrade,FALSE,1901447718
Brod,Brod,Brod-Prizrenski|Brodi|Brad|Brod,41.9922,20.7067,Kosovo,XK,XKS,Dragash,Dragash,XK-02,municipality,,75.2,1544,1544,4,Europe/Belgrade,FALSE,1901692185
Negrovce,Negrovce,"Negroc|Negrovc|Bujub Mahala|Negroci|Fatos|Fatosi|Negrovci|Grejkovc",42.5792,20.8264,Kosovo,XK,XKS,Gllogovc,Gllogovc,XK-07,municipality,,255.4,1540,1540,3,Europe/Belgrade,FALSE,1901078029
Poslishtë,Poslishte,Polishte|Poslište,42.1789,20.6714,Kosovo,XK,XKS,Prizren,Prizren,XK-27,municipality,,349.6,1520,1520,3,Europe/Belgrade,FALSE,1901613920
Ćuška,Cuska,Çyshk|Qyshk|Çushkë|Qushkë|Ãushkë,42.6572,20.3389,Kosovo,XK,XKS,Pejë,Peje,XK-24,municipality,,177.3,1481,1481,4,Europe/Belgrade,FALSE,1901003215
Dobroshec,Dobroshec,Dobroševci|Dobroshefc|Dobrasheci|Dritani|Dritan|Dobrashec|Dobroševac,42.6592,20.9511,Kosovo,XK,XKS,Gllogovc,Gllogovc,XK-07,municipality,,255.4,1457,1457,3,Europe/Belgrade,FALSE,1901934280
Bljač,Bljac,Blaq|Blas|Blaç,42.1242,20.7356,Kosovo,XK,XKS,Dragash,Dragash,XK-02,municipality,,75.2,1455,1455,4,Europe/Belgrade,FALSE,1901526309
Lubishtë,Lubishte,Lupishtë|Ljubišta|Ljubište,42.2947,21.4117,Kosovo,XK,XKS,Viti,Viti,XK-34,municipality,,177.0,1445,1445,4,Europe/Belgrade,FALSE,1901192960
Sallagrazhdë,Sallagrazhde,Sellogragjë|Sallogragjë|Sellograzhdë|Selogražda|Selogrozhda|Selogražde,42.3053,20.8489,Kosovo,XK,XKS,Suharekë,Suhareke,XK-33,municipality,,205.7,1388,1388,3,Europe/Belgrade,FALSE,1901192282
Jazhincë,Jazhince,Jazhicë|Jazhince|Jažince,42.2456,21.0244,Kosovo,XK,XKS,Shtërpcë,Shterpce,XK-30,municipality,,29.1,1362,1362,4,Europe/Belgrade,FALSE,1901971789
"Donje Nerodimlje","Donje Nerodimlje","Nerodime e Poshtëme|Neredime e Poshtme|Nerodimja e Ultë|Nerodimlja e Ultë|Nerodime e Poshtme",42.3643,21.0983,Kosovo,XK,XKS,Ferizaj,Ferizaj,XK-03,municipality,,387.4,1337,1337,3,Europe/Belgrade,FALSE,1901800607
Samadrexhë,Samadrexhe,"Samodrezhë|Samodreža|Samadregjë|Samodraža|Manastir Samodreža",42.8233,21.0475,Kosovo,XK,XKS,Vushtrri,Vushtrri,XK-35,municipality,,235.1,1321,1321,3,Europe/Belgrade,FALSE,1901419126
Çabër,Caber,Çabrë|Cabrë|Čabra,42.9035,20.7732,Kosovo,XK,XKS,"Zubin Potok","Zubin Potok",XK-36,municipality,,19.2,1300,1300,4,Europe/Belgrade,FALSE,1901012421
"Çikatovë e Vjetër","Cikatove e Vjeter","Çikatovë|Čikatovo|Čikalovo|Çikatova|Cikatova e Vjetër|Qikatovë e Vjetër|Staro Čikatovo|Staro Ćikatovo",42.6547,20.9078,Kosovo,XK,XKS,Gllogovc,Gllogovc,XK-07,municipality,,255.4,1261,1261,3,Europe/Belgrade,FALSE,1901387438
Cerrcë,Cerrce,Rranzë|Cërrca|Rranza|Crnce,42.7797,20.4531,Kosovo,XK,XKS,Istog,Istog,XK-10,municipality,,103.2,1248,1248,4,Europe/Belgrade,FALSE,1901957089
"Gornja Koretica","Gornja Koretica","Koreticë e Epërme|Korroticë e Epërme|Korotica e Epërme|Korratica e Epërme|Gornja Korotica|Gornja Koratica|Kruembret|Kruembreti",42.6044,20.9339,Kosovo,XK,XKS,Gllogovc,Gllogovc,XK-07,municipality,,255.4,1240,1240,3,Europe/Belgrade,FALSE,1901932212
"Lubinjë e Poshtme","Lubinje e Poshtme","Lubinja e Ultë|Lubi e Poshtëme|Donje Ljubinje",42.1350,20.8572,Kosovo,XK,XKS,Prizren,Prizren,XK-27,municipality,,349.6,1227,1227,3,Europe/Belgrade,FALSE,1901495864
Bec,Bec,Bec,42.4431,20.4494,Kosovo,XK,XKS,Gjakovë,Gjakove,XK-05,municipality,,190.8,1223,1223,4,Europe/Belgrade,FALSE,1901853381
Pogragjë,Pogragje,Pograxhë|Pograxha|Gjytet-i|Podgrađe,42.4292,21.5828,Kosovo,XK,XKS,Gjilan,Gjilan,XK-06,municipality,,254.5,1211,1211,3,Europe/Belgrade,FALSE,1901482848
Dumosh,Dumosh,Dumaš|Dumoshi|Dumoš,42.8547,21.2172,Kosovo,XK,XKS,Podujevë,Podujeve,XK-25,municipality,,144.3,1207,1207,4,Europe/Belgrade,FALSE,1901032224
Ugljare,Ugljare,Uglar|Uglari|Uglarë|Uglar|Ugljarevo,42.6284,21.1067,Kosovo,XK,XKS,Graçanicë,Gracanice,XK-08,municipality,,250.0,1186,1186,3,Europe/Belgrade,FALSE,1901212723
Krajkovë,Krajkove,Gurras|Gurrasi|Krajkova|Krajkovo,42.5964,20.8536,Kosovo,XK,XKS,Gllogovc,Gllogovc,XK-07,municipality,,255.4,1181,1181,3,Europe/Belgrade,FALSE,1901585179
Bukosh,Bukosh,Bukoš,42.8031,20.9289,Kosovo,XK,XKS,Vushtrri,Vushtrri,XK-35,municipality,,235.1,1171,1171,3,Europe/Belgrade,FALSE,1901764539
Lugadžija,Lugadzija,Llugaxhi|Llugagji|Lugađija|Lugaxhi,42.4918,21.1748,Kosovo,XK,XKS,Lipjan,Lipjan,XK-17,municipality,,208.2,1157,1157,3,Europe/Belgrade,FALSE,1901572509
Cërmjan,Cermjan,Crmaiç|Çermian|Çermiani|Sermian|Crmnjan|Crmljani|Crmjan|Cermjan|Crmljane|Crmljan,42.4725,20.4764,Kosovo,XK,XKS,Gjakovë,Gjakove,XK-05,municipality,,190.8,1141,1141,4,Europe/Belgrade,FALSE,1901420418
Reqan,Reqan,Peçan|Reçan|Rečane,42.3600,20.8672,Kosovo,XK,XKS,Suharekë,Suhareke,XK-33,municipality,,205.7,1130,1130,3,Europe/Belgrade,FALSE,1901216059
"Stublla e Epërme","Stublla e Eperme","Stubella e Epërme|Stubëll e Epërme|Stubla",42.3225,21.4589,Kosovo,XK,XKS,Viti,Viti,XK-34,municipality,,177.0,1128,1128,4,Europe/Belgrade,FALSE,1901827913
Skorobishtë,Skorobishte,Skrobishtë|Skoribishtë|Skarabisht|Skorobište,42.2333,20.8067,Kosovo,XK,XKS,Prizren,Prizren,XK-27,municipality,,349.6,1128,1128,3,Europe/Belgrade,FALSE,1901290141
Binač,Binac,Bincë|Binqë|Binaq|Binçe|Binča,42.2980,21.3637,Kosovo,XK,XKS,Viti,Viti,XK-34,municipality,,177.0,1127,1127,4,Europe/Belgrade,FALSE,1901496306
Pantinë,Pantine,Pantino|Pantina,42.8339,20.9025,Kosovo,XK,XKS,Vushtrri,Vushtrri,XK-35,municipality,,236.2,1114,1114,3,Europe/Belgrade,FALSE,1901821021
Manastiricë,Manastirice,Manastirica,42.1350,20.8053,Kosovo,XK,XKS,Prizren,Prizren,XK-27,municipality,,349.6,1107,1107,3,Europe/Belgrade,FALSE,1901026853
Pllanjan,Pllanjan,Pllajni|Planjani|Planjane,42.1783,20.8400,Kosovo,XK,XKS,Prizren,Prizren,XK-27,municipality,,349.6,1104,1104,3,Europe/Belgrade,FALSE,1901376748
Bajgorë,Bajgore,Bajgora,42.9522,21.0040,Kosovo,XK,XKS,"Mitrovicë e Jugut","Mitrovice e Jugut",XK-38,municipality,,285.4,1098,1098,3,Europe/Belgrade,FALSE,1901218671
Mazrek,Mazrek,Mazrekë|Mazreka|Mazrek,42.2360,20.6103,Kosovo,XK,XKS,Prizren,Prizren,XK-27,municipality,,349.6,1077,1077,3,Europe/Belgrade,FALSE,1901628814
"Gornje Žabare","Gornje Zabare","Zabari i Epërm|Zhabari i Epërm|Zhabar i Epërm|Zhabarë",42.8639,20.8319,Kosovo,XK,XKS,"Mitrovicë e Jugut","Mitrovice e Jugut",XK-38,municipality,,285.4,1070,1070,3,Europe/Belgrade,FALSE,1901433354
Vranidoll,Vranidoll,"Vrani Dol|Vrani Do",42.7669,21.1528,Kosovo,XK,XKS,Prishtinë,Prishtine,XK-26,municipality,,497.5,1053,1053,3,Europe/Belgrade,FALSE,1901093022
Broboniq,Broboniq,Braboniq|Brabonić|Gradevac|Brabonjić,42.8442,20.7942,Kosovo,XK,XKS,"Mitrovicë e Jugut","Mitrovice e Jugut",XK-38,municipality,,285.4,1023,1023,3,Europe/Belgrade,FALSE,1901910849
"Grabovci i Poshtëm","Grabovci i Poshtem","Donji Grabovac|Gurshkabë|Gurshkaba|Graboc i Poshtëm|Grabovci i Ultë",42.6483,21.0054,Kosovo,XK,XKS,"Fushë Kosovë","Fushe Kosove",XK-04,municipality,,696.3,1017,1017,3,Europe/Belgrade,FALSE,1901242187
Çirez,Cirez,Qirez|Terez|Ćirez,42.7140,20.9020,Kosovo,XK,XKS,Skenderaj,Skenderaj,XK-32,municipality,,151.8,1015,1015,4,Europe/Belgrade,FALSE,1901729246
"Pakashticë e Poshtme","Pakashtice e Poshtme","Pakashticë e Poshtëme|Pakaštica|Pakashtica e Poshtme|Albona e Poshtme|Donja Pakaštica",42.9833,21.1333,Kosovo,XK,XKS,Podujevë,Podujeve,XK-25,municipality,,144.3,1014,1014,4,Europe/Belgrade,FALSE,1901664729
"Tunel i Parë","Tunel i Pare","Kolonija Prvi Tunel|Prvi Tunel",42.9222,20.8983,Kosovo,XK,XKS,"Mitrovicë e Jugut","Mitrovice e Jugut",XK-38,municipality,,285.4,1006,1006,3,Europe/Belgrade,FALSE,1901666363
Makoc,Makoc,Makovc|Makovac,42.7044,21.2269,Kosovo,XK,XKS,Prishtinë,Prishtine,XK-26,municipality,,497.5,997,997,3,Europe/Belgrade,FALSE,1901606156
Baks,Baks,Baks,42.7192,20.8767,Kosovo,XK,XKS,Skenderaj,Skenderaj,XK-32,municipality,,151.8,991,991,4,Europe/Belgrade,FALSE,1901896568
Mogillë,Mogille,Mogila|Mogila,42.3411,21.3927,Kosovo,XK,XKS,Kllokot,Kllokot,XK-15,municipality,,142.5,974,974,4,Europe/Belgrade,FALSE,1901419904
Pasjan,Pasjan,Pasijane|Posjane|Pisjan|Pasjane,42.4069,21.4956,Kosovo,XK,XKS,Partesh,Partesh,XK-23,municipality,,56.0,974,974,4,Europe/Belgrade,FALSE,1901069064
Glloboçicë,Gllobocice,Globočica,42.1667,21.1889,Kosovo,XK,XKS,Kaçanik,Kacanik,XK-12,municipality,,164.5,960,960,4,Europe/Belgrade,FALSE,1901219810
"Donje Vinarce","Donje Vinarce","Vinarci i Ultë|Vinarc i Poshtëm|Vinarc",42.8736,20.8131,Kosovo,XK,XKS,"Mitrovicë e Jugut","Mitrovice e Jugut",XK-38,municipality,,285.4,959,959,3,Europe/Belgrade,FALSE,1901643580
Batushë,Batushe,Bašuša|Bashash|Batuša,42.4539,20.2608,Kosovo,XK,XKS,Gjakovë,Gjakove,XK-05,municipality,,171.0,957,957,4,Europe/Belgrade,FALSE,1901414653
Belobrod,Belobrod,Bellabrad|Bellobrat|Bellobrod|Bellobrad|Delobrad|Belobrad,42.1178,20.6832,Kosovo,XK,XKS,Dragash,Dragash,XK-02,municipality,,75.2,948,948,4,Europe/Belgrade,FALSE,1901567518
Leçinë,Lecine,Leoqin|Leočina,42.7747,20.6597,Kosovo,XK,XKS,Skenderaj,Skenderaj,XK-32,municipality,,151.8,941,941,4,Europe/Belgrade,FALSE,1901710165
Harilaç,Harilac,Harilaq|Ariliača|Harilaçi|Ariljača,42.5834,21.0004,Kosovo,XK,XKS,"Fushë Kosovë","Fushe Kosove",XK-04,municipality,,696.3,936,936,3,Europe/Belgrade,FALSE,1901779803
Llapllasellë,Llapllaselle,"Fshati Llap|Llapje Sellë|Kadiköj|Kadikej|Laplje Selo",42.5967,21.1408,Kosovo,XK,XKS,Graçanicë,Gracanice,XK-08,municipality,,134.0,892,892,4,Europe/Belgrade,FALSE,1901354139
Trnje,Trnje,Tërrnje|Tërnjë|Tërm,42.3300,20.7656,Kosovo,XK,XKS,Suharekë,Suhareke,XK-33,municipality,,205.7,871,871,3,Europe/Belgrade,FALSE,1901966939
Stroc,Stroc,Strofc|Strovc|Streovce|Stronce|Streoce|Strovce,42.7136,20.9803,Kosovo,XK,XKS,Vushtrri,Vushtrri,XK-35,municipality,,235.1,865,865,3,Europe/Belgrade,FALSE,1901859599
Čabić,Cabic,Çabiq|Çabiç|Çabiqi|Çabaj,42.5961,20.7144,Kosovo,XK,XKS,Klinë,Kline,XK-14,municipality,,155.8,862,862,4,Europe/Belgrade,FALSE,1901402112
Caparc,Caparc,Caprac|Caparci|Capar|Capari|Caparce,42.2860,20.7690,Kosovo,XK,XKS,Prizren,Prizren,XK-27,municipality,,328.5,848,848,3,Europe/Belgrade,FALSE,1901655803
Bare,Bare,Bara|Bare,42.9521,20.9658,Kosovo,XK,XKS,"Mitrovicë e Jugut","Mitrovice e Jugut",XK-38,municipality,,285.4,841,841,3,Europe/Belgrade,FALSE,1901479452
Zojić,Zojic,Zojz|Zojiq,42.2981,20.6939,Kosovo,XK,XKS,Prizren,Prizren,XK-27,municipality,,349.6,828,828,3,Europe/Belgrade,FALSE,1901528997
Qerim,Qerim,Ćerim,42.4031,20.4358,Kosovo,XK,XKS,Gjakovë,Gjakove,XK-05,municipality,,190.8,802,802,4,Europe/Belgrade,FALSE,1901421362
"Suhodoll i Poshtëm","Suhodoll i Poshtem","Donji Suvi Do",42.8833,20.8500,Kosovo,XK,XKS,"Mitrovicë e Jugut","Mitrovice e Jugut",XK-38,municipality,,285.4,789,789,3,Europe/Belgrade,FALSE,1901717288
Ukča,Ukca,Ukqë|Uçë|Uça,42.8171,20.6111,Kosovo,XK,XKS,Istog,Istog,XK-10,municipality,,103.2,786,786,4,Europe/Belgrade,FALSE,1901368829
Pllanejë,Pllaneje,Planejë|Pljaneja|Plane|Planeja,42.2108,20.5765,Kosovo,XK,XKS,Prizren,Prizren,XK-27,municipality,,349.6,681,681,3,Europe/Belgrade,FALSE,1901504037
"Sërbicë e Poshtme","Serbice e Poshtme","Sërbica e Ultë|Sërbicë|Arbanas|Serbica|Serbicë e Poshtme|Donja Srbica",42.2869,20.6989,Kosovo,XK,XKS,Prizren,Prizren,XK-27,municipality,,349.6,674,674,3,Europe/Belgrade,FALSE,1901877477
Vërmicë,Vermice,Vërbnicë|Vërnicë|Urbice|Vrbnica,42.1586,20.5647,Kosovo,XK,XKS,Prizren,Prizren,XK-27,municipality,,349.6,661,661,3,Europe/Belgrade,FALSE,1901218173
Zočište,Zociste,Zoçishtë|Zošište,42.3753,20.7022,Kosovo,XK,XKS,Rahovec,Rahovec,XK-28,municipality,,248.0,659,659,3,Europe/Belgrade,FALSE,1901222362
Mikushnicë,Mikushnice,Mikušnicë|Mikušnica,42.7675,20.8436,Kosovo,XK,XKS,Skenderaj,Skenderaj,XK-32,municipality,,151.8,643,643,4,Europe/Belgrade,FALSE,1901116410
Lushtë,Lushte,Ljustë|Ljušta,42.8525,20.8292,Kosovo,XK,XKS,"Mitrovicë e Jugut","Mitrovice e Jugut",XK-38,municipality,,285.4,637,637,3,Europe/Belgrade,FALSE,1901253397
Bublje,Bublje,Bubël|Bublë|Bubë|Buble|Bubli,42.5236,20.6522,Kosovo,XK,XKS,Malishevë,Malisheve,XK-18,municipality,,2.0,636,636,4,Europe/Belgrade,FALSE,1901208094
Plançor,Plancor,Pliançar|Pjančor|Pljančor,42.4483,20.3634,Kosovo,XK,XKS,Gjakovë,Gjakove,XK-05,municipality,,190.8,613,613,4,Europe/Belgrade,FALSE,1901783763
Likošane,Likosane,Likoshan|Likošan|Lukašan|Likoshani|Likashan|Likashani,42.6983,20.8983,Kosovo,XK,XKS,Gllogovc,Gllogovc,XK-07,municipality,,231.7,600,600,3,Europe/Belgrade,FALSE,1901175991
"Babaj Boks","Babaj Boks","Babaj Baks|Babaj Bokës|Babaj i Bokës",42.3617,20.3342,Kosovo,XK,XKS,Gjakovë,Gjakove,XK-05,municipality,,190.8,595,595,4,Europe/Belgrade,FALSE,1901483433
Gojbulë,Gojbule,Gojbujë|Gojbulja,42.8489,20.9917,Kosovo,XK,XKS,Vushtrri,Vushtrri,XK-35,municipality,,235.1,588,588,3,Europe/Belgrade,FALSE,1901585451
Ponoshec,Ponoshec,Ponoševac,42.4046,20.2843,Kosovo,XK,XKS,Gjakovë,Gjakove,XK-05,municipality,,190.8,585,585,4,Europe/Belgrade,FALSE,1901146496
Voksh,Voksh,Voksha|Vokshi|Vokša|Vokš,42.5000,20.3000,Kosovo,XK,XKS,Deçan,Decan,XK-01,municipality,,142.9,570,570,4,Europe/Belgrade,FALSE,1901770896
Gorazhdec,Gorazhdec,Gorazhdvec|Gorazhdeci|Gorazhdevc|Kastrat|Kastrati|Goraždevac,42.6333,20.3667,Kosovo,XK,XKS,Pejë,Peje,XK-24,municipality,,177.3,570,570,4,Europe/Belgrade,FALSE,1901364642
Dobrosh,Dobrosh,Dobraš|Dobrash|Dobroš,42.4402,20.3107,Kosovo,XK,XKS,Gjakovë,Gjakove,XK-05,municipality,,189.9,568,568,4,Europe/Belgrade,FALSE,1901076017
Svinjare,Svinjare,Svinjarë|Frashër|Svinjar,42.8511,20.8897,Kosovo,XK,XKS,"Mitrovicë e Jugut","Mitrovice e Jugut",XK-38,municipality,,285.4,567,567,3,Europe/Belgrade,FALSE,1901404041
"Dobra Voda","Dobra Voda",Ujmirë|Dobrovodë|Ujmir|Ujmiri,42.6128,20.7061,Kosovo,XK,XKS,Klinë,Kline,XK-14,municipality,,155.8,544,544,4,Europe/Belgrade,FALSE,1901578442
Shalë,Shale,Shalc|Šalce,42.7569,20.9475,Kosovo,XK,XKS,Vushtrri,Vushtrri,XK-35,municipality,,235.1,541,541,3,Europe/Belgrade,FALSE,1901349139
Zatriq,Zatriq,Zatrić,42.4580,20.6260,Kosovo,XK,XKS,Rahovec,Rahovec,XK-28,municipality,,248.0,535,535,3,Europe/Belgrade,FALSE,1901352414
Koretishtë,Koretishte,Koritište|Koretište,42.4883,21.4417,Kosovo,XK,XKS,Gjilan,Gjilan,XK-06,municipality,,40.9,530,530,4,Europe/Belgrade,FALSE,1901976475
Lisicë,Lisice,Lisi|Lisica,42.9075,20.8833,Kosovo,XK,XKS,"Mitrovicë e Jugut","Mitrovice e Jugut",XK-38,municipality,,285.4,519,519,3,Europe/Belgrade,FALSE,1901214126
Ruhot,Ruhot,Ruhoti|Ruhot,42.6780,20.4260,Kosovo,XK,XKS,Pejë,Peje,XK-24,municipality,,131.9,512,512,4,Europe/Belgrade,FALSE,1901534099
Pirq,Pirq,Pirča|Pirče,42.8342,20.8697,Kosovo,XK,XKS,"Mitrovicë e Jugut","Mitrovice e Jugut",XK-38,municipality,,285.4,511,511,3,Europe/Belgrade,FALSE,1901142729
Kojushë,Kojushe,Kojuša|Koujsha|Kojush|Konjusha|Kajush|Kojuš,42.2270,20.6090,Kosovo,XK,XKS,Prizren,Prizren,XK-27,municipality,,349.6,509,509,3,Europe/Belgrade,FALSE,1901406838
Shishman,Shishman,"Shishman Rabi|Šišman Ravni|Shishmon|Šišman",42.3799,20.3198,Kosovo,XK,XKS,Gjakovë,Gjakove,XK-05,municipality,,190.8,503,503,4,Europe/Belgrade,FALSE,1901397308
Zhaq,Zhaq,Zallq|Zallç|Zallçi|Zallqi|Žač,42.7064,20.5017,Kosovo,XK,XKS,Istog,Istog,XK-10,municipality,,103.2,502,502,4,Europe/Belgrade,FALSE,1901639423
Bardonić,Bardonic,Bardhaniq|Bordeniç,42.5315,20.4533,Kosovo,XK,XKS,Gjakovë,Gjakove,XK-05,municipality,,182.9,498,498,4,Europe/Belgrade,FALSE,1901707009
Dobrušte,Dobruste,Dobrushtë|Dobruzhë|Mirëz|Mirëza|Dobruzhda|Dobružda|Dobrushtja,42.1833,20.5833,Kosovo,XK,XKS,Prizren,Prizren,XK-27,municipality,,349.6,495,495,3,Europe/Belgrade,FALSE,1901194425
Sllatinë,Sllatine,Sllatina|Slatina,42.8531,20.9694,Kosovo,XK,XKS,Vushtrri,Vushtrri,XK-35,municipality,,235.1,491,491,3,Europe/Belgrade,FALSE,1901866687
Repa,Repa,Rep|Repë|Rrepë|Rrepa|Repa,43.0314,21.1240,Kosovo,XK,XKS,Podujevë,Podujeve,XK-25,municipality,,41.1,484,484,4,Europe/Belgrade,FALSE,1901305833
Gušavac,Gusavac,Gushac|Gušavci|Guševac|Gutavci,42.8839,20.8244,Kosovo,XK,XKS,"Mitrovicë e Jugut","Mitrovice e Jugut",XK-38,municipality,,285.4,475,475,3,Europe/Belgrade,FALSE,1901869444
Melenicë,Melenice,Melanica|Meljenica,42.9550,20.9250,Kosovo,XK,XKS,"Mitrovicë e Jugut","Mitrovice e Jugut",XK-38,municipality,,285.4,475,475,3,Europe/Belgrade,FALSE,1901228079
Kutlovac,Kutlovac,Kutlloc|Kutllovc|Kutilovc|Kutlovc,42.9178,20.9186,Kosovo,XK,XKS,"Mitrovicë e Jugut","Mitrovice e Jugut",XK-38,municipality,,285.4,473,473,3,Europe/Belgrade,FALSE,1901664359
Koliq,Koliq,Kolić,42.7733,21.2861,Kosovo,XK,XKS,Prishtinë,Prishtine,XK-26,municipality,,497.5,466,466,3,Europe/Belgrade,FALSE,1901426910
"Banjska Reka","Banjska Reka","Rekë e Banjskës|Bastanska Reka|Bištanska Reka",42.9733,20.7808,Kosovo,XK,XKS,Zveçan,Zvecan,XK-37,municipality,,56.6,465,465,4,Europe/Belgrade,FALSE,1901880912
Korenicë,Korenice,Koronica|Korenica,42.3750,20.3681,Kosovo,XK,XKS,Gjakovë,Gjakove,XK-05,municipality,,190.8,460,460,4,Europe/Belgrade,FALSE,1901497360
Zablaće,Zablace,Zabllaq|Blaç|Blaçi|Zabllaqi,42.6892,20.4897,Kosovo,XK,XKS,Istog,Istog,XK-10,municipality,,103.2,459,459,4,Europe/Belgrade,FALSE,1901601686
Vogovë,Vogove,Vogova|Vogocë|Vogovo,42.3498,20.3924,Kosovo,XK,XKS,Gjakovë,Gjakove,XK-05,municipality,,190.8,450,450,4,Europe/Belgrade,FALSE,1901919738
Gotovushë,Gotovushe,Gotovuše|Gëtovushë|Gotovuša,42.2486,21.0728,Kosovo,XK,XKS,Shtërpcë,Shterpce,XK-30,municipality,,2.8,445,445,4,Europe/Belgrade,FALSE,1901021057
Mohlan,Mohlan,Movlan|Muhlan|Mavlan|Movljane,42.3728,20.9033,Kosovo,XK,XKS,Suharekë,Suhareke,XK-33,municipality,,205.7,436,436,3,Europe/Belgrade,FALSE,1901134112
Bishtazhin,Bishtazhin,Bistazhini|Bishtrazhin|Bistražin,42.3556,20.5119,Kosovo,XK,XKS,Gjakovë,Gjakove,XK-05,municipality,,190.8,429,429,4,Europe/Belgrade,FALSE,1901028501
Ujz,Ujz,Ujez|Ujzi|Ujze|Ujz,42.3397,20.5397,Kosovo,XK,XKS,Gjakovë,Gjakove,XK-05,municipality,,190.8,412,412,4,Europe/Belgrade,FALSE,1901959074
Fshaj,Fshaj,Fšat|Fšaj,42.3857,20.5410,Kosovo,XK,XKS,Gjakovë,Gjakove,XK-05,municipality,,200.6,404,404,3,Europe/Belgrade,FALSE,1901395286
Zhabel,Zhabel,Žabelj,42.4431,20.4494,Kosovo,XK,XKS,Gjakovë,Gjakove,XK-05,municipality,,190.8,404,404,4,Europe/Belgrade,FALSE,1901824695
Bistricë,Bistrice,Bistrica|Bistrica,43.2240,20.7212,Kosovo,XK,XKS,Leposaviq,Leposaviq,XK-16,municipality,,23.6,400,400,4,Europe/Belgrade,FALSE,1901767371
Rahovë,Rahove,Rehovë|Oraovo|Orahovo,42.9378,20.8975,Kosovo,XK,XKS,"Mitrovicë e Jugut","Mitrovice e Jugut",XK-38,municipality,,285.4,396,396,3,Europe/Belgrade,FALSE,1901363361
Vuçak,Vucak,Vuçaku|Nënkala|Nënkalaja|Vučak,42.5872,20.8206,Kosovo,XK,XKS,Gllogovc,Gllogovc,XK-07,municipality,,255.4,369,369,3,Europe/Belgrade,FALSE,1901816117
Rashan,Rashan,"Donje Rašane|Gornje Rašane|Rašane",42.9042,20.9422,Kosovo,XK,XKS,"Mitrovicë e Jugut","Mitrovice e Jugut",XK-38,municipality,,285.4,364,364,3,Europe/Belgrade,FALSE,1901877556
"Gornje Vinarce","Gornje Vinarce","Vinarc i Epërm|Vinarci i Ultë|Vinarci Sipërm",42.8936,20.7989,Kosovo,XK,XKS,"Mitrovicë e Jugut","Mitrovice e Jugut",XK-38,municipality,,257.7,362,362,3,Europe/Belgrade,FALSE,1901268550
Moglicë,Moglice,Moglica|Moglica,42.3483,20.4400,Kosovo,XK,XKS,Gjakovë,Gjakove,XK-05,municipality,,190.8,345,345,4,Europe/Belgrade,FALSE,1901680518
Bajë,Baje,Banjë|Banja,42.8142,20.6725,Kosovo,XK,XKS,Skenderaj,Skenderaj,XK-32,municipality,,151.8,340,340,4,Europe/Belgrade,FALSE,1901669241
Debelde,Debelde,"Debelldë|Debulldë|Debelldeh|Debeldë|Debellde|Debeli Do|Debele",42.2608,21.3983,Kosovo,XK,XKS,Viti,Viti,XK-34,municipality,,177.0,339,339,4,Europe/Belgrade,FALSE,1901611798
Sllup,Sllup,Sllupi|Slub|Slup,42.5089,20.2819,Kosovo,XK,XKS,Deçan,Decan,XK-01,municipality,,142.9,338,338,4,Europe/Belgrade,FALSE,1901503464
"Donja Budriga","Donja Budriga","Budriga e Poshtëme|Budriga e Sipërme|Budriga e Ultë|Butrikë e Poshtëme|Budrikë e Poshtme|Budrigë e Poshtme",42.4097,21.4550,Kosovo,XK,XKS,Partesh,Partesh,XK-23,municipality,,131.4,335,335,4,Europe/Belgrade,FALSE,1901619510
Bardhasan,Bardhasan,Bardosanë|Berdosan|Bardusan|Brdosan|Bardosan|Brdasan,42.4042,20.5047,Kosovo,XK,XKS,Gjakovë,Gjakove,XK-05,municipality,,190.8,316,316,4,Europe/Belgrade,FALSE,1901484373
Dashinoc,Dashinoc,Dashinoci|Dašinovac,42.5361,20.3981,Kosovo,XK,XKS,Deçan,Decan,XK-01,municipality,,142.9,299,299,4,Europe/Belgrade,FALSE,1901977324
Livadicë,Livadice,"Livadhi|Livadhia|Livadhia e Poshtme|Livadce|Livadica",42.9239,21.2267,Kosovo,XK,XKS,Podujevë,Podujeve,XK-25,municipality,,144.3,296,296,4,Europe/Belgrade,FALSE,1901695368
Gorozhup,Gorozhup,Gorzhuh|Gurishtë|Gurishta|Gorozhupi|Gorozub|Gorozuj|Streoc|Goruzup|Gorožup,42.1785,20.5462,Kosovo,XK,XKS,Prizren,Prizren,XK-27,municipality,,349.6,290,290,3,Europe/Belgrade,FALSE,1901568869
Beroc,Beroc,Beverc|Berofc|Berevci|Berevce,42.2456,21.0244,Kosovo,XK,XKS,Shtërpcë,Shterpce,XK-30,municipality,,2.0,287,287,4,Europe/Belgrade,FALSE,1901667520
Kotorr,Kotorr,Kotor|Kotori|Kotore,42.8011,20.7431,Kosovo,XK,XKS,Skenderaj,Skenderaj,XK-32,municipality,,111.4,279,279,4,Europe/Belgrade,FALSE,1901734521
Vraniq,Vraniq,Vranić,42.4295,20.4767,Kosovo,XK,XKS,Gjakovë,Gjakove,XK-05,municipality,,190.8,279,279,4,Europe/Belgrade,FALSE,1901936318
"Lupç i Epërm","Lupc i Eperm","Lupçi i Epërm|Gurishtë|Gurishta|Gornje Ljupče",42.8542,21.0944,Kosovo,XK,XKS,Podujevë,Podujeve,XK-25,municipality,,144.3,275,275,4,Europe/Belgrade,FALSE,1901262158
Popolan,Popolan,Popovlan|Papavlijana|Popovljane,42.3200,20.9100,Kosovo,XK,XKS,Suharekë,Suhareke,XK-33,municipality,,205.7,274,274,3,Europe/Belgrade,FALSE,1901199472
Letnicë,Letnice,Letnica,42.2922,21.4521,Kosovo,XK,XKS,Viti,Viti,XK-34,municipality,,177.0,267,267,4,Europe/Belgrade,FALSE,1901034332
Sllakoc,Sllakoc,Sllakovce|Sllakovc|Sllakofc|Slakovce,42.8744,21.0517,Kosovo,XK,XKS,Vushtrri,Vushtrri,XK-35,municipality,,235.1,263,263,3,Europe/Belgrade,FALSE,1901986392
Mazhiq,Mazhiq,Mašić|Mažići|Mažiq|Mažić,42.9297,20.9433,Kosovo,XK,XKS,"Mitrovicë e Jugut","Mitrovice e Jugut",XK-38,municipality,,285.4,253,253,3,Europe/Belgrade,FALSE,1901145898
Berkovë,Berkove,Bërkova|Berkovo|Topiaj,42.6747,20.5308,Kosovo,XK,XKS,Klinë,Kline,XK-14,municipality,,155.8,246,246,4,Europe/Belgrade,FALSE,1901191155
Grnčar,Grncar,Gërçar|Gërnçar|Gërnqar|Grncar|Grnčare,42.3260,21.4160,Kosovo,XK,XKS,Kllokot,Kllokot,XK-15,municipality,,139.4,240,240,4,Europe/Belgrade,FALSE,1901315420
Prapashticë,Prapashtice,Prapshticë|Propaštica,42.7258,21.3833,Kosovo,XK,XKS,Prishtinë,Prishtine,XK-26,municipality,,497.5,240,240,3,Europe/Belgrade,FALSE,1901101453
Pollatë,Pollate,Pollat|Pollata|Polatna|Palatna,43.0493,21.1210,Kosovo,XK,XKS,Podujevë,Podujeve,XK-25,municipality,,34.6,239,239,4,Europe/Belgrade,FALSE,1901739515
"Suvi Do","Suvi Do","Suhodoll|Suvidoll|Logmirë|Suhodoll i Epërm|Gornji Suvo Do|Gornji Suvi Do",42.8867,20.8483,Kosovo,XK,XKS,"Mitrovicë e Jugut","Mitrovice e Jugut",XK-38,municipality,,227.0,224,224,3,Europe/Belgrade,FALSE,1901534923
Viča,Vica,Viqë|Viçë,42.2658,21.0806,Kosovo,XK,XKS,Shtërpcë,Shterpce,XK-30,municipality,,29.1,209,209,4,Europe/Belgrade,FALSE,1901904446
Brnjak,Brnjak,Bëmjak|Brnjak,42.9342,20.5711,Kosovo,XK,XKS,"Zubin Potok","Zubin Potok",XK-36,municipality,,6.9,207,207,4,Europe/Belgrade,FALSE,1901437519
Karače,Karace,Karaçe|Karača,42.8747,20.9978,Kosovo,XK,XKS,Vushtrri,Vushtrri,XK-35,municipality,,235.1,192,192,3,Europe/Belgrade,FALSE,1901692764
Morinë,Morine,Morina,42.4081,20.2634,Kosovo,XK,XKS,Gjakovë,Gjakove,XK-05,municipality,,190.8,189,189,4,Europe/Belgrade,FALSE,1901913160
Popovë,Popove,Popova|Popovo|Kështjellas|Kështjellasi,42.8800,21.0900,Kosovo,XK,XKS,Podujevë,Podujeve,XK-25,municipality,,10.3,181,181,4,Europe/Belgrade,FALSE,1901861294
"Sërbicë e Epërme","Serbice e Eperme","Sërbica e Epërme|Serbicë e Epërme|Gornja Srbica",42.2797,20.7219,Kosovo,XK,XKS,Prizren,Prizren,XK-27,municipality,,349.6,179,179,3,Europe/Belgrade,FALSE,1901825385
Desivojcë,Desivojce,Desivojsë|Desivojsa|Desivojce,42.6589,21.7392,Kosovo,XK,XKS,Kamenicë,Kamenice,XK-13,municipality,,10.8,177,177,4,Europe/Belgrade,FALSE,1901310886
Sevce,Sevce,Sevc|Sevcë|Sjevce|Sevce,42.2097,20.9567,Kosovo,XK,XKS,Shtërpcë,Shterpce,XK-30,municipality,,29.1,176,176,4,Europe/Belgrade,FALSE,1901067225
Delloc,Delloc,Delovc|Delofc|Dolloc|Delovec|Delovo|Delovce,42.2850,20.9183,Kosovo,XK,XKS,Suharekë,Suhareke,XK-33,municipality,,205.7,160,160,3,Europe/Belgrade,FALSE,1901010507
Berjah,Berjah,Berjahë|Berjaha|Berjah,42.4214,20.2913,Kosovo,XK,XKS,Gjakovë,Gjakove,XK-05,municipality,,190.8,154,154,4,Europe/Belgrade,FALSE,1901676180
Drajçiq,Drajciq,Drajçiqi|Drajčiće|Drajčići,42.1598,20.8750,Kosovo,XK,XKS,Prizren,Prizren,XK-27,municipality,,349.6,151,151,3,Europe/Belgrade,FALSE,1901041610
Cerajë,Ceraje,Ceranje|Ceranja,43.0250,20.8583,Kosovo,XK,XKS,Leposaviq,Leposaviq,XK-16,municipality,,23.6,150,150,4,Europe/Belgrade,FALSE,1901880865
Bresnicë,Bresnice,Bresnica,42.9636,20.7883,Kosovo,XK,XKS,Zveçan,Zvecan,XK-37,municipality,,56.6,145,145,4,Europe/Belgrade,FALSE,1901600923
Dvoran,Dvoran,Duran|Dvorane,42.3106,20.9072,Kosovo,XK,XKS,Suharekë,Suhareke,XK-33,municipality,,205.7,140,140,3,Europe/Belgrade,FALSE,1901108740
Dren,Dren,Dren|Dreni,43.1322,20.7686,Kosovo,XK,XKS,Leposaviq,Leposaviq,XK-16,municipality,,23.6,129,129,4,Europe/Belgrade,FALSE,1901762002
"Hoçë e Madhe","Hoce e Madhe","Vjellika Horça|Hoça e Madhe|Velika Hoča",42.3842,20.6767,Kosovo,XK,XKS,Rahovec,Rahovec,XK-28,municipality,,248.0,124,124,3,Europe/Belgrade,FALSE,1901097836
Kaçandoll,Kacandoll,Kaçanoll|Kačandol,42.9742,21.0669,Kosovo,XK,XKS,"Mitrovicë e Jugut","Mitrovice e Jugut",XK-38,municipality,,282.8,119,119,3,Europe/Belgrade,FALSE,1901847660
Novak,Novak,Novake,42.3016,20.7560,Kosovo,XK,XKS,Prizren,Prizren,XK-27,municipality,,339.8,88,88,3,Europe/Belgrade,FALSE,1901666909
Sredskë,Sredske,Sredska,42.2717,20.8661,Kosovo,XK,XKS,Prizren,Prizren,XK-27,municipality,,349.6,69,69,3,Europe/Belgrade,FALSE,1901094776
Brezovica,Brezovica,Brezovicë,42.2219,21.0047,Kosovo,XK,XKS,Shtërpcë,Shterpce,XK-30,municipality,,0.8,68,68,5,Europe/Belgrade,FALSE,1901405506
Osojan,Osojan,Osojani|Osaj|Osojane,42.7178,20.5656,Kosovo,XK,XKS,Istog,Istog,XK-10,municipality,,103.2,65,65,4,Europe/Belgrade,FALSE,1901198350
Koprivë,Koprive,Kopriva,42.8542,20.7919,Kosovo,XK,XKS,"Mitrovicë e Jugut","Mitrovice e Jugut",XK-38,municipality,,285.4,55,55,3,Europe/Belgrade,FALSE,1901773154
Magjerë,Magjere,Mađere|Mađare|Madžera|Mađera|Madjera,42.9667,20.9125,Kosovo,XK,XKS,"Mitrovicë e Jugut","Mitrovice e Jugut",XK-38,municipality,,285.4,55,55,3,Europe/Belgrade,FALSE,1901255236
Zhujë,Zhuje,Zhuja|Mehuka|Žuja,42.6861,21.6372,Kosovo,XK,XKS,Kamenicë,Kamenice,XK-13,municipality,,76.3,42,42,4,Europe/Belgrade,FALSE,1901020874
Milaj,Milaj,Milja|Maljaj|Malaj|Miljaj,42.1973,20.5582,Kosovo,XK,XKS,Prizren,Prizren,XK-27,municipality,,349.6,37,37,3,Europe/Belgrade,FALSE,1901880352
Tërnavicë,Ternavice,"Tërrnavica|Gurkrypas|Gurkrypasi|Trnovica|Trnavica|Tërrnavicë|Donja Trnovica|Donja Trnavica|Tërnavica",43.0864,21.0647,Kosovo,XK,XKS,Podujevë,Podujeve,XK-25,municipality,,144.3,27,27,4,Europe/Belgrade,FALSE,1901715579
Kovaçicë,Kovacice,"Zijaçë e Epërme|Kovaqicë|Kovacica|Kovačica",42.9469,21.0381,Kosovo,XK,XKS,"Mitrovicë e Jugut","Mitrovice e Jugut",XK-38,municipality,,285.4,27,27,3,Europe/Belgrade,FALSE,1901908132
Bogë,Boge,Bogët|Bokajt|Bog|Bogaj|Boge,42.7456,20.0564,Kosovo,XK,XKS,Pejë,Peje,XK-24,municipality,,177.3,24,24,4,Europe/Belgrade,FALSE,1901164274
Zagorë,Zagore,Zagor|Zagorje|Zagorje,42.8300,21.0800,Kosovo,XK,XKS,Vushtrri,Vushtrri,XK-35,municipality,,235.1,18,18,3,Europe/Belgrade,FALSE,1901419852
Dren,Dren,Drenë|Dren,42.8556,20.6450,Kosovo,XK,XKS,"Zubin Potok","Zubin Potok",XK-36,municipality,,19.2,16,16,4,Europe/Belgrade,FALSE,1901218691
Poljane,Poljane,Polan|Fushëpal|Fushëpali|Polanë|Polana|Poljana,42.7208,20.6089,Kosovo,XK,XKS,Istog,Istog,XK-10,municipality,,103.2,15,15,4,Europe/Belgrade,FALSE,1901162603
Shlivovicë,Shlivovice,Šlivovica|Šljivovica,42.8900,20.9939,Kosovo,XK,XKS,Vushtrri,Vushtrri,XK-35,municipality,,235.1,14,14,3,Europe/Belgrade,FALSE,1901801117
Tuçep,Tucep,Tuçepi|Tučepo|Tučep,42.7353,20.5764,Kosovo,XK,XKS,Istog,Istog,XK-10,municipality,,103.2,12,12,4,Europe/Belgrade,FALSE,1901270283
Kuqishtë,Kuqishte,Kuçishtë|Kućište,42.6970,20.0740,Kosovo,XK,XKS,Pejë,Peje,XK-24,municipality,,177.3,9,9,4,Europe/Belgrade,FALSE,1901450084
Babiq,Babiq,Babiće|Babići|Babica|Babiqi,42.9631,20.5172,Kosovo,XK,XKS,"Zubin Potok","Zubin Potok",XK-36,municipality,,19.2,4,4,4,Europe/Belgrade,FALSE,1901570272
Kostadincë,Kostadince,Konstantin|Konstantini|Kostandinca|Kostadince,42.6303,21.6111,Kosovo,XK,XKS,Kamenicë,Kamenice,XK-13,municipality,,76.3,,,4,Europe/Belgrade,FALSE,1901509996
"Donja Ladovac","Donja Ladovac","Mala e Poshtëme|Donja Mala|Lladoc e Poshtëme",42.8798,21.2355,Kosovo,XK,XKS,Podujevë,Podujeve,XK-25,municipality,,144.3,,,4,Europe/Belgrade,FALSE,1901863136
Rashiq,Rashiq,Rašić,42.5739,20.3769,Kosovo,XK,XKS,Pejë,Peje,XK-24,municipality,,177.3,,,4,Europe/Belgrade,FALSE,1901728610
Plugište,Plugiste,,42.8563,21.3550,Kosovo,XK,XKS,Podujevë,Podujeve,XK-25,municipality,,144.3,,,4,Europe/Belgrade,FALSE,1901296622
Rafsh,Rafsh,Ravni|Rafshi,43.1526,20.7373,Kosovo,XK,XKS,Leposaviq,Leposaviq,XK-16,municipality,,23.6,,,4,Europe/Belgrade,FALSE,1901687423
Dolina,Dolina,,42.5605,21.4003,Kosovo,XK,XKS,Novobërdë,Novoberde,XK-21,municipality,,40.9,,,4,Europe/Belgrade,FALSE,1901896571
Kukovce,Kukovce,Kukovicë|Kukovc|Kuk|Kukovci|Kukaj,42.0997,20.7147,Kosovo,XK,XKS,Dragash,Dragash,XK-02,municipality,,75.2,,,4,Europe/Belgrade,FALSE,1901440372
Pepsh,Pepsh,Pepša,42.4833,20.2731,Kosovo,XK,XKS,Junik,Junik,XK-11,municipality,,92.7,,,4,Europe/Belgrade,FALSE,1901739476
Berberishtë,Berberishte,Berberishta|Berberište,43.1286,20.6867,Kosovo,XK,XKS,Leposaviq,Leposaviq,XK-16,municipality,,23.6,,,4,Europe/Belgrade,FALSE,1901629352
Brneš,Brnes,,42.3972,21.2008,Kosovo,XK,XKS,Ferizaj,Ferizaj,XK-03,municipality,,387.4,,,3,Europe/Belgrade,FALSE,1901075263
"Grackë e Vogël","Gracke e Vogel","Gracka i Vogël|Grackë|Staro Gracko|Malo Gracko",42.4842,21.0983,Kosovo,XK,XKS,Lipjan,Lipjan,XK-17,municipality,,208.2,,,3,Europe/Belgrade,FALSE,1901132920
Qerret,Qerret,Čerat|Qeret|Čeret|Ćeret,42.3400,20.2669,Kosovo,XK,XKS,Gjakovë,Gjakove,XK-05,municipality,,190.8,,,4,Europe/Belgrade,FALSE,1901709596
Buricë,Burice,Burince|Burincë,42.8558,21.1458,Kosovo,XK,XKS,Podujevë,Podujeve,XK-25,municipality,,144.3,,,4,Europe/Belgrade,FALSE,1901946210
"Malo Kičiće","Malo Kicice","Kçiqi i Vogël|Kçiq i Vogël",42.8728,20.9022,Kosovo,XK,XKS,"Mitrovicë e Jugut","Mitrovice e Jugut",XK-38,municipality,,285.4,,,3,Europe/Belgrade,FALSE,1901354244
Murgë,Murge,Mugra|Murga,42.6083,20.7536,Kosovo,XK,XKS,Skenderaj,Skenderaj,XK-32,municipality,,151.8,,,4,Europe/Belgrade,FALSE,1901193800
Kosumi,Kosumi,"Kosumaj|Mahala Kosumović",42.6919,21.5642,Kosovo,XK,XKS,Kamenicë,Kamenice,XK-13,municipality,,76.3,,,4,Europe/Belgrade,FALSE,1901282360
"Donja Dobruša","Donja Dobrusa",,42.7003,20.4514,Kosovo,XK,XKS,Istog,Istog,XK-10,municipality,,103.2,,,4,Europe/Belgrade,FALSE,1901236434
"Sopska Mahala","Sopska Mahala",,42.4119,20.8958,Kosovo,XK,XKS,Suharekë,Suhareke,XK-33,municipality,,205.7,,,3,Europe/Belgrade,FALSE,1901973759
"Mahala Lecović","Mahala Lecovic","Mahala Lesović",42.6939,21.5878,Kosovo,XK,XKS,Kamenicë,Kamenice,XK-13,municipality,,76.3,,,4,Europe/Belgrade,FALSE,1901637654
Martinaj,Martinaj,,42.1744,20.5436,Kosovo,XK,XKS,Prizren,Prizren,XK-27,municipality,,349.6,,,3,Europe/Belgrade,FALSE,1901483363
Sadriović,Sadriovic,,42.7181,20.9197,Kosovo,XK,XKS,Skenderaj,Skenderaj,XK-32,municipality,,151.8,,,4,Europe/Belgrade,FALSE,1901765448
Parduzi,Parduzi,,42.9322,21.0302,Kosovo,XK,XKS,Vushtrri,Vushtrri,XK-35,municipality,,249.4,,,3,Europe/Belgrade,FALSE,1901534971
Korbuliq,Korbuliq,Korbliq|Korboliq|Korbiliq|Kerbliq|Korbulić,42.2361,21.3361,Kosovo,XK,XKS,Kaçanik,Kacanik,XK-12,municipality,,164.5,,,4,Europe/Belgrade,FALSE,1901032497
Pojate,Pojate,,42.4822,21.1544,Kosovo,XK,XKS,Lipjan,Lipjan,XK-17,municipality,,208.2,,,3,Europe/Belgrade,FALSE,1901452712
Suljinar,Suljinar,"Mahala Sjulinar",42.6631,21.4378,Kosovo,XK,XKS,Prishtinë,Prishtine,XK-26,municipality,,497.5,,,3,Europe/Belgrade,FALSE,1901071601
Gogolovce,Gogolovce,Gogolloc|Gogollovc|Gogollofc|Gogollofci|Gugullan|Gugullani,42.5892,21.5431,Kosovo,XK,XKS,Kamenicë,Kamenice,XK-13,municipality,,61.1,,,4,Europe/Belgrade,FALSE,1901660273
Dabishec,Dabishec,Dobiševci|Dabiševci|Dabishefc|Dabiševac,42.7286,21.4339,Kosovo,XK,XKS,Prishtinë,Prishtine,XK-26,municipality,,497.5,,,3,Europe/Belgrade,FALSE,1901170013
Tërstenë,Terstene,Trstena,42.9139,20.9725,Kosovo,XK,XKS,"Mitrovicë e Jugut","Mitrovice e Jugut",XK-38,municipality,,285.4,,,3,Europe/Belgrade,FALSE,1901764359
Billushë,Billushe,Bilushë|Bilusha|Kushtrim|Kushtrimi|Biluša,42.1714,20.6756,Kosovo,XK,XKS,Prizren,Prizren,XK-27,municipality,,349.6,,,3,Europe/Belgrade,FALSE,1901022794
Llabjan,Llabjan,Labjan|Labian|Labljane|Llabjani|Labiani,42.5672,21.3440,Kosovo,XK,XKS,Novobërdë,Novoberde,XK-21,municipality,,40.9,,,4,Europe/Belgrade,FALSE,1901291278
Zgatar,Zgatar,Zgetari|Zgatari|Zgatare,42.1292,20.7142,Kosovo,XK,XKS,Dragash,Dragash,XK-02,municipality,,75.2,,,4,Europe/Belgrade,FALSE,1901688462
Vitak,Vitak,Višake|Vitak,42.7678,20.7153,Kosovo,XK,XKS,Skenderaj,Skenderaj,XK-32,municipality,,151.8,,,4,Europe/Belgrade,FALSE,1901922901
Piskavica,Piskavica,Alivit,42.3403,21.2128,Kosovo,XK,XKS,Ferizaj,Ferizaj,XK-03,municipality,,387.4,,,3,Europe/Belgrade,FALSE,1901628523
"Novi Obilić","Novi Obilic",,42.6779,21.1007,Kosovo,XK,XKS,Obiliq,Obiliq,XK-22,municipality,,248.8,,,3,Europe/Belgrade,FALSE,1901563285
"Lagjia Llukë","Lagjia Lluke","Lagjia Lluka",43.0531,20.7989,Kosovo,XK,XKS,Leposaviq,Leposaviq,XK-16,municipality,,23.6,,,4,Europe/Belgrade,FALSE,1901999758
"Abri e Poshtme","Abri e Poshtme","Abrijë e Poshtemë|Obrijë e Ulët|Abri e Poshtëm|Obrinja i Ultë|Donje Obrinje",42.6414,20.7536,Kosovo,XK,XKS,Skenderaj,Skenderaj,XK-32,municipality,,151.8,,,4,Europe/Belgrade,FALSE,1901089753
"Sokoljska Mahala","Sokoljska Mahala",,42.8359,21.1906,Kosovo,XK,XKS,Podujevë,Podujeve,XK-25,municipality,,144.3,,,4,Europe/Belgrade,FALSE,1901200326
Gur,Gur,Kameni|Guri|Kamen,43.1836,20.7292,Kosovo,XK,XKS,Leposaviq,Leposaviq,XK-16,municipality,,23.6,,,4,Europe/Belgrade,FALSE,1901938848
Vidgrica,Vidgrica,,42.9158,20.7833,Kosovo,XK,XKS,"Zubin Potok","Zubin Potok",XK-36,municipality,,19.2,,,4,Europe/Belgrade,FALSE,1901758119
Dobeljaš,Dobeljas,,42.6439,20.4169,Kosovo,XK,XKS,Pejë,Peje,XK-24,municipality,,177.3,,,4,Europe/Belgrade,FALSE,1901314312
Drobesh,Drobesh,Drobeshi|Drobeshë|Drobeš,42.3167,21.3361,Kosovo,XK,XKS,Viti,Viti,XK-34,municipality,,177.0,,,4,Europe/Belgrade,FALSE,1901990831
"Gornja Buš Mala","Gornja Bus Mala",,42.1681,21.2725,Kosovo,XK,XKS,"Hani i Elezit","Hani i Elezit",XK-09,municipality,,145.2,,,4,Europe/Belgrade,FALSE,1901640011
Hunel,Hunel,Hunnel,42.1414,21.2500,Kosovo,XK,XKS,"Hani i Elezit","Hani i Elezit",XK-09,municipality,,126.0,,,4,Europe/Belgrade,FALSE,1901779846
Kopërnicë,Kopernice,Kapërnicë|Kopër|Kopërnica|Kopernicë|Kopra|Koprivnica,42.6111,21.6272,Kosovo,XK,XKS,Kamenicë,Kamenice,XK-13,municipality,,76.3,,,4,Europe/Belgrade,FALSE,1901627699
"Poteri Mahala","Poteri Mahala","Mahalla Poteri",42.8856,21.1335,Kosovo,XK,XKS,Podujevë,Podujeve,XK-25,municipality,,144.3,,,4,Europe/Belgrade,FALSE,1901467846
Brecë,Brece,Breca|Brece,43.0719,21.0767,Kosovo,XK,XKS,Podujevë,Podujeve,XK-25,municipality,,144.3,,,4,Europe/Belgrade,FALSE,1901669335
Selac,Selac,Seljance,43.0008,20.9481,Kosovo,XK,XKS,"Mitrovicë e Jugut","Mitrovice e Jugut",XK-38,municipality,,285.4,,,3,Europe/Belgrade,FALSE,1901350267
"Berance Mahala","Berance Mahala",,42.7897,20.7681,Kosovo,XK,XKS,Skenderaj,Skenderaj,XK-32,municipality,,151.8,,,4,Europe/Belgrade,FALSE,1901705985
Stojkovići,Stojkovici,,42.3781,21.0969,Kosovo,XK,XKS,Ferizaj,Ferizaj,XK-03,municipality,,387.4,,,3,Europe/Belgrade,FALSE,1901356802
"Lagjja Janoshec","Lagjja Janoshec",,43.2105,20.7146,Kosovo,XK,XKS,Leposaviq,Leposaviq,XK-16,municipality,,23.6,,,4,Europe/Belgrade,FALSE,1901000003
"Potok Molić","Potok Molic",,42.4347,20.2461,Kosovo,XK,XKS,Gjakovë,Gjakove,XK-05,municipality,,190.8,,,4,Europe/Belgrade,FALSE,1901042635
Vasići,Vasici,,42.6525,20.5903,Kosovo,XK,XKS,Klinë,Kline,XK-14,municipality,,155.8,,,4,Europe/Belgrade,FALSE,1901949067
Gmicë,Gmice,Gmizë|Gmica|Gmiza|Gmince,42.6825,21.5883,Kosovo,XK,XKS,Kamenicë,Kamenice,XK-13,municipality,,76.3,,,4,Europe/Belgrade,FALSE,1901054503
Sinidol,Sinidol,"Sinji Dol",42.7043,21.1697,Kosovo,XK,XKS,Prishtinë,Prishtine,XK-26,municipality,,497.5,,,3,Europe/Belgrade,FALSE,1901102722
Banjë,Banje,"Banje|Banjë e Ibrit|Bajë|Banja|Banja",42.9707,20.5604,Kosovo,XK,XKS,"Zubin Potok","Zubin Potok",XK-36,municipality,,19.2,,,4,Europe/Belgrade,FALSE,1901566877
"Palaš Mahala","Palas Mahala",,42.3517,20.9306,Kosovo,XK,XKS,Suharekë,Suhareke,XK-33,municipality,,205.7,,,3,Europe/Belgrade,FALSE,1901805963
Zaselë,Zasele,Zaselje|Zasele|Zasela,43.1531,20.7555,Kosovo,XK,XKS,Leposaviq,Leposaviq,XK-16,municipality,,23.6,,,4,Europe/Belgrade,FALSE,1901086706
"Donje Rečane","Donje Recane",,42.6042,21.5572,Kosovo,XK,XKS,Kamenicë,Kamenice,XK-13,municipality,,76.3,,,4,Europe/Belgrade,FALSE,1901326424
"Lagjia Trinë","Lagjia Trine",,43.0498,20.8235,Kosovo,XK,XKS,Leposaviq,Leposaviq,XK-16,municipality,,23.6,,,4,Europe/Belgrade,FALSE,1901999761
"Smonica Mahala","Smonica Mahala",Smonica,42.6728,21.3050,Kosovo,XK,XKS,Prishtinë,Prishtine,XK-26,municipality,,497.5,,,3,Europe/Belgrade,FALSE,1901595220
Radeshë,Radeshe,Radesh|Radesha|Ardesh|Ardeshi|Radeša,42.0533,20.7000,Kosovo,XK,XKS,Dragash,Dragash,XK-02,municipality,,75.2,,,4,Europe/Belgrade,FALSE,1901222938
"Kamiš Mahala","Kamis Mahala",,42.2533,21.2031,Kosovo,XK,XKS,Kaçanik,Kacanik,XK-12,municipality,,164.5,,,4,Europe/Belgrade,FALSE,1901239545
Agušović-Mahala,Agusovic-Mahala,,42.3661,21.2242,Kosovo,XK,XKS,Ferizaj,Ferizaj,XK-03,municipality,,387.4,,,3,Europe/Belgrade,FALSE,1901410470
Šeret-Mahala,Seret-Mahala,Šeret,42.3669,21.1339,Kosovo,XK,XKS,Ferizaj,Ferizaj,XK-03,municipality,,387.4,,,3,Europe/Belgrade,FALSE,1901122246
"Mahala Livađe","Mahala Livade",,42.6811,21.4697,Kosovo,XK,XKS,Kamenicë,Kamenice,XK-13,municipality,,76.3,,,4,Europe/Belgrade,FALSE,1901146014
Terinčani,Terincani,Perinčani|Tirinčani,42.5661,21.3889,Kosovo,XK,XKS,Novobërdë,Novoberde,XK-21,municipality,,40.9,,,4,Europe/Belgrade,FALSE,1901462531
Berivojcë,Berivojce,Berrivojsë|Berrivojsa|Berivojca|Berivojce,42.5672,21.5864,Kosovo,XK,XKS,Kamenicë,Kamenice,XK-13,municipality,,76.3,,,4,Europe/Belgrade,FALSE,1901250337
Siboc,Siboc,Sibovac|Sibovc,42.6880,21.0090,Kosovo,XK,XKS,Obiliq,Obiliq,XK-22,municipality,,248.8,,,3,Europe/Belgrade,FALSE,1901025492
Babimoc,Babimoc,"Babin Most|Babi Most|Djabin Most",42.7421,21.0775,Kosovo,XK,XKS,Obiliq,Obiliq,XK-22,municipality,,248.8,,,3,Europe/Belgrade,FALSE,1901685058
Kuklibeg,Kuklibeg,Kuklibeg,42.1058,20.7231,Kosovo,XK,XKS,Dragash,Dragash,XK-02,municipality,,75.2,,,4,Europe/Belgrade,FALSE,1901029778
"Ajdarević Mahala","Ajdarevic Mahala",,42.6511,20.9417,Kosovo,XK,XKS,Gllogovc,Gllogovc,XK-07,municipality,,255.4,,,3,Europe/Belgrade,FALSE,1901267125
Radevë,Radeve,Radevo,42.5733,21.0540,Kosovo,XK,XKS,Graçanicë,Gracanice,XK-08,municipality,,134.0,,,4,Europe/Belgrade,FALSE,1901398474
"Muhadžer Mahala","Muhadzer Mahala",,42.8675,21.2733,Kosovo,XK,XKS,Podujevë,Podujeve,XK-25,municipality,,144.3,,,4,Europe/Belgrade,FALSE,1901676020
Dinarica,Dinarica,,42.2442,21.3472,Kosovo,XK,XKS,Kaçanik,Kacanik,XK-12,municipality,,166.8,,,4,Europe/Belgrade,FALSE,1901611824
Ljokaj,Ljokaj,,42.3450,20.3681,Kosovo,XK,XKS,Gjakovë,Gjakove,XK-05,municipality,,190.8,,,4,Europe/Belgrade,FALSE,1901738945
"Mehović Mahala","Mehovic Mahala",,42.7617,20.8258,Kosovo,XK,XKS,Skenderaj,Skenderaj,XK-32,municipality,,151.8,,,4,Europe/Belgrade,FALSE,1901055911
Rosulje,Rosulje,,42.8303,20.8136,Kosovo,XK,XKS,"Mitrovicë e Jugut","Mitrovice e Jugut",XK-38,municipality,,285.4,,,3,Europe/Belgrade,FALSE,1901956525
Joviq,Joviq,Javic|Jović,42.4744,20.7022,Kosovo,XK,XKS,Malishevë,Malisheve,XK-18,municipality,,230.0,,,3,Europe/Belgrade,FALSE,1901801377
"Bukovac Mahala","Bukovac Mahala",,42.2981,21.5267,Kosovo,XK,XKS,Gjilan,Gjilan,XK-06,municipality,,254.5,,,3,Europe/Belgrade,FALSE,1901370005
"Pakashticë e Epërme","Pakashtice e Eperme","Gornja Pakaštica|Pakashtica e Epërme|Albona e Epërme|Pakashtrica e Epërme",42.9981,21.1180,Kosovo,XK,XKS,Podujevë,Podujeve,XK-25,municipality,,144.3,,,4,Europe/Belgrade,FALSE,1901172243
Naqllavë,Naqllave,Naglavci,42.6614,20.5000,Kosovo,XK,XKS,Klinë,Kline,XK-14,municipality,,155.8,,,4,Europe/Belgrade,FALSE,1901849680
"Istok Mahala","Istok Mahala","Istog Mahala",42.6778,20.8242,Kosovo,XK,XKS,Gllogovc,Gllogovc,XK-07,municipality,,255.4,,,3,Europe/Belgrade,FALSE,1901672305
Zuzaku,Zuzaku,,42.6792,21.6436,Kosovo,XK,XKS,Kamenicë,Kamenice,XK-13,municipality,,75.2,,,4,Europe/Belgrade,FALSE,1901244444
"Lagjia Ercë","Lagjia Erce","Lagjia Erci",43.0325,20.8023,Kosovo,XK,XKS,Leposaviq,Leposaviq,XK-16,municipality,,23.6,,,4,Europe/Belgrade,FALSE,1901999781
Kulina,Kulina,"Mahala Kulina",42.6800,21.5147,Kosovo,XK,XKS,Kamenicë,Kamenice,XK-13,municipality,,76.3,,,4,Europe/Belgrade,FALSE,1901413614
"Studime e Poshtme","Studime e Poshtme","Studime e Poshtëme|Donja Sudimlja|Donja Studimlja|Studimla e Poshtmë",42.8258,21.0041,Kosovo,XK,XKS,Vushtrri,Vushtrri,XK-35,municipality,,235.1,,,3,Europe/Belgrade,FALSE,1901578741
Aljšić,Aljsic,,42.3903,21.6022,Kosovo,XK,XKS,Gjilan,Gjilan,XK-06,municipality,,254.2,,,3,Europe/Belgrade,FALSE,1901516623
Lubuvë,Lubuve,Thanëz|Thanëza|Lupovë|Lubova|Ljubovo,42.7397,20.4100,Kosovo,XK,XKS,Istog,Istog,XK-10,municipality,,103.2,,,4,Europe/Belgrade,FALSE,1901724540
Pecaj,Pecaj,,42.7342,20.1678,Kosovo,XK,XKS,Pejë,Peje,XK-24,municipality,,104.2,,,4,Europe/Belgrade,FALSE,1901808437
"Gornja Ladovac","Gornja Ladovac","Mala e Poshtëme|Gornja Mala|Lladoc e Poshtëme",42.8807,21.2486,Kosovo,XK,XKS,Podujevë,Podujeve,XK-25,municipality,,144.3,,,4,Europe/Belgrade,FALSE,1901537996
Čaret,Caret,,42.8414,21.0847,Kosovo,XK,XKS,Vushtrri,Vushtrri,XK-35,municipality,,151.3,,,4,Europe/Belgrade,FALSE,1901562479
Shupkovc,Shupkovc,Supkovc|Shupkovë|Šupkovac,42.8861,20.8858,Kosovo,XK,XKS,"Mitrovicë e Jugut","Mitrovice e Jugut",XK-38,municipality,,285.4,,,3,Europe/Belgrade,FALSE,1901336180
Cërnotavë,Cernotave,Cerratovë|Crnatovë|Cërnatovë|Crnatovo|Crnatava,43.2058,20.8072,Kosovo,XK,XKS,Leposaviq,Leposaviq,XK-16,municipality,,23.6,,,4,Europe/Belgrade,FALSE,1901366746
Janosh,Janosh,Janoš,42.4517,20.4169,Kosovo,XK,XKS,Gjakovë,Gjakove,XK-05,municipality,,190.8,,,4,Europe/Belgrade,FALSE,1901471390
Haljtović,Haljtovic,,42.7133,20.9033,Kosovo,XK,XKS,Skenderaj,Skenderaj,XK-32,municipality,,152.8,,,4,Europe/Belgrade,FALSE,1901035546
Tërstenik,Terstenik,Tërsteniku|Trstenik,42.3464,21.2547,Kosovo,XK,XKS,Viti,Viti,XK-34,municipality,,177.0,,,4,Europe/Belgrade,FALSE,1901183039
"Gornje Močare","Gornje Mocare",,42.6025,21.5953,Kosovo,XK,XKS,Kamenicë,Kamenice,XK-13,municipality,,76.3,,,4,Europe/Belgrade,FALSE,1901110696
Grizhan,Grizhan,"Han-Grizhani|Grižane|Grižani|Han Grižani",43.0182,20.7094,Kosovo,XK,XKS,Zveçan,Zvecan,XK-37,municipality,,56.6,,,4,Europe/Belgrade,FALSE,1901690808
Mutivodë,Mutivode,Mutivoda|Mutivode,43.0967,20.8464,Kosovo,XK,XKS,Leposaviq,Leposaviq,XK-16,municipality,,23.6,,,4,Europe/Belgrade,FALSE,1901638323
"Donje Močare","Donje Mocare",,42.5917,21.5928,Kosovo,XK,XKS,Kamenicë,Kamenice,XK-13,municipality,,76.3,,,4,Europe/Belgrade,FALSE,1901545980
Dubrava,Dubrava,"Dubravë|Dobravë|Vata - Dubrava",42.2547,21.1967,Kosovo,XK,XKS,Kaçanik,Kacanik,XK-12,municipality,,164.5,,,4,Europe/Belgrade,FALSE,1901602078
"Crvodik Mahala","Crvodik Mahala",,42.7072,21.2903,Kosovo,XK,XKS,Prishtinë,Prishtine,XK-26,municipality,,497.5,,,3,Europe/Belgrade,FALSE,1901999644
Lepina,Lepina,Lepinë|Lepi,42.5689,21.0709,Kosovo,XK,XKS,Graçanicë,Gracanice,XK-08,municipality,,134.0,,,4,Europe/Belgrade,FALSE,1901980903
Vitija,Vitija,,42.6528,21.3500,Kosovo,XK,XKS,Prishtinë,Prishtine,XK-26,municipality,,497.5,,,3,Europe/Belgrade,FALSE,1901406247
"Lagjia Birivë","Lagjia Birive","Birovo|Lagjia Biriva",43.0511,20.7692,Kosovo,XK,XKS,Leposaviq,Leposaviq,XK-16,municipality,,23.6,,,4,Europe/Belgrade,FALSE,1901150552
Zabeljaj,Zabeljaj,,42.4383,20.8333,Kosovo,XK,XKS,Malishevë,Malisheve,XK-18,municipality,,230.0,,,3,Europe/Belgrade,FALSE,1901591103
Simiçishtë,Simicishte,Simiçishta|Simiçiste|Simičište,43.1911,20.7786,Kosovo,XK,XKS,Leposaviq,Leposaviq,XK-16,municipality,,23.6,,,4,Europe/Belgrade,FALSE,1901153254
Bojnoviq,Bojnoviq,Bojnoviqi,42.9867,20.6414,Kosovo,XK,XKS,"Zubin Potok","Zubin Potok",XK-36,municipality,,19.2,,,4,Europe/Belgrade,FALSE,1901999815
Dušinac,Dusinac,,42.7122,21.1641,Kosovo,XK,XKS,Prishtinë,Prishtine,XK-26,municipality,,497.5,,,3,Europe/Belgrade,FALSE,1901334048
Goč,Goc,"Goč Mala",42.4714,20.2672,Kosovo,XK,XKS,Junik,Junik,XK-11,municipality,,92.7,,,4,Europe/Belgrade,FALSE,1901563774
Radujevac,Radujevac,,42.8409,21.2240,Kosovo,XK,XKS,Podujevë,Podujeve,XK-25,municipality,,144.3,,,4,Europe/Belgrade,FALSE,1901951037
Vragoli,Vragoli,Vragolija|Livragonë|Vragol|Vragolia|Livragona,42.6129,21.0587,Kosovo,XK,XKS,"Fushë Kosovë","Fushe Kosove",XK-04,municipality,,696.3,,,3,Europe/Belgrade,FALSE,1901787983
"Jarinë e Epërme","Jarine e Eperme","Gornje Jarinje|Gornje Jarine|Jarinje|Jarina e Epërme",43.2075,20.7167,Kosovo,XK,XKS,Leposaviq,Leposaviq,XK-16,municipality,,23.6,,,4,Europe/Belgrade,FALSE,1901361651
"Dudovića Mahala","Dudovica Mahala","Mahalla Dudoviqa",42.9803,21.2162,Kosovo,XK,XKS,Podujevë,Podujeve,XK-25,municipality,,144.3,,,4,Europe/Belgrade,FALSE,1901003650
"Isenovicka Mahala","Isenovicka Mahala",,42.6783,21.7136,Kosovo,XK,XKS,Kamenicë,Kamenice,XK-13,municipality,,76.3,,,4,Europe/Belgrade,FALSE,1901646201
Tupaci,Tupaci,,42.6531,21.4739,Kosovo,XK,XKS,Kamenicë,Kamenice,XK-13,municipality,,90.4,,,4,Europe/Belgrade,FALSE,1901180169
"Novo Selo","Novo Selo",,42.5164,20.8550,Kosovo,XK,XKS,Malishevë,Malisheve,XK-18,municipality,,230.0,,,3,Europe/Belgrade,FALSE,1901719914
Tamnik,Tamnik,,42.5758,20.4750,Kosovo,XK,XKS,Pejë,Peje,XK-24,municipality,,177.3,,,4,Europe/Belgrade,FALSE,1901641406
Cukaj,Cukaj,,42.7072,20.0533,Kosovo,XK,XKS,Pejë,Peje,XK-24,municipality,,177.3,,,4,Europe/Belgrade,FALSE,1901407939
Bačka,Backa,Baçka,42.9142,21.0455,Kosovo,XK,XKS,Vushtrri,Vushtrri,XK-35,municipality,,235.1,,,3,Europe/Belgrade,FALSE,1901711558
Rrenc,Rrenc,Rancë|Renc|Rjeca|Rence,42.0903,20.6619,Kosovo,XK,XKS,Dragash,Dragash,XK-02,municipality,,75.2,,,4,Europe/Belgrade,FALSE,1901054660
Sapniq,Sapniq,Sopniq|Sopaniq|Sopnić,42.3831,20.5847,Kosovo,XK,XKS,Rahovec,Rahovec,XK-28,municipality,,248.0,,,3,Europe/Belgrade,FALSE,1901958316
Zhitkoc,Zhitkoc,Zhitkofc|Zhitkovc|Zitkovc|Žitkovac,42.9311,20.8239,Kosovo,XK,XKS,Zveçan,Zvecan,XK-37,municipality,,56.6,,,4,Europe/Belgrade,FALSE,1901170683
Stepenice,Stepenice,Stepanica,42.5786,20.7044,Kosovo,XK,XKS,Malishevë,Malisheve,XK-18,municipality,,157.2,,,4,Europe/Belgrade,FALSE,1901794643
Srbobran,Srbobran,Serbobran|Arbënesh|Arbëneshi|Serbobrani,42.7275,20.4847,Kosovo,XK,XKS,Istog,Istog,XK-10,municipality,,103.2,,,4,Europe/Belgrade,FALSE,1901130781
Trbuvce,Trbuvce,Trbovce|Tërbuc|Tërbufc|Turbovce,42.5255,21.2817,Kosovo,XK,XKS,Lipjan,Lipjan,XK-17,municipality,,217.9,,,3,Europe/Belgrade,FALSE,1901327007
"Gornja Repa","Gornja Repa",,43.0486,21.1225,Kosovo,XK,XKS,Podujevë,Podujeve,XK-25,municipality,,144.3,,,4,Europe/Belgrade,FALSE,1901985364
Budisavci,Budisavci,Budisavc|Budisallc|Budisalc|Budisallci|Butisafc|Butisals|Butisalsi,42.6664,20.4956,Kosovo,XK,XKS,Klinë,Kline,XK-14,municipality,,155.8,,,4,Europe/Belgrade,FALSE,1901257695
Radivojc,Radivojc,Radivojcë|Radivojce,42.3808,21.3919,Kosovo,XK,XKS,Viti,Viti,XK-34,municipality,,177.0,,,4,Europe/Belgrade,FALSE,1901201420
Gramaçel,Gramacel,Gramočelj|Gramocelj|Gramaçe|Gramaqel|Gramočel,42.4822,20.3636,Kosovo,XK,XKS,Deçan,Decan,XK-01,municipality,,142.9,,,4,Europe/Belgrade,FALSE,1901042544
Ratkocer,Ratkocer,Retkocer,42.4014,21.1906,Kosovo,XK,XKS,Ferizaj,Ferizaj,XK-03,municipality,,387.4,,,3,Europe/Belgrade,FALSE,1901542318
Broliq,Broliq,Broliqi|Bralić|Brolaj|Brolić,42.5542,20.3689,Kosovo,XK,XKS,Pejë,Peje,XK-24,municipality,,177.3,,,4,Europe/Belgrade,FALSE,1901006311
Bećelar,Becelar,,42.2472,21.3797,Kosovo,XK,XKS,Viti,Viti,XK-34,municipality,,177.0,,,4,Europe/Belgrade,FALSE,1901721309
Dojnicë,Dojnice,Dojnice|Dojnica,42.2206,20.8017,Kosovo,XK,XKS,Prizren,Prizren,XK-27,municipality,,349.6,,,3,Europe/Belgrade,FALSE,1901328159
"Stari Brežanik","Stari Brezanik",,42.6442,20.3381,Kosovo,XK,XKS,Pejë,Peje,XK-24,municipality,,177.3,,,4,Europe/Belgrade,FALSE,1901555983
Bećiraj,Beciraj,,42.7411,20.0600,Kosovo,XK,XKS,Pejë,Peje,XK-24,municipality,,177.3,,,4,Europe/Belgrade,FALSE,1901764677
Dimcë,Dimce,Dimce,42.1553,21.3081,Kosovo,XK,XKS,"Hani i Elezit","Hani i Elezit",XK-09,municipality,,126.0,,,4,Europe/Belgrade,FALSE,1901890746
Dobratin,Dobratin,Gegaj|Dobratini|Miratë|Dobrotin,42.9676,21.1285,Kosovo,XK,XKS,Podujevë,Podujeve,XK-25,municipality,,144.3,,,4,Europe/Belgrade,FALSE,1901080783
Gllavatin,Gllavatin,Gllavotin|Glavatin|Glavotina,42.7238,21.0051,Kosovo,XK,XKS,Vushtrri,Vushtrri,XK-35,municipality,,235.1,,,3,Europe/Belgrade,FALSE,1901195889
Vrtina,Vrtina,,42.9822,20.6372,Kosovo,XK,XKS,"Zubin Potok","Zubin Potok",XK-36,municipality,,19.2,,,4,Europe/Belgrade,FALSE,1901605636
Mbret,Mbret,Mbreti,43.0031,21.1353,Kosovo,XK,XKS,Podujevë,Podujeve,XK-25,municipality,,144.3,,,4,Europe/Belgrade,FALSE,1901999804
Lloqan,Lloqan,Loçan|Lloçan|Lloçani|Lloqani|Loćane,42.5244,20.2808,Kosovo,XK,XKS,Deçan,Decan,XK-01,municipality,,142.9,,,4,Europe/Belgrade,FALSE,1901411398
Hađovići,Hadovici,,42.4192,21.0350,Kosovo,XK,XKS,Shtime,Shtime,XK-31,municipality,,248.3,,,3,Europe/Belgrade,FALSE,1901764892
Semanje,Semanje,"Semajë|Semanj|Daicë|Donja Semanja",42.2881,21.1333,Kosovo,XK,XKS,Kaçanik,Kacanik,XK-12,municipality,,277.5,,,3,Europe/Belgrade,FALSE,1901762382
Obadi,Obadi,,43.2086,20.7928,Kosovo,XK,XKS,Leposaviq,Leposaviq,XK-16,municipality,,23.6,,,4,Europe/Belgrade,FALSE,1901698719
Ramaj,Ramaj,,42.4875,20.8369,Kosovo,XK,XKS,Malishevë,Malisheve,XK-18,municipality,,230.0,,,3,Europe/Belgrade,FALSE,1901663109
Kurtović-Mala,Kurtovic-Mala,,42.2331,21.3569,Kosovo,XK,XKS,Kaçanik,Kacanik,XK-12,municipality,,164.5,,,4,Europe/Belgrade,FALSE,1901075201
"Mahala Duškit","Mahala Duskit",,42.2714,20.5772,Kosovo,XK,XKS,Prizren,Prizren,XK-27,municipality,,349.6,,,3,Europe/Belgrade,FALSE,1901424355
Pumpa,Pumpa,,42.3267,21.2639,Kosovo,XK,XKS,Viti,Viti,XK-34,municipality,,177.0,,,4,Europe/Belgrade,FALSE,1901497554
Gllogjan,Gllogjan,Glodjane|Gllogjan|Glođane,42.5656,20.4925,Kosovo,XK,XKS,Pejë,Peje,XK-24,municipality,,177.3,,,4,Europe/Belgrade,FALSE,1901919815
Plana,Plana,,42.8556,20.9292,Kosovo,XK,XKS,"Mitrovicë e Jugut","Mitrovice e Jugut",XK-38,municipality,,278.6,,,3,Europe/Belgrade,FALSE,1901248097
Renoj,Renoj,,42.4136,21.0453,Kosovo,XK,XKS,Shtime,Shtime,XK-31,municipality,,248.3,,,3,Europe/Belgrade,FALSE,1901011319
"Kodra Mahala","Kodra Mahala",,42.2978,21.1147,Kosovo,XK,XKS,Ferizaj,Ferizaj,XK-03,municipality,,387.4,,,3,Europe/Belgrade,FALSE,1901917042
Bozhec,Bozhec,Bozheci|Bozhefci|Bozhefc|Bozhevc|Božovce|Božec|Boževce,42.5447,21.5303,Kosovo,XK,XKS,Ranillug,Ranillug,XK-29,municipality,,48.3,,,4,Europe/Belgrade,FALSE,1901366843
"Čalak Mahala","Calak Mahala",,42.5181,20.5269,Kosovo,XK,XKS,Gjakovë,Gjakove,XK-05,municipality,,188.6,,,4,Europe/Belgrade,FALSE,1901702460
"Spajeviča Mahala","Spajevica Mahala",,42.9335,21.1235,Kosovo,XK,XKS,Podujevë,Podujeve,XK-25,municipality,,144.3,,,4,Europe/Belgrade,FALSE,1901685724
Gaden,Gaden,Goden,42.4717,20.8500,Kosovo,XK,XKS,Malishevë,Malisheve,XK-18,municipality,,230.0,,,3,Europe/Belgrade,FALSE,1901534070
Poila,Poila,Pailla,43.0317,21.1128,Kosovo,XK,XKS,Podujevë,Podujeve,XK-25,municipality,,144.3,,,4,Europe/Belgrade,FALSE,1901037975
Poluža,Poluza,Polluzhë|Poluzhë|Palluzhë|Poluže|Palluzha,42.6897,20.8300,Kosovo,XK,XKS,Gllogovc,Gllogovc,XK-07,municipality,,219.3,,,3,Europe/Belgrade,FALSE,1901342034
Tomislav,Tomislav,,42.8008,20.8014,Kosovo,XK,XKS,Skenderaj,Skenderaj,XK-32,municipality,,151.8,,,4,Europe/Belgrade,FALSE,1901261707
Petković,Petkovic,"Petroviq|Petkoviq|Guri i Kuq|Petkofc|Petkoviće",42.4728,20.5561,Kosovo,XK,XKS,Rahovec,Rahovec,XK-28,municipality,,248.0,,,3,Europe/Belgrade,FALSE,1901587684
Grnčare,Grncare,Gërnqar|Gërnçar|Granqar|Shpatinë|Gërnçari|Gërqar|Shpatina|Grnćare,42.2189,20.7722,Kosovo,XK,XKS,Prizren,Prizren,XK-27,municipality,,349.6,,,3,Europe/Belgrade,FALSE,1901904840
"Hoçë e Vogël","Hoce e Vogel","Mala Hoča",42.3508,20.6586,Kosovo,XK,XKS,Rahovec,Rahovec,XK-28,municipality,,248.0,,,3,Europe/Belgrade,FALSE,1901140138
Strazhin,Strazhin,Strazhini|Stržin,43.1205,20.8922,Kosovo,XK,XKS,Leposaviq,Leposaviq,XK-16,municipality,,23.6,,,4,Europe/Belgrade,FALSE,1901720986
Duzhnjë,Duzhnje,Dužnje,42.3714,20.3414,Kosovo,XK,XKS,Gjakovë,Gjakove,XK-05,municipality,,190.8,,,4,Europe/Belgrade,FALSE,1901674640
Uglar,Uglar,Ugljare,42.9061,20.7158,Kosovo,XK,XKS,"Zubin Potok","Zubin Potok",XK-36,municipality,,19.2,,,4,Europe/Belgrade,FALSE,1901835407
"Stari Zlopek","Stari Zlopek",,42.6058,20.3433,Kosovo,XK,XKS,Pejë,Peje,XK-24,municipality,,177.3,,,4,Europe/Belgrade,FALSE,1901591436
"Krst Brdo","Krst Brdo",,42.7233,20.7211,Kosovo,XK,XKS,Skenderaj,Skenderaj,XK-32,municipality,,151.8,,,4,Europe/Belgrade,FALSE,1901004964
Buzovik,Buzovik,Buzovik,42.2856,21.3906,Kosovo,XK,XKS,Viti,Viti,XK-34,municipality,,177.0,,,4,Europe/Belgrade,FALSE,1901275135
"Ramun Mala","Ramun Mala",,42.1678,21.2836,Kosovo,XK,XKS,"Hani i Elezit","Hani i Elezit",XK-09,municipality,,126.0,,,4,Europe/Belgrade,FALSE,1901784702
"Stanisavljeva Mala","Stanisavljeva Mala",Orloćevo|Orlićevo|Orlaćevo,42.2425,20.9747,Kosovo,XK,XKS,Shtërpcë,Shterpce,XK-30,municipality,,29.1,,,4,Europe/Belgrade,FALSE,1901842854
Terzić,Terzic,,42.3522,21.5178,Kosovo,XK,XKS,Gjilan,Gjilan,XK-06,municipality,,254.5,,,3,Europe/Belgrade,FALSE,1901066118
Muadžeri,Muadzeri,,42.3594,21.3286,Kosovo,XK,XKS,Viti,Viti,XK-34,municipality,,177.0,,,4,Europe/Belgrade,FALSE,1901014709
"Vrelak Mahala","Vrelak Mahala",,42.8284,21.0971,Kosovo,XK,XKS,Vushtrri,Vushtrri,XK-35,municipality,,200.7,,,3,Europe/Belgrade,FALSE,1901381061
Sedlare,Sedlare,Sedllar|Shalëz|Shalëza|Sedllari|Sedlar,42.6203,21.7386,Kosovo,XK,XKS,Kamenicë,Kamenice,XK-13,municipality,,76.3,,,4,Europe/Belgrade,FALSE,1901871837
Burince,Burince,Burinice-a|Burincë|Burinica|Burinicë,42.3964,21.5506,Kosovo,XK,XKS,Gjilan,Gjilan,XK-06,municipality,,254.5,,,3,Europe/Belgrade,FALSE,1901940761
Babiq,Babiq,Babiće,42.6219,20.4167,Kosovo,XK,XKS,Pejë,Peje,XK-24,municipality,,177.3,,,4,Europe/Belgrade,FALSE,1901928836
Parduzi,Parduzi,Pardus,43.0208,21.0967,Kosovo,XK,XKS,Podujevë,Podujeve,XK-25,municipality,,144.3,,,4,Europe/Belgrade,FALSE,1901185635
Borçan,Borcan,Borčane,43.0744,20.9172,Kosovo,XK,XKS,Leposaviq,Leposaviq,XK-16,municipality,,23.6,,,4,Europe/Belgrade,FALSE,1901495051
Rudina,Rudina,,42.8402,21.3607,Kosovo,XK,XKS,Podujevë,Podujeve,XK-25,municipality,,144.3,,,4,Europe/Belgrade,FALSE,1901597485
Pojatë,Pojate,Pojatishmë|Pojatište,42.3967,21.2172,Kosovo,XK,XKS,Ferizaj,Ferizaj,XK-03,municipality,,387.4,,,3,Europe/Belgrade,FALSE,1901993585
Mlikë,Mlike,Mtike|Mlika|Mlike,42.0294,20.6450,Kosovo,XK,XKS,Dragash,Dragash,XK-02,municipality,,75.2,,,4,Europe/Belgrade,FALSE,1901874903
"Azemović Mahala","Azemovic Mahala",,42.4131,20.9847,Kosovo,XK,XKS,Shtime,Shtime,XK-31,municipality,,248.3,,,3,Europe/Belgrade,FALSE,1901113571
"Bërnice e Epërme","Bernice e Eperme","Gornja Brnjica",42.7178,21.1589,Kosovo,XK,XKS,Prishtinë,Prishtine,XK-26,municipality,,497.5,,,3,Europe/Belgrade,FALSE,1901199229
Vojmisliq,Vojmisliq,Vojmislliq|Vojimisliće|Vojmisliće,42.9825,20.7081,Kosovo,XK,XKS,"Zubin Potok","Zubin Potok",XK-36,municipality,,19.2,,,4,Europe/Belgrade,FALSE,1901840910
"Donja Vitija","Donja Vitija","Donja Mahala Vitinje",42.6508,21.3400,Kosovo,XK,XKS,Prishtinë,Prishtine,XK-26,municipality,,497.5,,,3,Europe/Belgrade,FALSE,1901779112
Reč-Mahala,Rec-Mahala,,42.2936,21.2300,Kosovo,XK,XKS,Kaçanik,Kacanik,XK-12,municipality,,164.5,,,4,Europe/Belgrade,FALSE,1901173093
Grubovicë,Grubovice,Grubovica|Grubovica,43.0253,20.7214,Kosovo,XK,XKS,Zveçan,Zvecan,XK-37,municipality,,26.9,,,4,Europe/Belgrade,FALSE,1901068440
Aradin,Aradin,,42.3164,21.2464,Kosovo,XK,XKS,Kaçanik,Kacanik,XK-12,municipality,,164.5,,,4,Europe/Belgrade,FALSE,1901084595
"Pireva Mahala","Pireva Mahala",,42.7797,21.1417,Kosovo,XK,XKS,Podujevë,Podujeve,XK-25,municipality,,150.7,,,4,Europe/Belgrade,FALSE,1901504741
Paskalica,Paskalica,Pankalica,42.6322,20.5386,Kosovo,XK,XKS,Klinë,Kline,XK-14,municipality,,155.8,,,4,Europe/Belgrade,FALSE,1901003244
Obradovići,Obradovici,,42.8129,21.0668,Kosovo,XK,XKS,Vushtrri,Vushtrri,XK-35,municipality,,235.1,,,3,Europe/Belgrade,FALSE,1901511600
Topojan-Mahala,Topojan-Mahala,"Topojana Mahala|Topojan",42.2858,21.2372,Kosovo,XK,XKS,Kaçanik,Kacanik,XK-12,municipality,,164.5,,,4,Europe/Belgrade,FALSE,1901910741
Lubovishtë,Lubovishte,Lupishtë|Borajë|Ljubovishte|Lubovishta|Boraja|Lybevisht|Ljubovište,42.0567,20.6631,Kosovo,XK,XKS,Dragash,Dragash,XK-02,municipality,,75.2,,,4,Europe/Belgrade,FALSE,1901643574
Nec,Nec,Nec,42.4019,20.3236,Kosovo,XK,XKS,Gjakovë,Gjakove,XK-05,municipality,,190.8,,,4,Europe/Belgrade,FALSE,1901512114
Karačica,Karacica,Koraçicë|Koračica,42.4683,20.9064,Kosovo,XK,XKS,Suharekë,Suhareke,XK-33,municipality,,206.5,,,3,Europe/Belgrade,FALSE,1901036573
Belluqë,Belluqe,Beluće|Beluqe|Belluqa,43.1769,20.7233,Kosovo,XK,XKS,Leposaviq,Leposaviq,XK-16,municipality,,23.6,,,4,Europe/Belgrade,FALSE,1901974349
Drenovčić,Drenovcic,Dranashiq|Drenovçiq|Fushdrin|Fushdrini|Drenofc|Drenoci,42.6714,20.5844,Kosovo,XK,XKS,Klinë,Kline,XK-14,municipality,,155.8,,,4,Europe/Belgrade,FALSE,1901886588
Saraište,Saraiste,,42.3928,21.1328,Kosovo,XK,XKS,Ferizaj,Ferizaj,XK-03,municipality,,387.4,,,3,Europe/Belgrade,FALSE,1901816643
Pridvoricë,Pridvorice,"Radić Polje|Pridvorica",42.9228,20.6892,Kosovo,XK,XKS,"Zubin Potok","Zubin Potok",XK-36,municipality,,19.2,,,4,Europe/Belgrade,FALSE,1901656044
Pobrđe,Pobrde,"Pobërxha|Pobërxhë|Pobergj|Podrazhe|Vokshi i Ri|Pobrdje|Palaj",42.5258,20.2631,Kosovo,XK,XKS,Deçan,Decan,XK-01,municipality,,142.9,,,4,Europe/Belgrade,FALSE,1901796681
"Rapunska Mahala","Rapunska Mahala",,42.6314,21.7208,Kosovo,XK,XKS,Kamenicë,Kamenice,XK-13,municipality,,76.3,,,4,Europe/Belgrade,FALSE,1901283217
Llanishtë,Llanishte,Llanishte|Lanishtë|Lanjište|Lanište,42.3847,20.9461,Kosovo,XK,XKS,Shtime,Shtime,XK-31,municipality,,209.0,,,3,Europe/Belgrade,FALSE,1901700092
"Gornji Jasenovik","Gornji Jasenovik","Jasenoviku i Epërm|Jasenovik i Epërm|Jasenovikë i Epërm|Jasenovik",42.9219,20.6514,Kosovo,XK,XKS,"Zubin Potok","Zubin Potok",XK-36,municipality,,19.2,,,4,Europe/Belgrade,FALSE,1901755617
"Cekljar Mahala","Cekljar Mahala",Smajlovci,42.2625,21.1425,Kosovo,XK,XKS,Shtërpcë,Shterpce,XK-30,municipality,,129.8,,,4,Europe/Belgrade,FALSE,1901814672
Dobrodeljane,Dobrodeljane,Dobërodelan|Dobrodelan|Dobërdolan|Dobërdelan|Bobradolan|Dobrodoljane,42.3858,20.7481,Kosovo,XK,XKS,Suharekë,Suhareke,XK-33,municipality,,205.7,,,3,Europe/Belgrade,FALSE,1901683006
Drenogllavë,Drenogllave,"Drenush|Drenova|Drenova Glava|Drenoglava",42.2531,21.3081,Kosovo,XK,XKS,Kaçanik,Kacanik,XK-12,municipality,,175.8,,,4,Europe/Belgrade,FALSE,1901021523
Muhadžiri,Muhadziri,,42.4697,21.5467,Kosovo,XK,XKS,Gjilan,Gjilan,XK-06,municipality,,144.5,,,4,Europe/Belgrade,FALSE,1901299511
"Siboc i Epërm","Siboc i Eperm","Siboci i Epërm|Sibolci i Epërm|Vindeni i Epërm|Sibovac|Sibovci i Epërm|Gornji Sibovac",42.8525,21.1908,Kosovo,XK,XKS,Podujevë,Podujeve,XK-25,municipality,,144.3,,,4,Europe/Belgrade,FALSE,1901177770
Robovac,Robovac,Ruboc|Roboc|Robovc|Rubofci|Lugas|Lugasi,42.5728,21.5492,Kosovo,XK,XKS,Kamenicë,Kamenice,XK-13,municipality,,76.3,,,4,Europe/Belgrade,FALSE,1901912530
Krlak-Mahala,Krlak-Mahala,,42.2706,21.2186,Kosovo,XK,XKS,Kaçanik,Kacanik,XK-12,municipality,,164.5,,,4,Europe/Belgrade,FALSE,1901513680
Ovčarevo,Ovcarevo,Ovçarevë|Ovqarevë|Açarevë|Aqarevë|Oqarevo|Aqareva,42.6500,20.7167,Kosovo,XK,XKS,Skenderaj,Skenderaj,XK-32,municipality,,151.8,,,4,Europe/Belgrade,FALSE,1901347298
"Sfaraçak i Poshtëm","Sfaracak i Poshtem","Donji Svračak|Sfaracaku i Poshtëm|Svaraçak i Poshtëm|Svaraçaku i Poshtëm",42.8044,21.0051,Kosovo,XK,XKS,Vushtrri,Vushtrri,XK-35,municipality,,235.1,,,3,Europe/Belgrade,FALSE,1901528661
Labučevo,Labucevo,Llapçevë|Llapqevë|Labuqevë|Labiçeva,42.5047,20.5844,Kosovo,XK,XKS,Malishevë,Malisheve,XK-18,municipality,,230.0,,,3,Europe/Belgrade,FALSE,1901828693
Dromjak,Dromjak,Dërmjak|Drobnjak,42.1756,21.3061,Kosovo,XK,XKS,"Hani i Elezit","Hani i Elezit",XK-09,municipality,,126.0,,,4,Europe/Belgrade,FALSE,1901004529
Sllatinë,Sllatine,Slatina|Mavria|Mavri|Sllatina,43.0827,21.1236,Kosovo,XK,XKS,Podujevë,Podujeve,XK-25,municipality,,144.3,,,4,Europe/Belgrade,FALSE,1901571051
Stranë,Strane,Strana,42.8928,20.9172,Kosovo,XK,XKS,"Mitrovicë e Jugut","Mitrovice e Jugut",XK-38,municipality,,285.4,,,3,Europe/Belgrade,FALSE,1901480173
"Ručućeva Mahala","Rucuceva Mahala",Nešma,42.2883,21.0689,Kosovo,XK,XKS,Shtërpcë,Shterpce,XK-30,municipality,,29.1,,,4,Europe/Belgrade,FALSE,1901361493
Prekoc,Prekoc,Prekovc|Përkoc|Prejakovce|Prekoci|Prekovce,42.5667,21.4000,Kosovo,XK,XKS,Novobërdë,Novoberde,XK-21,municipality,,40.9,,,4,Europe/Belgrade,FALSE,1901176236
Druar,Druar,Dërvar|Druvar|Drvare,42.7589,20.9797,Kosovo,XK,XKS,Vushtrri,Vushtrri,XK-35,municipality,,235.1,,,3,Europe/Belgrade,FALSE,1901996121
Tërpezë,Terpeze,Trpeza,42.5094,20.8150,Kosovo,XK,XKS,Malishevë,Malisheve,XK-18,municipality,,230.0,,,3,Europe/Belgrade,FALSE,1901079761
Cernillë,Cernille,Crnilo,42.4575,21.1997,Kosovo,XK,XKS,Ferizaj,Ferizaj,XK-03,municipality,,387.1,,,3,Europe/Belgrade,FALSE,1901009184
Vitanoviq,Vitanoviq,Vitanovići|Vitanoviqi|Vitanoviće,43.1811,20.7897,Kosovo,XK,XKS,Leposaviq,Leposaviq,XK-16,municipality,,23.6,,,4,Europe/Belgrade,FALSE,1901831211
"Gornja Fuštica","Gornja Fustica","Fusticë e Poshtmë|Fushticë e Epërme|Fushë|Fushtica e Epërme|Fusha",42.5550,20.9481,Kosovo,XK,XKS,Gllogovc,Gllogovc,XK-07,municipality,,255.4,,,3,Europe/Belgrade,FALSE,1901009032
Drajkovce,Drajkovce,Drajkofc|Drekoc|Drajkoc|Drajkovci,42.2528,21.0842,Kosovo,XK,XKS,Shtërpcë,Shterpce,XK-30,municipality,,29.1,,,4,Europe/Belgrade,FALSE,1901382909
Staradran,Staradran,"Duran|Starodurani|Staro Dvorane",42.6975,20.4278,Kosovo,XK,XKS,Istog,Istog,XK-10,municipality,,103.2,,,4,Europe/Belgrade,FALSE,1901684597
Ugarine,Ugarine,,42.9708,20.6900,Kosovo,XK,XKS,"Zubin Potok","Zubin Potok",XK-36,municipality,,19.2,,,4,Europe/Belgrade,FALSE,1901474625
Llabjan,Llabjan,Labjan|Labljane,42.6561,20.3942,Kosovo,XK,XKS,Pejë,Peje,XK-24,municipality,,177.3,,,4,Europe/Belgrade,FALSE,1901451648
"Fushticë e Poshtme","Fushtice e Poshtme","Vashë|Fushtica e Ulët|Fushtica e Poshtme|Vasha|Fushticë e Poshtëme|Fusticë e Poshtmë|Donja Fuštica",42.5506,20.9275,Kosovo,XK,XKS,Gllogovc,Gllogovc,XK-07,municipality,,255.4,,,3,Europe/Belgrade,FALSE,1901810969
Gumnasellë,Gumnaselle,"Guvnasellë|Gupno-Sello|Guvno Selo",42.5000,21.1631,Kosovo,XK,XKS,Lipjan,Lipjan,XK-17,municipality,,207.7,,,3,Europe/Belgrade,FALSE,1901890986
Kečišlak,Kecislak,,42.2308,20.7678,Kosovo,XK,XKS,Prizren,Prizren,XK-27,municipality,,349.6,,,3,Europe/Belgrade,FALSE,1901369292
Benčuk,Bencuk,Bequk|Beçuk|Bečuk,42.7264,20.9708,Kosovo,XK,XKS,Vushtrri,Vushtrri,XK-35,municipality,,235.1,,,3,Europe/Belgrade,FALSE,1901879622
Sushicë,Sushice,Sushiq|Sušiće,42.2908,21.0181,Kosovo,XK,XKS,Shtërpcë,Shterpce,XK-30,municipality,,29.1,,,4,Europe/Belgrade,FALSE,1901952128
"Jašarović Mahala","Jasarovic Mahala",,42.7536,20.8061,Kosovo,XK,XKS,Skenderaj,Skenderaj,XK-32,municipality,,151.8,,,4,Europe/Belgrade,FALSE,1901548910
Kozhicë,Kozhice,Kožince|Kozhic|Kožica,42.7300,20.9058,Kosovo,XK,XKS,Skenderaj,Skenderaj,XK-32,municipality,,151.8,,,4,Europe/Belgrade,FALSE,1901360245
"Osek Pashë","Osek Pashe","Osek Paša",42.4111,20.4244,Kosovo,XK,XKS,Gjakovë,Gjakove,XK-05,municipality,,190.8,,,4,Europe/Belgrade,FALSE,1901836632
Senik,Senik,Seuik|Senik,42.4819,20.8286,Kosovo,XK,XKS,Malishevë,Malisheve,XK-18,municipality,,230.0,,,3,Europe/Belgrade,FALSE,1901599013
Lebanë,Lebane,Lebane,42.7409,21.1418,Kosovo,XK,XKS,Prishtinë,Prishtine,XK-26,municipality,,497.5,,,3,Europe/Belgrade,FALSE,1901219972
"Mark Mahala","Mark Mahala",,42.2564,21.1114,Kosovo,XK,XKS,Shtërpcë,Shterpce,XK-30,municipality,,29.1,,,4,Europe/Belgrade,FALSE,1901973804
Mirash,Mirash,"Stari Maraš",42.4481,21.2214,Kosovo,XK,XKS,Ferizaj,Ferizaj,XK-03,municipality,,387.4,,,3,Europe/Belgrade,FALSE,1901906118
Manrec,Manrec,,42.2461,20.6731,Kosovo,XK,XKS,Prizren,Prizren,XK-27,municipality,,349.6,,,3,Europe/Belgrade,FALSE,1901338306
Vranići,Vranici,,42.6533,20.7000,Kosovo,XK,XKS,Klinë,Kline,XK-14,municipality,,154.2,,,4,Europe/Belgrade,FALSE,1901472073
Jellakcë,Jellakce,Jelak|Jelakc|Jelakce|Jellakca,43.1377,20.9075,Kosovo,XK,XKS,Leposaviq,Leposaviq,XK-16,municipality,,23.6,,,4,Europe/Belgrade,FALSE,1901073249
Milloshevë,Millosheve,Miloshevë|Miloševo,42.7249,21.0820,Kosovo,XK,XKS,Obiliq,Obiliq,XK-22,municipality,,248.8,,,3,Europe/Belgrade,FALSE,1901088620
"Stara Banjica","Stara Banjica",,42.2772,21.1506,Kosovo,XK,XKS,Kaçanik,Kacanik,XK-12,municipality,,205.4,,,3,Europe/Belgrade,FALSE,1901807300
"Katundi i Vjetër","Katundi i Vjeter",,43.0429,20.8271,Kosovo,XK,XKS,Leposaviq,Leposaviq,XK-16,municipality,,23.6,,,4,Europe/Belgrade,FALSE,1901999788
Šišman-Baks,Sisman-Baks,Shishman-Boksi|Šišman-Boks,42.3669,20.3081,Kosovo,XK,XKS,Gjakovë,Gjakove,XK-05,municipality,,190.8,,,4,Europe/Belgrade,FALSE,1901834070
Vrbovac,Vrbovac,Vërboc|Vërbovc|Vërboci|Vërbovci|Fortesë|Fortesa|Vrbovce,42.6811,20.8528,Kosovo,XK,XKS,Gllogovc,Gllogovc,XK-07,municipality,,255.4,,,3,Europe/Belgrade,FALSE,1901533081
Smaq,Smaq,Smaçë|Smać,42.3358,20.5047,Kosovo,XK,XKS,Gjakovë,Gjakove,XK-05,municipality,,190.8,,,4,Europe/Belgrade,FALSE,1901444169
Trebiq,Trebiq,Trebiće|Trebiqe|Trebiqi,43.1960,20.6376,Kosovo,XK,XKS,Leposaviq,Leposaviq,XK-16,municipality,,23.6,,,4,Europe/Belgrade,FALSE,1901025194
"Pepić Mahala","Pepic Mahala",Pepić,42.6483,21.3056,Kosovo,XK,XKS,Prishtinë,Prishtine,XK-26,municipality,,497.5,,,3,Europe/Belgrade,FALSE,1901699828
Šamaluk,Samaluk,,42.8964,21.2700,Kosovo,XK,XKS,Podujevë,Podujeve,XK-25,municipality,,114.9,,,4,Europe/Belgrade,FALSE,1901320267
Masalović,Masalovic,,42.4261,20.7531,Kosovo,XK,XKS,Malishevë,Malisheve,XK-18,municipality,,230.0,,,3,Europe/Belgrade,FALSE,1901386885
"Adžajska Mahala","Adzajska Mahala",,42.7535,21.0475,Kosovo,XK,XKS,Vushtrri,Vushtrri,XK-35,municipality,,235.1,,,3,Europe/Belgrade,FALSE,1901400364
Brestovac,Brestovac,Brestoc|Brestovc|Brestofc|Brestavac,42.3594,20.6642,Kosovo,XK,XKS,Rahovec,Rahovec,XK-28,municipality,,248.0,,,3,Europe/Belgrade,FALSE,1901435888
Pojatarce,Pojatarce,,42.2692,21.1050,Kosovo,XK,XKS,Shtërpcë,Shterpce,XK-30,municipality,,29.1,,,4,Europe/Belgrade,FALSE,1901306160
Lubiqevë,Lubiqeve,Lupçevë|Ljubiceva|Ljubičevo,42.1556,20.7339,Kosovo,XK,XKS,Prizren,Prizren,XK-27,municipality,,349.6,,,3,Europe/Belgrade,FALSE,1901764309
Jošanica,Josanica,Jashanicë|Jašanica|Joshanica|Jashanica,42.7292,20.0392,Kosovo,XK,XKS,Pejë,Peje,XK-24,municipality,,177.3,,,4,Europe/Belgrade,FALSE,1901789051
Adžići,Adzici,"Llazet e Haxhajve",42.7431,20.0464,Kosovo,XK,XKS,Pejë,Peje,XK-24,municipality,,177.3,,,4,Europe/Belgrade,FALSE,1901510443
"Begović Mahala","Begovic Mahala",,42.8018,21.2202,Kosovo,XK,XKS,Podujevë,Podujeve,XK-25,municipality,,144.3,,,4,Europe/Belgrade,FALSE,1901581089
Atmagjë,Atmagje,Hatmaxhë|Atmadža|Atmađa,42.2428,20.6817,Kosovo,XK,XKS,Prizren,Prizren,XK-27,municipality,,349.6,,,3,Europe/Belgrade,FALSE,1901375270
Burnut,Burnut,,42.7292,20.3011,Kosovo,XK,XKS,Pejë,Peje,XK-24,municipality,,177.3,,,4,Europe/Belgrade,FALSE,1901473011
Brusnik,Brusnik,Brusnik,42.7833,20.9203,Kosovo,XK,XKS,Vushtrri,Vushtrri,XK-35,municipality,,235.1,,,3,Europe/Belgrade,FALSE,1901619569
"Stara Mahala","Stara Mahala",,42.5503,21.5433,Kosovo,XK,XKS,Ranillug,Ranillug,XK-29,municipality,,55.5,,,4,Europe/Belgrade,FALSE,1901194456
Radoniq,Radoniq,Radoniç|Radenić|Radonjić,42.4833,20.4333,Kosovo,XK,XKS,Gjakovë,Gjakove,XK-05,municipality,,190.8,,,4,Europe/Belgrade,FALSE,1901146511
Tursko,Tursko,,42.7831,20.5750,Kosovo,XK,XKS,Istog,Istog,XK-10,municipality,,103.2,,,4,Europe/Belgrade,FALSE,1901609582
Kamenica,Kamenica,,42.5683,20.4308,Kosovo,XK,XKS,Pejë,Peje,XK-24,municipality,,177.3,,,4,Europe/Belgrade,FALSE,1901804059
Kollë,Kolle,Kula|Kola|Kollo|Kolo,42.7714,20.9319,Kosovo,XK,XKS,Vushtrri,Vushtrri,XK-35,municipality,,235.1,,,3,Europe/Belgrade,FALSE,1901049753
"Padinska Mahala","Padinska Mahala",,42.6622,21.7631,Kosovo,XK,XKS,Kamenicë,Kamenice,XK-13,municipality,,76.3,,,4,Europe/Belgrade,FALSE,1901792399
Dush,Dush,Duša|Duši|Dusha|Dushi|Duš,42.5325,20.6014,Kosovo,XK,XKS,Klinë,Kline,XK-14,municipality,,155.8,,,4,Europe/Belgrade,FALSE,1901734425
Leskovë,Leskove,Leskova|Leskova,43.2221,20.8213,Kosovo,XK,XKS,Leposaviq,Leposaviq,XK-16,municipality,,23.6,,,4,Europe/Belgrade,FALSE,1901912659
"Staro Selo","Staro Selo",,42.9587,21.0325,Kosovo,XK,XKS,"Mitrovicë e Jugut","Mitrovice e Jugut",XK-38,municipality,,285.4,,,3,Europe/Belgrade,FALSE,1901301223
Guriq,Guriq,Goriće|Gorić,42.4322,20.7542,Kosovo,XK,XKS,Malishevë,Malisheve,XK-18,municipality,,230.0,,,3,Europe/Belgrade,FALSE,1901573487
"Radanova Mala","Radanova Mala",,42.2317,20.9878,Kosovo,XK,XKS,Shtërpcë,Shterpce,XK-30,municipality,,29.1,,,4,Europe/Belgrade,FALSE,1901421560
Ćurdina,Curdina,,42.3075,20.4183,Kosovo,XK,XKS,Gjakovë,Gjakove,XK-05,municipality,,190.8,,,4,Europe/Belgrade,FALSE,1901233965
Xërxë,Xerxe,Xërxa|Xërxe|Zrze|Zrza,42.0789,20.6853,Kosovo,XK,XKS,Dragash,Dragash,XK-02,municipality,,75.2,,,4,Europe/Belgrade,FALSE,1901813453
"Golema Livada","Golema Livada","Mahala Goleme Livada",42.6275,21.3753,Kosovo,XK,XKS,Prishtinë,Prishtine,XK-26,municipality,,497.5,,,3,Europe/Belgrade,FALSE,1901989550
