city,city_ascii,city_alt,lat,lng,country,iso2,iso3,admin_name,admin_name_ascii,admin_code,admin_type,capital,density,population,population_proper,ranking,timezone,same_name,id
"Kuwait City","Kuwait City","Al Kuwait|Koweit|Kuwayt|Kuweit|Al Kuwayt|Madīnat al Kuwayt|Kuwait",29.3697,47.9783,Kuwait,KW,KWT,"Al ‘Āşimah","Al 'Asimah",KW-KU,governorate,primary,3488.4,3000000,2989000,1,Asia/Kuwait,FALSE,1414102075
"Al Jahrā’","Al Jahra'","Jahra Village|Iahara|Al Jahrah|Al Jahara|Al-Jaharah|Jahrah",29.3500,47.6833,Kuwait,KW,KWT,"Al Jahrā’","Al Jahra'",KW-JA,governorate,,28.6,393432,393432,2,Asia/Kuwait,FALSE,1414182001
"Abū Ḩulayfah","Abu Hulayfah","Abu Hulaifah|Abu Hulaifa|Abu Halifah|Abu Halaifah|Halaifa|Abi Huleifa|Abu-Hleifa|Abu Halaifa|Abu Ḩulaifah",29.1322,48.1261,Kuwait,KW,KWT,"Al Aḩmadī","Al Ahmadi",KW-AH,governorate,,152.1,164212,164212,2,Asia/Kuwait,FALSE,1414456826
"Al Aḩmadī","Al Ahmadi","Ahmad|Ahmedi|Ahmadi|Al Aħmadi",29.0769,48.0838,Kuwait,KW,KWT,"Al Aḩmadī","Al Ahmadi",KW-AH,governorate,,152.1,68763,68763,3,Asia/Kuwait,FALSE,1414024487
"Ar Riqqah","Ar Riqqah",Al-Riqqah|Reqqa,29.1489,48.1057,Kuwait,KW,KWT,"Al Aḩmadī","Al Ahmadi",KW-AH,governorate,,152.1,56554,56554,3,Asia/Kuwait,FALSE,1414927245
"Aş Şabāḩīyah","As Sabahiyah",Al-Sabahiyah|Subahiya,29.1058,48.1081,Kuwait,KW,KWT,"Al Aḩmadī","Al Ahmadi",KW-AH,governorate,,152.1,,,4,Asia/Kuwait,FALSE,1414308375
Duwaydāt,Duwaydat,,28.5828,48.3992,Kuwait,KW,KWT,"Al Aḩmadī","Al Ahmadi",KW-AH,governorate,,152.1,,,4,Asia/Kuwait,FALSE,1414213631
Ju‘aydān,Ju`aydan,Juaidan,28.9667,47.9672,Kuwait,KW,KWT,"Al Aḩmadī","Al Ahmadi",KW-AH,governorate,,152.1,,,4,Asia/Kuwait,FALSE,1414050690
"Aţ Ţawīl","At Tawil",,28.9786,47.9072,Kuwait,KW,KWT,"Al Aḩmadī","Al Ahmadi",KW-AH,governorate,,152.1,,,4,Asia/Kuwait,FALSE,1414000239
‘Urayfijān,`Urayfijan,Arefjan|‘Araifjān,28.9000,48.1833,Kuwait,KW,KWT,"Al Aḩmadī","Al Ahmadi",KW-AH,governorate,,152.1,,,4,Asia/Kuwait,FALSE,1414044554
"Al Qurayn","Al Qurayn",,29.2043,48.0757,Kuwait,KW,KWT,"Al Aḩmadī","Al Ahmadi",KW-AH,governorate,,152.1,,,4,Asia/Kuwait,FALSE,1414482185
"Al ‘Ulaymīyah","Al `Ulaymiyah","Al-‘Alaimah|Al Alaymah",29.6881,48.1142,Kuwait,KW,KWT,"Al Jahrā’","Al Jahra'",KW-JA,governorate,,28.6,,,4,Asia/Kuwait,FALSE,1414919859
"Ad Dasht","Ad Dasht",,29.4625,48.3139,Kuwait,KW,KWT,"Al ‘Āşimah","Al 'Asimah",KW-KU,governorate,,28.6,,,4,Asia/Kuwait,FALSE,1414102386
"Aḑ Ḑibā‘īyah","Ad Diba`iyah","Al-Dhubaiyah|Dhuba‘iyah|Al Adhaba-iyah|Dubayeiha",28.9333,48.1667,Kuwait,KW,KWT,"Al Aḩmadī","Al Ahmadi",KW-AH,governorate,,152.1,,,4,Asia/Kuwait,FALSE,1414161311
"Al Maqwa‘","Al Maqwa`","Al Magwa|Maqwah|Magwa|Majīwah|Maqwa",29.1667,47.9833,Kuwait,KW,KWT,"Al Aḩmadī","Al Ahmadi",KW-AH,governorate,,152.1,,,4,Asia/Kuwait,FALSE,1414561763
"Mazāri‘ al ‘Abdalī","Mazari` al `Abdali","Al ‘Abdalī Farms",30.0422,47.7221,Kuwait,KW,KWT,"Al Jahrā’","Al Jahra'",KW-JA,governorate,,28.6,,,4,Asia/Kuwait,FALSE,1414000001
Shumaymah,Shumaymah,,29.6178,48.1506,Kuwait,KW,KWT,"Al Jahrā’","Al Jahra'",KW-JA,governorate,,28.6,,,4,Asia/Kuwait,FALSE,1414545064
"Al ‘Uqaylah","Al `Uqaylah","‘Uqlah|‘Uqaila|Ugla|‘Uqallah|Al ‘Uqlah",29.1778,48.0947,Kuwait,KW,KWT,"Al Aḩmadī","Al Ahmadi",KW-AH,governorate,,152.1,,,4,Asia/Kuwait,FALSE,1414325537
"‘Ashīsh ad Dawḩah","`Ashish ad Dawhah",,29.3853,47.8422,Kuwait,KW,KWT,"Al Jahrā’","Al Jahra'",KW-JA,governorate,,28.6,,,4,Asia/Kuwait,FALSE,1414765748
"Al Farwānīyah","Al Farwaniyah","Farwaniyyeh|Al Farwania|Al-Farawaniyah|Al-Farwaniyyah|Farwaniah",29.2770,47.9590,Kuwait,KW,KWT,"Al Farwānīyah","Al Farwaniyah",KW-FA,governorate,,4983.3,,,2,Asia/Kuwait,FALSE,1414237350
"Al ‘Abdalīyah","Al `Abdaliyah",,29.0425,47.7061,Kuwait,KW,KWT,"Al Aḩmadī","Al Ahmadi",KW-AH,governorate,,58.2,,,4,Asia/Kuwait,FALSE,1414945392
"Al Bulţ","Al Bult",,29.4575,48.2814,Kuwait,KW,KWT,"Al ‘Āşimah","Al 'Asimah",KW-KU,governorate,,28.6,,,4,Asia/Kuwait,FALSE,1414214832
"Al ‘Udaylīyah","Al `Udayliyah",,29.3000,47.9667,Kuwait,KW,KWT,"Al Farwānīyah","Al Farwaniyah",KW-FA,governorate,,4983.3,,,2,Asia/Kuwait,FALSE,1414247066
"Abraq Khayţān","Abraq Khaytan","Abraq Khaitan|Abraq Haytan|Abrak Khetan|Koetan|Khitan|Khaitan|Abraq Khīţān|Abraq Khetan|Abrag Khīţān|Abraq Khayţān",29.2925,47.9689,Kuwait,KW,KWT,"Al Farwānīyah","Al Farwaniyah",KW-FA,governorate,,4983.3,,,2,Asia/Kuwait,FALSE,1414079526
"‘Ushaysh al Jahrā’","`Ushaysh al Jahra'",,29.3158,47.6639,Kuwait,KW,KWT,"Al Jahrā’","Al Jahra'",KW-JA,governorate,,28.6,,,4,Asia/Kuwait,FALSE,1414424638
"An Nuqayyāt","An Nuqayyat","An Nuqay‘āt|An Niggaiyat|Al-Nigaiyat|An Nugayyāt",28.9431,48.1986,Kuwait,KW,KWT,"Al Aḩmadī","Al Ahmadi",KW-AH,governorate,,152.1,,,4,Asia/Kuwait,FALSE,1414155325
"Qullat Shujayr","Qullat Shujayr",,29.4592,48.2997,Kuwait,KW,KWT,"Al ‘Āşimah","Al 'Asimah",KW-KU,governorate,,28.6,,,4,Asia/Kuwait,FALSE,1414277923
"An Nijfah","An Nijfah","Al Mijifa|Al-Najafa|Al Nijifa",29.2464,48.0758,Kuwait,KW,KWT,"Mubārak al Kabīr","Mubarak al Kabir",KW-MU,governorate,,4417.4,,,2,Asia/Kuwait,FALSE,1414828883
"Al Qash‘ānīyah","Al Qash`aniyah","Al Qash‘aniya",29.9834,47.7587,Kuwait,KW,KWT,"Al Jahrā’","Al Jahra'",KW-JA,governorate,,28.6,,,4,Asia/Kuwait,FALSE,1414000002
"Az Zawr","Az Zawr","Minā’ az-Zor|Mīnā’ az Zawr|Mīnā’ Sa‘ūd",28.7375,48.3728,Kuwait,KW,KWT,"Al Aḩmadī","Al Ahmadi",KW-AH,governorate,,152.1,,,4,Asia/Kuwait,FALSE,1414511187
"Al Manqaf","Al Manqaf","Al Manjaf|Manqaf|Al-Mangaf",29.0961,48.1328,Kuwait,KW,KWT,"Al Aḩmadī","Al Ahmadi",KW-AH,governorate,,152.1,,,4,Asia/Kuwait,FALSE,1414744195
Manīfah,Manifah,Munīfah,29.1608,48.0811,Kuwait,KW,KWT,"Al Aḩmadī","Al Ahmadi",KW-AH,governorate,,152.1,,,4,Asia/Kuwait,FALSE,1414045118
"Al Ḩujayjah","Al Hujayjah","Hugaija|Haqaijah|Haqaija|Hagaija|Al-Hijajah|Al Hujayjah",29.6547,48.1311,Kuwait,KW,KWT,"Al Jahrā’","Al Jahra'",KW-JA,governorate,,28.6,,,4,Asia/Kuwait,FALSE,1414909502
"Al Khuwaysāt","Al Khuwaysat",,29.4033,47.7111,Kuwait,KW,KWT,"Al Jahrā’","Al Jahra'",KW-JA,governorate,,28.6,,,4,Asia/Kuwait,FALSE,1414946168
"Mubārak al Kabīr","Mubarak al Kabir",,29.1898,48.0872,Kuwait,KW,KWT,"Al Aḩmadī","Al Ahmadi",KW-AH,governorate,,152.1,,,4,Asia/Kuwait,FALSE,1414548686
"Al Quşūr","Al Qusur",,29.2175,48.0726,Kuwait,KW,KWT,"Mubārak al Kabīr","Mubarak al Kabir",KW-MU,governorate,,4417.4,,,2,Asia/Kuwait,FALSE,1414297448
"Al Baḩrah","Al Bahrah",Al-Bahra|Bahra|Baḩrah,29.6667,47.8667,Kuwait,KW,KWT,"Al Jahrā’","Al Jahra'",KW-JA,governorate,,28.6,,,4,Asia/Kuwait,FALSE,1414158031
Şubayḩīyah,Subayhiyah,,28.8794,47.9139,Kuwait,KW,KWT,"Al Aḩmadī","Al Ahmadi",KW-AH,governorate,,152.1,,,4,Asia/Kuwait,FALSE,1414622465
"Al Khīrān","Al Khiran",,28.6511,48.3903,Kuwait,KW,KWT,"Al Aḩmadī","Al Ahmadi",KW-AH,governorate,,152.1,,,4,Asia/Kuwait,FALSE,1414409624
"Al Mahbūlah","Al Mahbulah",Al-Mahabūlah|Mahboola,29.1450,48.1303,Kuwait,KW,KWT,"Al Aḩmadī","Al Ahmadi",KW-AH,governorate,,152.1,,,4,Asia/Kuwait,FALSE,1414563720
"Al Wafrah","Al Wafrah",,28.6392,47.9306,Kuwait,KW,KWT,"Al Aḩmadī","Al Ahmadi",KW-AH,governorate,,152.1,,,4,Asia/Kuwait,FALSE,1414354610
"Al Wafrah","Al Wafrah",,28.5583,48.0433,Kuwait,KW,KWT,"Al Aḩmadī","Al Ahmadi",KW-AH,governorate,,152.1,,,4,Asia/Kuwait,TRUE,1414546618
"Al Faḩāḩīl","Al Fahahil","Fuḩayḩīl|Faḩayḩīl|Fahaheel|Al-Fahahil|Al Ifhaihil|Fahaihīl|Fahāhīl|Al Fuḩayḩīl|Al-Fahaheel|Fahaheel|Al Fuħaiħil",29.0825,48.1303,Kuwait,KW,KWT,"Al Aḩmadī","Al Ahmadi",KW-AH,governorate,,152.1,,,4,Asia/Kuwait,FALSE,1414122581
"An Nāmī","An Nami",,28.6397,48.3644,Kuwait,KW,KWT,"Al Aḩmadī","Al Ahmadi",KW-AH,governorate,,152.1,,,4,Asia/Kuwait,FALSE,1414598253
"Ash Shubaykah","Ash Shubaykah",,29.4317,48.2992,Kuwait,KW,KWT,"Al ‘Āşimah","Al 'Asimah",KW-KU,governorate,,28.6,,,4,Asia/Kuwait,FALSE,1414192480
"Al Bida‘","Al Bida`","Al-Bidde|Al Biddah|Bad’ah|Al Bid‘",29.3025,48.0869,Kuwait,KW,KWT,"Mubārak al Kabīr","Mubarak al Kabir",KW-MU,governorate,,7551.6,,,2,Asia/Kuwait,FALSE,1414619888
"Ad Dawḩah","Ad Dawhah","Dauha|Al Doha|Doha",29.3678,47.8100,Kuwait,KW,KWT,"Al Jahrā’","Al Jahra'",KW-JA,governorate,,28.6,,,4,Asia/Kuwait,FALSE,1414250564
"Ash Shu‘aybah","Ash Shu`aybah","Ash Shu‘aiba|Shu‘aybah|Shua’ibah|Shauiba|Shaabah|Shaab|Sha’iba|Shi’aibah|Al-Shuaiba|As Shu‘aiba|Shuaiba",28.9592,48.1345,Kuwait,KW,KWT,"Al Aḩmadī","Al Ahmadi",KW-AH,governorate,,152.1,,,4,Asia/Kuwait,FALSE,1414641676
Mishrif,Mishrif,Mishref|Mushrif,29.2892,48.0500,Kuwait,KW,KWT,"Mubārak al Kabīr","Mubarak al Kabir",KW-MU,governorate,,4417.4,,,2,Asia/Kuwait,FALSE,1414592275
"Ash Shadādīyah","Ash Shadadiyah",,29.2681,47.8456,Kuwait,KW,KWT,"Al Farwānīyah","Al Farwaniyah",KW-FA,governorate,,4692.3,,,2,Asia/Kuwait,FALSE,1414849124
"Az Zawr","Az Zawr","Failakka Village|Az Zaur|Zor|Az Zor",29.4425,48.2747,Kuwait,KW,KWT,"Al ‘Āşimah","Al 'Asimah",KW-KU,governorate,,28.6,,,4,Asia/Kuwait,FALSE,1414172764
"Al Finţās","Al Fintas","Fintass|Finţās|Fantass|Al Fintass|Al Fantas|Fanţās|Fintas|Funtás|Finatus|Al Fintās",29.1739,48.1211,Kuwait,KW,KWT,"Al Aḩmadī","Al Ahmadi",KW-AH,governorate,,152.1,,,4,Asia/Kuwait,FALSE,1414564352
Dant,Dant,,29.1667,48.1167,Kuwait,KW,KWT,"Al Aḩmadī","Al Ahmadi",KW-AH,governorate,,152.1,,,4,Asia/Kuwait,FALSE,1414940100
Wārah,Warah,,28.9961,47.9822,Kuwait,KW,KWT,"Al Aḩmadī","Al Ahmadi",KW-AH,governorate,,152.1,,,4,Asia/Kuwait,FALSE,1414496351
"Al Massīlah","Al Massilah","Messila|Al Masīlah",29.2619,48.0797,Kuwait,KW,KWT,"Mubārak al Kabīr","Mubarak al Kabir",KW-MU,governorate,,4417.4,,,2,Asia/Kuwait,FALSE,1414201445
"Ḑulay‘ Su‘ūd","Dulay` Su`ud","Ḑulay‘ Sa‘ūd|Dhulai‘ Sa‘ūd",29.2011,48.1111,Kuwait,KW,KWT,"Al Aḩmadī","Al Ahmadi",KW-AH,governorate,,152.1,,,4,Asia/Kuwait,FALSE,1414383511
"Al Bhar","Al Bhar",,29.3833,47.8333,Kuwait,KW,KWT,"Al Jahrā’","Al Jahra'",KW-JA,governorate,,28.6,,,4,Asia/Kuwait,FALSE,1414521403
"Al Funayţīs","Al Funaytis","Funaitís|Fanaitis|Funayţīs|Al Fanaitis|Al-Finaitees|Fraitsass|Fneitees|Al Funaitis|Al Funayţīs",29.2253,48.1017,Kuwait,KW,KWT,"Mubārak al Kabīr","Mubarak al Kabir",KW-MU,governorate,,4417.4,,,2,Asia/Kuwait,FALSE,1414482132
"Al ‘Awāzim","Al `Awazim",,29.4203,48.3850,Kuwait,KW,KWT,"Al ‘Āşimah","Al 'Asimah",KW-KU,governorate,,28.6,,,4,Asia/Kuwait,FALSE,1414409845
"Aḑ Ḑubā‘īyah","Ad Duba`iyah",,28.9236,48.2072,Kuwait,KW,KWT,"Al Aḩmadī","Al Ahmadi",KW-AH,governorate,,152.1,,,4,Asia/Kuwait,FALSE,1414355411
"Umm Qaşbah","Umm Qasbah","Umm Qaşabah",28.9922,48.1656,Kuwait,KW,KWT,"Al Aḩmadī","Al Ahmadi",KW-AH,governorate,,152.1,,,4,Asia/Kuwait,FALSE,1414102015
"‘Ashīsh al Jahrā’","`Ashish al Jahra'","Ashīsh al Jahrah",29.3172,47.6778,Kuwait,KW,KWT,"Al Jahrā’","Al Jahra'",KW-JA,governorate,,28.6,,,4,Asia/Kuwait,FALSE,1414429271
"Al ‘Arfajīyah","Al `Arfajiyah",,29.7003,48.0956,Kuwait,KW,KWT,"Al Jahrā’","Al Jahra'",KW-JA,governorate,,28.6,,,4,Asia/Kuwait,FALSE,1414523950
"Al Maghāsil","Al Maghasil",,29.7419,48.0944,Kuwait,KW,KWT,"Al Jahrā’","Al Jahra'",KW-JA,governorate,,28.6,,,4,Asia/Kuwait,FALSE,1414851843
"Al Qulay‘ah","Al Qulay`ah",,28.8658,48.2747,Kuwait,KW,KWT,"Al Aḩmadī","Al Ahmadi",KW-AH,governorate,,152.1,,,4,Asia/Kuwait,FALSE,1414552171
"Al Ad‘amī","Al Ad`ami",,28.8167,48.2667,Kuwait,KW,KWT,"Al Aḩmadī","Al Ahmadi",KW-AH,governorate,,152.1,,,4,Asia/Kuwait,FALSE,1414093779
"Al Khiḑr","Al Khidr",,29.4644,48.2883,Kuwait,KW,KWT,"Al ‘Āşimah","Al 'Asimah",KW-KU,governorate,,28.6,,,4,Asia/Kuwait,FALSE,1414593820
"Al ‘Abbāsīyah","Al `Abbasiyah",,29.2503,47.9311,Kuwait,KW,KWT,"Al Farwānīyah","Al Farwaniyah",KW-FA,governorate,,4983.3,,,2,Asia/Kuwait,FALSE,1414355720
