city,city_ascii,city_alt,lat,lng,country,iso2,iso3,admin_name,admin_name_ascii,admin_code,admin_type,capital,density,population,population_proper,ranking,timezone,same_name,id
Bishkek,Bishkek,Pishkek|Frunze|Pishpek|Bishkek,42.8747,74.6122,Kyrgyzstan,KG,KGZ,Bishkek,Bishkek,KG-GB,city,primary,8825.4,1120827,1120827,1,Asia/Bishkek,FALSE,1417191971
Osh,Osh,Osh,40.5300,72.8000,Kyrgyzstan,KG,KGZ,Osh,Osh,KG-O,province,admin,410.7,353080,353080,2,Asia/Bishkek,FALSE,1417797596
Jalal-Abad,Jalal-Abad,Dzhalal-Abad,40.9333,73.0000,Kyrgyzstan,KG,KGZ,Jalal-Abad,Jalal-Abad,KG-J,province,admin,1011.4,89004,89004,2,Asia/Bishkek,FALSE,1417653652
Karakol,Karakol,Prjeval’sk|Karakol|Przheval’sk,42.4903,78.3917,Kyrgyzstan,KG,KGZ,Ysyk-Köl,Ysyk-Kol,KG-Y,province,admin,7.4,85588,85588,2,Asia/Bishkek,FALSE,1417269527
Tokmok,Tokmok,Tokmak,42.8333,75.2833,Kyrgyzstan,KG,KGZ,Chüy,Chuy,KG-C,province,,961.7,53231,53231,3,Asia/Bishkek,FALSE,1417875875
Kyzyl-Kyya,Kyzyl-Kyya,Kizöl-Kiva|Kizyl-Kiya|Kyzyl-Kiya|Kzyl-Kiya|Qizilqiya,40.2611,72.1306,Kyrgyzstan,KG,KGZ,Batken,Batken,KG-B,province,,39.4,51300,51300,3,Asia/Bishkek,FALSE,1417902733
Özgön,Ozgon,Uzkend|Uzgen,40.7667,73.3000,Kyrgyzstan,KG,KGZ,Osh,Osh,KG-O,province,,87.0,49410,49410,3,Asia/Bishkek,FALSE,1417087485
Kara-Balta,Kara-Balta,"Karabaltö|Imeni Mikoyana|Kara-Balty|Kara-Balta",42.8333,73.8500,Kyrgyzstan,KG,KGZ,Chüy,Chuy,KG-C,province,minor,7.5,48278,48278,3,Asia/Bishkek,FALSE,1417201811
Balykchy,Balykchy,Rybach’e|Ysyk-Köl|Issyk-Kul’|Rybach’ye|Balykchy,42.4611,76.1803,Kyrgyzstan,KG,KGZ,Ysyk-Köl,Ysyk-Kol,KG-Y,province,,23.5,42380,42380,3,Asia/Bishkek,FALSE,1417967917
Bazar-Korgon,Bazar-Korgon,Bazar-Korgon|Bozor-Qo‘rg‘on|Bazar,41.0417,72.7472,Kyrgyzstan,KG,KGZ,Jalal-Abad,Jalal-Abad,KG-J,province,minor,69.9,41011,41011,3,Asia/Bishkek,FALSE,1417672814
Talas,Talas,Dmitriyevskoye|Dmitriyevka|Talas|Talass,42.5167,72.2333,Kyrgyzstan,KG,KGZ,Talas,Talas,KG-T,province,admin,310.0,40308,40308,2,Asia/Bishkek,FALSE,1417698287
Naryn,Naryn,Naron|Naryn,41.4333,76.0000,Kyrgyzstan,KG,KGZ,Naryn,Naryn,KG-N,province,admin,6.1,34822,34822,2,Asia/Bishkek,FALSE,1417466970
Isfana,Isfana,Isfana|Isfina,39.8372,69.5333,Kyrgyzstan,KG,KGZ,Batken,Batken,KG-B,province,minor,27.2,34219,34219,3,Asia/Bishkek,FALSE,1417781894
Aravan,Aravan,Aravan,40.5150,72.4992,Kyrgyzstan,KG,KGZ,Osh,Osh,KG-O,province,minor,270.5,32917,32917,3,Asia/Bishkek,FALSE,1417417400
Sokuluk,Sokuluk,Kaganovich|Novo-Troitskoye|Sokuluk,42.8600,74.3000,Kyrgyzstan,KG,KGZ,Chüy,Chuy,KG-C,province,minor,59.7,30540,30540,3,Asia/Bishkek,FALSE,1417050744
Suzak,Suzak,Suzak,40.8981,72.9047,Kyrgyzstan,KG,KGZ,Jalal-Abad,Jalal-Abad,KG-J,province,minor,96.6,30534,30534,3,Asia/Bishkek,FALSE,1417055245
Batken,Batken,Batken,40.0667,70.8167,Kyrgyzstan,KG,KGZ,Batken,Batken,KG-B,province,admin,135.3,27730,27730,2,Asia/Bishkek,FALSE,1417022726
Iradan,Iradan,Radinan,40.2600,72.1000,Kyrgyzstan,KG,KGZ,Batken,Batken,KG-B,province,,47.9,26200,26200,3,Asia/Bishkek,FALSE,1417514470
Novopokrovka,Novopokrovka,"Novopokrovskoye|Novoye Pokrovskoye|Novopokrovka",42.8708,74.7508,Kyrgyzstan,KG,KGZ,Chüy,Chuy,KG-C,province,,93.7,21619,21619,3,Asia/Bishkek,FALSE,1417819015
Kant,Kant,Kant,42.8833,74.8500,Kyrgyzstan,KG,KGZ,Chüy,Chuy,KG-C,province,minor,79.0,21400,21400,3,Asia/Bishkek,FALSE,1417254104
Belovodskoe,Belovodskoe,Stalinskoye|Belovodskoye,42.8300,74.1000,Kyrgyzstan,KG,KGZ,Chüy,Chuy,KG-C,province,minor,59.7,21275,21275,3,Asia/Bishkek,FALSE,1417996342
Shark,Shark,Shark|Sharq,40.5569,72.8264,Kyrgyzstan,KG,KGZ,Osh,Osh,KG-O,province,,5579.2,21120,21120,2,Asia/Bishkek,FALSE,1417396850
Jangy-Nookat,Jangy-Nookat,Dzhany-Nookat|Yangi-Naukat,40.2500,72.5500,Kyrgyzstan,KG,KGZ,Osh,Osh,KG-O,province,,64.7,21049,21049,3,Asia/Bishkek,FALSE,1417565816
Kara-Suu,Kara-Suu,"Kara-Su|Kara Suu|Qora-Suu",40.7000,72.8833,Kyrgyzstan,KG,KGZ,Osh,Osh,KG-O,province,minor,742.5,20862,20862,3,Asia/Bishkek,FALSE,1417321617
Lebedinovka,Lebedinovka,Lebedinka|Lebedinovka,42.8800,74.6800,Kyrgyzstan,KG,KGZ,Chüy,Chuy,KG-C,province,minor,93.7,20709,20709,3,Asia/Bishkek,FALSE,1417855889
Toktogul,Toktogul,Toktogul,41.8722,72.9389,Kyrgyzstan,KG,KGZ,Jalal-Abad,Jalal-Abad,KG-J,province,minor,13.7,20577,20577,3,Asia/Bishkek,FALSE,1417791878
Kurshab,Kurshab,,40.6917,73.1889,Kyrgyzstan,KG,KGZ,Osh,Osh,KG-O,province,,87.0,20471,20471,3,Asia/Bishkek,FALSE,1417161123
Kashkar-Kyshtak,Kashkar-Kyshtak,"Kashgarkishlak|Kashgar|Kashgar Kyshtak|Qashg‘ar-Qishtak",40.6200,72.8300,Kyrgyzstan,KG,KGZ,Osh,Osh,KG-O,province,,129.1,20334,20334,3,Asia/Bishkek,FALSE,1417542891
Mayluu-Suu,Mayluu-Suu,Mayli-Say|Mallisay|Maylysay,41.2457,72.4480,Kyrgyzstan,KG,KGZ,Jalal-Abad,Jalal-Abad,KG-J,province,,168.3,20200,20200,3,Asia/Bishkek,FALSE,1417039122
Voyenno-Antonovka,Voyenno-Antonovka,Voyenno-Antonovskoye,42.8722,74.4500,Kyrgyzstan,KG,KGZ,Chüy,Chuy,KG-C,province,,85.6,20182,20182,3,Asia/Bishkek,FALSE,1417044107
Massy,Massy,Leninjol|Lenin-Dzhol|Massi,41.0608,72.6328,Kyrgyzstan,KG,KGZ,Jalal-Abad,Jalal-Abad,KG-J,province,minor,54.8,19774,19774,3,Asia/Bishkek,FALSE,1417666567
Tash-Kömür,Tash-Komur,Tashkumör|Naryn|Tash-Kumyr,41.3500,72.2167,Kyrgyzstan,KG,KGZ,Jalal-Abad,Jalal-Abad,KG-J,province,,410.9,19310,19310,3,Asia/Bishkek,FALSE,1417242124
Kara-Köl,Kara-Kol,Kara-Kël’|Kara-Kul’,41.6311,72.6686,Kyrgyzstan,KG,KGZ,Jalal-Abad,Jalal-Abad,KG-J,province,,17.9,18843,18843,3,Asia/Bishkek,FALSE,1417090900
Novopavlovka,Novopavlovka,Novopavlovka,42.8700,74.4800,Kyrgyzstan,KG,KGZ,Chüy,Chuy,KG-C,province,,34.9,18332,18332,3,Asia/Bishkek,FALSE,1417769741
Eski-Nookat,Eski-Nookat,Iski-Naukat|Eski-Nookat,40.2658,72.6181,Kyrgyzstan,KG,KGZ,Osh,Osh,KG-O,province,minor,64.7,18228,18228,3,Asia/Bishkek,FALSE,1417348189
Ivanovka,Ivanovka,Ivanovna|Ivanovka,42.8864,75.0822,Kyrgyzstan,KG,KGZ,Chüy,Chuy,KG-C,province,minor,78.7,17513,17513,3,Asia/Bishkek,FALSE,1417486254
Myrza-Ake,Myrza-Ake,Mirza-Ake|Mirza-Aki,40.7500,73.4100,Kyrgyzstan,KG,KGZ,Osh,Osh,KG-O,province,,87.0,16011,16011,3,Asia/Bishkek,FALSE,1417504242
Kara-Kulja,Kara-Kulja,Kara-Kul’dzha,40.6333,73.5925,Kyrgyzstan,KG,KGZ,Osh,Osh,KG-O,province,minor,16.4,15616,15616,3,Asia/Bishkek,FALSE,1417892733
Kyzyl-Suu,Kyzyl-Suu,"Pokrovka|Leninskoye|Novo-Pokrovskoye|Nov Pokrovka",42.3425,78.0047,Kyrgyzstan,KG,KGZ,Ysyk-Köl,Ysyk-Kol,KG-Y,province,minor,6.4,15464,15464,3,Asia/Bishkek,FALSE,1417060130
Ala-Buka,Ala-Buka,Ala-Buka|Ola-Bo‘qa|Ola-Bo‘ka,41.4083,71.4806,Kyrgyzstan,KG,KGZ,Jalal-Abad,Jalal-Abad,KG-J,province,minor,24.7,15426,15426,3,Asia/Bishkek,FALSE,1417329927
Kochkor-Ata,Kochkor-Ata,Kochkor-Ata|Qo‘chqor-Ota,41.0319,72.4833,Kyrgyzstan,KG,KGZ,Jalal-Abad,Jalal-Abad,KG-J,province,,314.2,14814,14814,3,Asia/Bishkek,FALSE,1417211654
Uch-Korgon,Uch-Korgon,Uch-Korgon|Molotovabad|Uchkorgon|Uch-Kurgan|Uch-Qo‘rg‘on,40.2300,72.0600,Kyrgyzstan,KG,KGZ,Batken,Batken,KG-B,province,minor,25.0,14708,14708,3,Asia/Bishkek,FALSE,1417468277
At-Bashy,At-Bashy,At-Bashi,41.1700,75.8000,Kyrgyzstan,KG,KGZ,Naryn,Naryn,KG-N,province,minor,2.7,14655,14655,3,Asia/Bishkek,FALSE,1417188010
Aleksandrovka,Aleksandrovka,,42.8528,74.2194,Kyrgyzstan,KG,KGZ,Chüy,Chuy,KG-C,province,,59.7,14577,14577,3,Asia/Bishkek,FALSE,1417705377
Bökönbaev,Bokonbaev,Bokonbayevo|Kol’tsovka|Kunchigysh|Kunchigösh|Bokombayevskoye|Bokonbayevskoye,42.1100,76.9900,Kyrgyzstan,KG,KGZ,Ysyk-Köl,Ysyk-Kol,KG-Y,province,minor,6.8,14267,14267,3,Asia/Bishkek,FALSE,1417321497
Kerben,Kerben,Karavan,41.5000,71.7500,Kyrgyzstan,KG,KGZ,Jalal-Abad,Jalal-Abad,KG-J,province,minor,28.3,14141,14141,3,Asia/Bishkek,FALSE,1417321910
Teploklyuchenka,Teploklyuchenka,Teploklyuchenka|Teploklyuchinskoye|Teploklyuchinka,42.5000,78.5250,Kyrgyzstan,KG,KGZ,Ysyk-Köl,Ysyk-Kol,KG-Y,province,minor,7.4,14055,14055,3,Asia/Bishkek,FALSE,1417699860
Frunze,Frunze,Frunze|Kadamjay|Kadamdzhay|Kadamdzhai|Kadamjai,40.1267,71.7236,Kyrgyzstan,KG,KGZ,Batken,Batken,KG-B,province,,25.0,14049,14049,3,Asia/Bishkek,FALSE,1417652388
Gülchö,Gulcho,Gul’cha|Gultscha,40.3167,73.4333,Kyrgyzstan,KG,KGZ,Osh,Osh,KG-O,province,minor,9.3,13755,13755,3,Asia/Bishkek,FALSE,1417801725
Kyzyl-Adyr,Kyzyl-Adyr,Kirovskoye|Aleksandrovskoye|Aleksandrovskiy|Kirov|Aleksandrovka,42.6200,71.5900,Kyrgyzstan,KG,KGZ,Talas,Talas,KG-T,province,minor,17.4,13612,13612,3,Asia/Bishkek,FALSE,1417891810
Dyykan-Kyshtak,Dyykan-Kyshtak,Dyykan-Kyshtak|Diykan-Qishtak,40.5100,72.7800,Kyrgyzstan,KG,KGZ,Osh,Osh,KG-O,province,,362.9,13406,13406,3,Asia/Bishkek,FALSE,1417644014
Sülüktü,Suluktu,Sulyukta|Seluka|Selukta|Sulukta,39.9400,69.5600,Kyrgyzstan,KG,KGZ,Batken,Batken,KG-B,province,,743.2,13378,13378,3,Asia/Bishkek,FALSE,1417013156
Sovetskoe,Sovetskoe,Sovetskoye,41.0600,72.7300,Kyrgyzstan,KG,KGZ,Jalal-Abad,Jalal-Abad,KG-J,province,,69.9,13178,13178,3,Asia/Bishkek,FALSE,1417936909
Kara-Kyshtak,Kara-Kyshtak,Kara-Kshtak|Qora-Qishtak,40.1100,72.1000,Kyrgyzstan,KG,KGZ,Batken,Batken,KG-B,province,,25.0,12990,12990,3,Asia/Bishkek,FALSE,1417214210
Chüy,Chuy,"Staropokrovka|Staraya Pokrovka|Pokrovka|Chuy",42.8100,75.2800,Kyrgyzstan,KG,KGZ,Chüy,Chuy,KG-C,province,minor,711.4,12688,12688,3,Asia/Bishkek,FALSE,1417150707
Tüp,Tup,Tyup|Tjup|Preobrazhenskoye,42.7300,78.3600,Kyrgyzstan,KG,KGZ,Ysyk-Köl,Ysyk-Kol,KG-Y,province,minor,31.3,12355,12355,3,Asia/Bishkek,FALSE,1417469504
Shamaldy-Say,Shamaldy-Say,Shamaldy-Say|Shomoldi-Soy,41.1972,72.1803,Kyrgyzstan,KG,KGZ,Jalal-Abad,Jalal-Abad,KG-J,province,,54.8,12308,12308,3,Asia/Bishkek,FALSE,1417191406
Kök-Janggak,Kok-Janggak,Kok-Jengak|Kok-Yangak,41.0333,73.2000,Kyrgyzstan,KG,KGZ,Jalal-Abad,Jalal-Abad,KG-J,province,,96.6,12117,12117,3,Asia/Bishkek,FALSE,1417546126
Nariman,Nariman,Narimon|Zaribdar,40.5972,72.7972,Kyrgyzstan,KG,KGZ,Osh,Osh,KG-O,province,,129.1,12021,12021,3,Asia/Bishkek,FALSE,1417394679
Kyzyl-Kyshtak,Kyzyl-Kyshtak,Qizil-Qishtak|Dzhany-Kyshtak|Jangy-Kyshtak|Kyzylkishlak,40.5444,72.7739,Kyrgyzstan,KG,KGZ,Osh,Osh,KG-O,province,,1817.4,11971,11971,3,Asia/Bishkek,FALSE,1417327031
Alamedin,Alamedin,Voroshilovskoye|Alamüdün,42.8900,74.6300,Kyrgyzstan,KG,KGZ,Chüy,Chuy,KG-C,province,,93.7,11773,11773,3,Asia/Bishkek,FALSE,1417392357
Jangy-Kyshtak,Jangy-Kyshtak,Dzhany-Kyshtak|Jani-Qishtak|Kyzyl-Kyshtak,40.5500,72.7306,Kyrgyzstan,KG,KGZ,Osh,Osh,KG-O,province,,129.1,11647,11647,3,Asia/Bishkek,FALSE,1417218150
Cholpon-Ata,Cholpon-Ata,"Cholpon-Ata|Chalpan-Ata|Stanovishche Chalpan-Ata",42.6500,77.0833,Kyrgyzstan,KG,KGZ,Ysyk-Köl,Ysyk-Kol,KG-Y,province,minor,23.5,11520,11520,3,Asia/Bishkek,FALSE,1417433118
Bek-Abad,Bek-Abad,Bek-Abad|Bek-Obod|Begovat,40.8472,72.9750,Kyrgyzstan,KG,KGZ,Jalal-Abad,Jalal-Abad,KG-J,province,,96.6,11476,11476,3,Asia/Bishkek,FALSE,1417546505
Buzhum,Buzhum,Bujum|Moskva|Moskva|Batkan-Buzhum,40.0100,70.8300,Kyrgyzstan,KG,KGZ,Batken,Batken,KG-B,province,minor,132.7,11400,11400,3,Asia/Bishkek,FALSE,1417101582
Kochkor,Kochkor,Kochkorka,42.2158,75.7556,Kyrgyzstan,KG,KGZ,Naryn,Naryn,KG-N,province,minor,9.9,11373,11373,3,Asia/Bishkek,FALSE,1417678105
Naryn,Naryn,Norin,41.1306,72.0806,Kyrgyzstan,KG,KGZ,Jalal-Abad,Jalal-Abad,KG-J,province,,376.5,11306,11306,3,Asia/Bishkek,FALSE,1417067867
Arslanbob,Arslanbob,Arslanbab|Arslanbob|Kirov|Aryslanbob|Kirovskoye,41.3333,72.9333,Kyrgyzstan,KG,KGZ,Jalal-Abad,Jalal-Abad,KG-J,province,,69.9,11291,11291,3,Asia/Bishkek,FALSE,1417741770
Kazarman,Kazarman,Kazarman,41.4000,74.0500,Kyrgyzstan,KG,KGZ,Jalal-Abad,Jalal-Abad,KG-J,province,minor,5.5,11191,11191,3,Asia/Bishkek,FALSE,1417532863
"Imeni Chapayeva","Imeni Chapayeva",,40.2778,72.6361,Kyrgyzstan,KG,KGZ,Osh,Osh,KG-O,province,,64.7,10895,10895,3,Asia/Bishkek,FALSE,1417692191
Petrovka,Petrovka,Ak-Su|Petrovskoye,42.8389,74.0194,Kyrgyzstan,KG,KGZ,Chüy,Chuy,KG-C,province,,34.0,10879,10879,3,Asia/Bishkek,FALSE,1417874854
Kara-Tash,Kara-Tash,,40.2167,72.6306,Kyrgyzstan,KG,KGZ,Osh,Osh,KG-O,province,,64.7,10797,10797,3,Asia/Bishkek,FALSE,1417239790
Gülbaar,Gulbaar,Gyul’bakhor|Gulbahor,40.4800,72.6500,Kyrgyzstan,KG,KGZ,Osh,Osh,KG-O,province,,270.5,10718,10718,3,Asia/Bishkek,FALSE,1417638911
Baetov,Baetov,Dyurbel’jin|Durbel’jin|Bayetovo|Dyurbel’dzhin,41.2100,74.9000,Kyrgyzstan,KG,KGZ,Naryn,Naryn,KG-N,province,minor,4.9,10682,10682,3,Asia/Bishkek,FALSE,1417491170
Leninskoe,Leninskoe,Leninskoye,42.9806,74.6722,Kyrgyzstan,KG,KGZ,Chüy,Chuy,KG-C,province,,93.7,10653,10653,3,Asia/Bishkek,FALSE,1417027549
Sadovoye,Sadovoye,,42.8528,74.1722,Kyrgyzstan,KG,KGZ,Chüy,Chuy,KG-C,province,,59.7,10545,10545,3,Asia/Bishkek,FALSE,1417165744
Maevka,Maevka,Mayevka,42.9250,74.5694,Kyrgyzstan,KG,KGZ,Chüy,Chuy,KG-C,province,,85.6,10535,10535,3,Asia/Bishkek,FALSE,1417086380
Kemin,Kemin,Bystrorechenskoye|Bostrorechenskoye|Bystrovka,42.7861,75.6917,Kyrgyzstan,KG,KGZ,Chüy,Chuy,KG-C,province,minor,12.0,10354,10354,3,Asia/Bishkek,FALSE,1417700356
Aydarken,Aydarken,Khaydarkan|Khaydarkan|Aidarken|Khaidarkan|Khaydarken|Xaydarkon,39.9400,71.3300,Kyrgyzstan,KG,KGZ,Batken,Batken,KG-B,province,,25.0,10331,10331,3,Asia/Bishkek,FALSE,1417865074
Chong-Aryk,Chong-Aryk,Chon-Aryk,42.8139,74.5725,Kyrgyzstan,KG,KGZ,Bishkek,Bishkek,KG-GB,city,,93.7,10317,10317,3,Asia/Bishkek,FALSE,1417195703
Kulundu,Kulundu,Kulundu,40.1069,69.6431,Kyrgyzstan,KG,KGZ,Batken,Batken,KG-B,province,minor,27.2,10170,10170,3,Asia/Bishkek,FALSE,1417968397
Ak-Suu,Ak-Suu,Pervomayskiy|Pervomayskoye,42.8000,74.1000,Kyrgyzstan,KG,KGZ,Chüy,Chuy,KG-C,province,,59.7,9677,9677,4,Asia/Bishkek,FALSE,1417410777
Kayyngdy,Kayyngdy,Molotovsk|Molotovskiy|Kainda|Kaindy,42.8300,73.6800,Kyrgyzstan,KG,KGZ,Chüy,Chuy,KG-C,province,minor,7.5,9561,9561,3,Asia/Bishkek,FALSE,1417817372
Barskoon,Barskoon,Barskon|Barskaun,42.1561,77.6039,Kyrgyzstan,KG,KGZ,Ysyk-Köl,Ysyk-Kol,KG-Y,province,,6.4,9533,9533,4,Asia/Bishkek,FALSE,1417800599
Anan’evo,Anan'evo,Anan’yevo|Sazanovka|Sazanovskoye,42.7300,77.6600,Kyrgyzstan,KG,KGZ,Ysyk-Köl,Ysyk-Kol,KG-Y,province,,23.5,9470,9470,4,Asia/Bishkek,FALSE,1417852557
Tepe-Korgon,Tepe-Korgon,Tepe-Korgon|Tepa-Qo‘rg‘on|Tepe-Guzar,40.6000,72.4000,Kyrgyzstan,KG,KGZ,Osh,Osh,KG-O,province,,554.3,9186,9186,3,Asia/Bishkek,FALSE,1417409618
Kara-Bak,Kara-Bak,Qora-Bak|Kara-Bak,40.1583,70.8167,Kyrgyzstan,KG,KGZ,Batken,Batken,KG-B,province,minor,229.1,8923,8923,3,Asia/Bishkek,FALSE,1417932246
"Ladan Kara","Ladan Kara",,40.9264,72.9569,Kyrgyzstan,KG,KGZ,Jalal-Abad,Jalal-Abad,KG-J,province,,96.6,8886,8886,4,Asia/Bishkek,FALSE,1417039175
Shopokov,Shopokov,Novo-Troitskoye|Krasnooktyabr’skiy|Shopokov,42.8400,74.3100,Kyrgyzstan,KG,KGZ,Chüy,Chuy,KG-C,province,,85.6,8749,8749,3,Asia/Bishkek,FALSE,1417801567
Karavan,Karavan,Karavan,40.2944,72.1861,Kyrgyzstan,KG,KGZ,Batken,Batken,KG-B,province,,64.7,8657,8657,4,Asia/Bishkek,FALSE,1417081845
Panfilovka,Panfilovka,Panfilovskoye|Nikolayevka|Staro-Nikolayevka,42.7917,73.6778,Kyrgyzstan,KG,KGZ,Chüy,Chuy,KG-C,province,,7.5,8636,8636,4,Asia/Bishkek,FALSE,1417300619
Vostochnyy,Vostochnyy,Vostochnyy|Vostochnyi,39.9222,69.6500,Kyrgyzstan,KG,KGZ,Batken,Batken,KG-B,province,,27.2,8611,8611,4,Asia/Bishkek,FALSE,1417634598
Pokrovka,Pokrovka,Pokrovka|Pokrovskoye,42.7500,71.6000,Kyrgyzstan,KG,KGZ,Talas,Talas,KG-T,province,minor,22.8,8522,8522,3,Asia/Bishkek,FALSE,1417837155
Saruu,Saruu,Soru|Saru|Sary,42.3222,77.9222,Kyrgyzstan,KG,KGZ,Ysyk-Köl,Ysyk-Kol,KG-Y,province,,6.4,8501,8501,3,Asia/Bishkek,FALSE,1417333637
Chaldybar,Chaldybar,Chaldovar|Chaldavar|Chaldyvar|Chaldybar,42.8300,73.5300,Kyrgyzstan,KG,KGZ,Chüy,Chuy,KG-C,province,,7.5,8465,8465,4,Asia/Bishkek,FALSE,1417933242
Tash-Bulak,Tash-Bulak,Tash-Bulak,40.9556,73.0194,Kyrgyzstan,KG,KGZ,Jalal-Abad,Jalal-Abad,KG-J,province,,1084.5,8448,8448,3,Asia/Bishkek,FALSE,1417757275
Ak-Korgon,Ak-Korgon,Ak-Kurgan|Oq-Qo‘rg‘on,41.3833,71.5861,Kyrgyzstan,KG,KGZ,Jalal-Abad,Jalal-Abad,KG-J,province,,24.7,8132,8132,3,Asia/Bishkek,FALSE,1417113807
Samarkandyk,Samarkandyk,Samarkandyk,39.9944,70.5389,Kyrgyzstan,KG,KGZ,Batken,Batken,KG-B,province,minor,225.3,8015,8015,3,Asia/Bishkek,FALSE,1417254734
Andarak,Andarak,Andarak,39.7500,69.4600,Kyrgyzstan,KG,KGZ,Batken,Batken,KG-B,province,minor,27.2,8001,8001,3,Asia/Bishkek,FALSE,1417424315
Alekseyevka,Alekseyevka,,42.8167,73.8167,Kyrgyzstan,KG,KGZ,Chüy,Chuy,KG-C,province,,34.0,7991,7991,4,Asia/Bishkek,FALSE,1417510599
Novonikolayevka,Novonikolayevka,,42.8306,73.8889,Kyrgyzstan,KG,KGZ,Chüy,Chuy,KG-C,province,,34.0,7964,7964,3,Asia/Bishkek,FALSE,1417041010
Isanov,Isanov,Këk-Bel’,40.2500,72.9300,Kyrgyzstan,KG,KGZ,Osh,Osh,KG-O,province,,64.7,7879,7879,4,Asia/Bishkek,FALSE,1417492205
Markaz,Markaz,,40.2417,71.9083,Kyrgyzstan,KG,KGZ,Batken,Batken,KG-B,province,minor,83.3,7860,7860,3,Asia/Bishkek,FALSE,1417305812
Oktyabr’skoe,Oktyabr'skoe,Oktyabr’skoye,43.1167,74.4944,Kyrgyzstan,KG,KGZ,Chüy,Chuy,KG-C,province,,85.6,7621,7621,4,Asia/Bishkek,FALSE,1417051168
"Krasnaya Rechka","Krasnaya Rechka","Krasnorechenskoye|Krasnaya Rechka",42.9000,74.9600,Kyrgyzstan,KG,KGZ,Chüy,Chuy,KG-C,province,,79.0,7613,7613,4,Asia/Bishkek,FALSE,1417058995
Kara-Dekhkan,Kara-Dekhkan,,40.7889,73.3667,Kyrgyzstan,KG,KGZ,Osh,Osh,KG-O,city,,87.0,7492,7492,4,Asia/Bishkek,FALSE,1417963862
Kyzyl-Bel’,Kyzyl-Bel',Kyzyl-Bel,40.1000,70.7472,Kyrgyzstan,KG,KGZ,Batken,Batken,KG-B,province,,233.8,7481,7481,3,Asia/Bishkek,FALSE,1417133657
Bosteri,Bosteri,Bozteri|Bosterinovka|Basteri|Basterinovka|Bozterinovka,42.6500,77.1800,Kyrgyzstan,KG,KGZ,Ysyk-Köl,Ysyk-Kol,KG-Y,province,,23.5,7415,7415,3,Asia/Bishkek,FALSE,1417826039
Prigorodnoye,Prigorodnoye,,42.9028,74.5417,Kyrgyzstan,KG,KGZ,Chüy,Chuy,KG-C,province,,85.6,7406,7406,4,Asia/Bishkek,FALSE,1417881318
Chymgent,Chymgent,Chimgent|Chaugent|Chikgent,42.6222,71.5194,Kyrgyzstan,KG,KGZ,Talas,Talas,KG-T,province,,17.4,7243,7243,4,Asia/Bishkek,FALSE,1417869092
Katran,Katran,Katran,39.8425,70.0111,Kyrgyzstan,KG,KGZ,Batken,Batken,KG-B,province,minor,27.2,7149,7149,3,Asia/Bishkek,FALSE,1417941520
Kyzyl-Dzhar,Kyzyl-Dzhar,Qizil-Jar,41.1472,72.0917,Kyrgyzstan,KG,KGZ,Jalal-Abad,Jalal-Abad,KG-J,province,,103.3,7074,7074,4,Asia/Bishkek,FALSE,1417743096
Myrza-Aryk,Myrza-Aryk,,40.7250,73.2250,Kyrgyzstan,KG,KGZ,Osh,Osh,KG-O,province,,87.0,7013,7013,3,Asia/Bishkek,FALSE,1417403161
Chaek,Chaek,Kul’chigash|Chayek,41.9278,74.5139,Kyrgyzstan,KG,KGZ,Naryn,Naryn,KG-N,province,minor,6.7,7009,7009,3,Asia/Bishkek,FALSE,1417657325
Borbash,Borbash,Borbash,40.2647,72.5083,Kyrgyzstan,KG,KGZ,Osh,Osh,KG-O,province,,64.7,6931,6931,3,Asia/Bishkek,TRUE,1417366227
Ivanovo-Alekseyevka,Ivanovo-Alekseyevka,Ivano-Alekseevka|Këk-Oy,42.5472,72.2111,Kyrgyzstan,KG,KGZ,Talas,Talas,KG-T,province,minor,310.0,6904,6904,3,Asia/Bishkek,FALSE,1417541323
Tsentralnoye,Tsentralnoye,Centralnoe|Dzhany-Dzher,40.1879,69.8333,Kyrgyzstan,KG,KGZ,Batken,Batken,KG-B,province,minor,27.2,6900,6900,3,Asia/Bishkek,FALSE,1417027393
Akbulak,Akbulak,,40.2083,72.7000,Kyrgyzstan,KG,KGZ,Osh,Osh,KG-O,city,,64.7,6773,6773,4,Asia/Bishkek,FALSE,1417870256
Jangy-Aryk,Jangy-Aryk,Dzhany-Aryk|Jani-Ariq|Dzhangyaryk,40.6500,73.1083,Kyrgyzstan,KG,KGZ,Osh,Osh,KG-O,province,,87.0,6693,6693,4,Asia/Bishkek,FALSE,1417120706
Amanbaev,Amanbaev,Amanbayevo,42.6000,71.2000,Kyrgyzstan,KG,KGZ,Talas,Talas,KG-T,province,,17.4,6635,6635,4,Asia/Bishkek,FALSE,1417081362
Ken-Say,Ken-Say,Kutchi|Ken-Soy,40.7056,72.9056,Kyrgyzstan,KG,KGZ,Osh,Osh,KG-O,province,,129.1,6604,6604,3,Asia/Bishkek,FALSE,1417477517
Bayastan,Bayastan,,41.3333,71.5833,Kyrgyzstan,KG,KGZ,Jalal-Abad,Jalal-Abad,KG-J,province,,24.7,6600,6600,3,Asia/Bishkek,FALSE,1417710733
Otuz-Adyr,Otuz-Adyr,"Otuz-Adyr|O‘tuz-Adir|Karatyube|Sovkhoz Otuzadyr",40.6000,72.9600,Kyrgyzstan,KG,KGZ,Osh,Osh,KG-O,province,,129.1,6597,6597,4,Asia/Bishkek,FALSE,1417007463
Aral,Aral,Ak-Mechet’-Aral|Orol,40.8542,72.6833,Kyrgyzstan,KG,KGZ,Jalal-Abad,Jalal-Abad,KG-J,province,,96.6,6574,6574,4,Asia/Bishkek,FALSE,1417797743
Kyrgyz-Ata,Kyrgyz-Ata,,40.2028,72.6806,Kyrgyzstan,KG,KGZ,Osh,Osh,KG-O,province,,64.7,6538,6538,3,Asia/Bishkek,FALSE,1417953818
Ak-Bulak,Ak-Bulak,Baytant|Oq-Buloq,40.2722,72.1222,Kyrgyzstan,KG,KGZ,Batken,Batken,KG-B,province,,62.4,6497,6497,4,Asia/Bishkek,FALSE,1417955902
Darkan,Darkan,Tarkhana|Tarkhan|Tarakhany|Tarykhany|Tarakhanö|Darkhan,42.3111,77.8861,Kyrgyzstan,KG,KGZ,Ysyk-Köl,Ysyk-Kol,KG-Y,province,,6.4,6495,6495,4,Asia/Bishkek,FALSE,1417575965
Mikhaylovka,Mikhaylovka,Dzhergetal|Dzhirgital|Dzhirgatal|Jirgital|Mikhaylovka,41.1000,73.2250,Kyrgyzstan,KG,KGZ,Jalal-Abad,Jalal-Abad,KG-J,province,,96.6,6488,6488,4,Asia/Bishkek,FALSE,1417066416
Kümüsh-Aziz,Kumush-Aziz,Kyumyush-Aziz,40.8958,72.9222,Kyrgyzstan,KG,KGZ,Jalal-Abad,Jalal-Abad,KG-J,province,,96.6,6446,6446,4,Asia/Bishkek,FALSE,1417075648
Vasil’evka,Vasil'evka,Vasil’yevskiy|Vasil’yevka|Vasil’yevskoye,43.0972,74.5861,Kyrgyzstan,KG,KGZ,Chüy,Chuy,KG-C,province,,93.7,6422,6422,4,Asia/Bishkek,FALSE,1417092696
Daroot-Korgon,Daroot-Korgon,Daroot-Korgan|Daraut-Korgan|Daraut-Kurgan|Daraut-Korgon|Daroot-Korgon,39.5533,72.2000,Kyrgyzstan,KG,KGZ,Osh,Osh,KG-O,province,,5.7,6421,6421,4,Asia/Bishkek,FALSE,1417801682
Köchübaev,Kochubaev,Kochubayevo|Kochuboyevo,40.5083,72.4444,Kyrgyzstan,KG,KGZ,Osh,Osh,KG-O,province,,270.5,6390,6390,3,Asia/Bishkek,FALSE,1417797746
Bayzak,Bayzak,Kairma|Kayirma,41.9944,74.5833,Kyrgyzstan,KG,KGZ,Naryn,Naryn,KG-N,province,,6.7,6386,6386,4,Asia/Bishkek,FALSE,1417177100
Kyzyl-Jol,Kyzyl-Jol,Kyzyl-Zhol|Kyzyl-Dzhol,40.0417,70.8083,Kyrgyzstan,KG,KGZ,Batken,Batken,KG-B,province,,132.7,6378,6378,4,Asia/Bishkek,FALSE,1417416836
Khalmion,Khalmion,Khalmion|Kalmion|Halmion|Xalmion,40.2122,71.6328,Kyrgyzstan,KG,KGZ,Batken,Batken,KG-B,province,minor,25.0,6274,6274,3,Asia/Bishkek,FALSE,1417692244
Dzhar-Kyshtak,Dzhar-Kyshtak,Jar-Qishtak,40.8833,72.9472,Kyrgyzstan,KG,KGZ,Jalal-Abad,Jalal-Abad,KG-J,province,,96.6,6253,6253,4,Asia/Bishkek,TRUE,1417970065
Torkent,Torkent,Ail-Torken|Torkent,41.8417,73.1500,Kyrgyzstan,KG,KGZ,Jalal-Abad,Jalal-Abad,KG-J,province,,13.7,6198,6198,4,Asia/Bishkek,FALSE,1417297041
Kyrgyz-Chek,Kyrgyz-Chek,Qirg‘iz-Chek|Internatsional|Shark,40.5500,72.8700,Kyrgyzstan,KG,KGZ,Osh,Osh,KG-O,province,,129.1,6196,6196,3,Asia/Bishkek,FALSE,1417102845
Orlovka,Orlovka,Orlovskoye|Orlovka,42.7472,75.5889,Kyrgyzstan,KG,KGZ,Chüy,Chuy,KG-C,province,,12.0,6167,6167,4,Asia/Bishkek,FALSE,1417593626
Pravda,Pravda,,40.6944,73.1194,Kyrgyzstan,KG,KGZ,Osh,Osh,KG-O,province,,87.0,6136,6136,3,Asia/Bishkek,FALSE,1417947479
Jangy-Jer,Jangy-Jer,Dayzhgydzhar|Dzhangydzhar|Dzhany-Dzher,43.1083,74.3833,Kyrgyzstan,KG,KGZ,Chüy,Chuy,KG-C,province,,85.6,6128,6128,4,Asia/Bishkek,FALSE,1417440919
Gülstan,Gulstan,Gyul’stan,40.2611,72.6000,Kyrgyzstan,KG,KGZ,Osh,Osh,KG-O,province,,64.7,6113,6113,3,Asia/Bishkek,FALSE,1417721746
Kyzyl-Shark,Kyzyl-Shark,Qizil-Sharq,40.7250,72.9306,Kyrgyzstan,KG,KGZ,Osh,Osh,KG-O,province,,129.1,6102,6102,3,Asia/Bishkek,FALSE,1417607279
Özgörüsh,Ozgorush,Ozgorush,42.5250,72.0417,Kyrgyzstan,KG,KGZ,Talas,Talas,KG-T,province,,16.3,6081,6081,4,Asia/Bishkek,FALSE,1417404862
Bash-Bulak,Bash-Bulak,Bash-Bulak|Bosh-Buloq,40.5100,72.9600,Kyrgyzstan,KG,KGZ,Osh,Osh,KG-O,province,,129.1,6020,6020,4,Asia/Bishkek,FALSE,1417533128
Sosnovka,Sosnovka,Sosnovka,42.6756,73.9061,Kyrgyzstan,KG,KGZ,Chüy,Chuy,KG-C,province,,7.5,5972,5972,3,Asia/Bishkek,FALSE,1417841574
Ayra-Tam,Ayra-Tam,Pervomayskoye|Ayrytam|Ayri-Tom,41.1278,71.4083,Kyrgyzstan,KG,KGZ,Jalal-Abad,Jalal-Abad,KG-J,province,,24.7,5864,5864,3,Asia/Bishkek,FALSE,1417931442
Dzhany-Aryk,Dzhany-Aryk,Jani-Ariq,41.0514,72.3261,Kyrgyzstan,KG,KGZ,Jalal-Abad,Jalal-Abad,KG-J,province,,242.8,5859,5859,3,Asia/Bishkek,FALSE,1417562855
Blagoveshenka,Blagoveshenka,Blagoveshchenskoye,40.9778,72.9667,Kyrgyzstan,KG,KGZ,Jalal-Abad,Jalal-Abad,KG-J,province,,1084.5,5848,5848,3,Asia/Bishkek,FALSE,1417832104
Kyzyl-Ay,Kyzyl-Ay,Qizil-Oy,40.9972,72.6889,Kyrgyzstan,KG,KGZ,Jalal-Abad,Jalal-Abad,KG-J,province,,69.9,5846,5846,3,Asia/Bishkek,FALSE,1417036673
Kyrgyz-Kyshtak,Kyrgyz-Kyshtak,Kirgiz-Kyshtak|Kyrgyz-Kyshtak|Qirg‘iz-Qishtak,40.3083,71.3500,Kyrgyzstan,KG,KGZ,Batken,Batken,KG-B,province,minor,541.7,5809,5809,3,Asia/Bishkek,FALSE,1417227029
Shoro-Bashat,Shoro-Bashat,,40.8417,73.2694,Kyrgyzstan,KG,KGZ,Osh,Osh,KG-O,province,,87.0,5808,5808,3,Asia/Bishkek,FALSE,1417505380
Fedorovo,Fedorovo,,40.2492,72.7806,Kyrgyzstan,KG,KGZ,Osh,Osh,KG-O,province,,64.7,5805,5805,4,Asia/Bishkek,FALSE,1417614907
Charbak,Charbak,Charvak,41.2556,73.0056,Kyrgyzstan,KG,KGZ,Jalal-Abad,Jalal-Abad,KG-J,province,,69.9,5743,5743,4,Asia/Bishkek,TRUE,1417752300
Tëlëyken,Teleyken,Tölöykön|Tuleyken,40.4806,72.8222,Kyrgyzstan,KG,KGZ,Osh,Osh,KG-O,province,,129.1,5673,5673,3,Asia/Bishkek,FALSE,1417818283
Köpürö-Bazar,Kopuro-Bazar,Kupre|Këpyurë|Kopre|Këlyurë-Bazar,42.4600,72.9600,Kyrgyzstan,KG,KGZ,Talas,Talas,KG-T,province,,13.6,5610,5610,4,Asia/Bishkek,FALSE,1417068498
Klyuchevka,Klyuchevka,Klyuchevka|Klyuchevoy|Klyuchevskoye|Klyuchevoye|Boo-Terek,42.5600,71.8000,Kyrgyzstan,KG,KGZ,Talas,Talas,KG-T,province,,16.3,5596,5596,3,Asia/Bishkek,FALSE,1417146143
Ak-Jar,Ak-Jar,Ak-Dzhar,41.1722,75.7861,Kyrgyzstan,KG,KGZ,Naryn,Naryn,KG-N,province,,2.7,5559,5559,4,Asia/Bishkek,FALSE,1417165181
Dyuksemburg,Dyuksemburg,,42.8889,74.8306,Kyrgyzstan,KG,KGZ,Chüy,Chuy,KG-C,province,,79.0,5528,5528,4,Asia/Bishkek,FALSE,1417332530
Kara-Suu,Kara-Suu,Karasu,41.1289,75.6781,Kyrgyzstan,KG,KGZ,Naryn,Naryn,KG-N,province,,2.7,5523,5523,4,Asia/Bishkek,TRUE,1417525796
"Birinchi May","Birinchi May","Mekka-Turpak|Pervoye Maya|Makaturpak",41.0917,72.7639,Kyrgyzstan,KG,KGZ,Jalal-Abad,Jalal-Abad,KG-J,province,,69.9,5518,5518,4,Asia/Bishkek,FALSE,1417104834
Kodzho-Aryk,Kodzho-Aryk,Khodzha-Aryk,40.2483,72.3272,Kyrgyzstan,KG,KGZ,Osh,Osh,KG-O,province,,64.7,5474,5474,4,Asia/Bishkek,FALSE,1417593821
Jerge-Tal,Jerge-Tal,Dzhergetal,41.5750,71.8139,Kyrgyzstan,KG,KGZ,Jalal-Abad,Jalal-Abad,KG-J,province,,28.3,5436,5436,3,Asia/Bishkek,FALSE,1417844926
Dzhiydalik,Dzhiydalik,Jiydalik|Nariman,40.5639,72.7917,Kyrgyzstan,KG,KGZ,Osh,Osh,KG-O,province,,9736.1,5422,5422,2,Asia/Bishkek,FALSE,1417285756
Ak-Tam,Ak-Tam,Ak-Tam|Oq-Tom,41.4694,71.6000,Kyrgyzstan,KG,KGZ,Jalal-Abad,Jalal-Abad,KG-J,province,,24.7,5404,5404,4,Asia/Bishkek,FALSE,1417298690
Tash-Döbö,Tash-Dobo,Tash-Tyube|Tash-Dëbë,42.7222,74.5722,Kyrgyzstan,KG,KGZ,Chüy,Chuy,KG-C,province,,93.7,5397,5397,3,Asia/Bishkek,FALSE,1417667875
Kodzhoke,Kodzhoke,,40.2364,72.7825,Kyrgyzstan,KG,KGZ,Osh,Osh,KG-O,province,,64.7,5342,5342,4,Asia/Bishkek,FALSE,1417066820
Beshik-Jon,Beshik-Jon,Beshik-Dzhon,41.0444,72.7944,Kyrgyzstan,KG,KGZ,Jalal-Abad,Jalal-Abad,KG-J,province,,69.9,5342,5342,3,Asia/Bishkek,FALSE,1417012623
Kuldu,Kuldu,,40.0389,71.6194,Kyrgyzstan,KG,KGZ,Batken,Batken,KG-B,province,,25.0,5299,5299,4,Asia/Bishkek,FALSE,1417495276
Milyanfan,Milyanfan,Millyanfan,42.9600,74.8000,Kyrgyzstan,KG,KGZ,Chüy,Chuy,KG-C,province,,93.7,5271,5271,4,Asia/Bishkek,FALSE,1417751466
Borbash,Borbash,Burbash,40.2833,72.3722,Kyrgyzstan,KG,KGZ,Osh,Osh,KG-O,province,,64.7,5248,5248,3,Asia/Bishkek,FALSE,1417295413
Komsomol,Komsomol,,41.0861,73.1917,Kyrgyzstan,KG,KGZ,Jalal-Abad,Jalal-Abad,KG-J,province,,96.6,5237,5237,4,Asia/Bishkek,TRUE,1417517448
Sary-Mogol,Sary-Mogol,Sary-Mogol,39.6750,72.8833,Kyrgyzstan,KG,KGZ,Osh,Osh,KG-O,province,,9.3,5215,5215,4,Asia/Bishkek,TRUE,1417589717
Aral,Aral,Kommunizm|Aral,42.5361,72.6556,Kyrgyzstan,KG,KGZ,Talas,Talas,KG-T,province,,13.6,5206,5206,4,Asia/Bishkek,TRUE,1417712157
Sheraly,Sheraly,Shirali,40.7528,73.2806,Kyrgyzstan,KG,KGZ,Osh,Osh,KG-O,province,,87.0,5200,5200,4,Asia/Bishkek,FALSE,1417053161
Acha-Kayyngdy,Acha-Kayyngdy,Oy-Tersken|Acha-Kaindy,41.1417,75.8111,Kyrgyzstan,KG,KGZ,Naryn,Naryn,KG-N,province,,2.7,5181,5181,3,Asia/Bishkek,FALSE,1417276277
Ak-Tash,Ak-Tash,Oq-Tosh,40.6694,72.8139,Kyrgyzstan,KG,KGZ,Osh,Osh,KG-O,province,,129.1,5148,5148,4,Asia/Bishkek,FALSE,1417282346
Grigor’evka,Grigor'evka,Grigor’yevka,42.7200,77.4700,Kyrgyzstan,KG,KGZ,Ysyk-Köl,Ysyk-Kol,KG-Y,province,,23.5,5133,5133,3,Asia/Bishkek,FALSE,1417848224
Kyzyl-Sengir,Kyzyl-Sengir,Kyzylsangir|Qizil-Sengir,40.6417,73.1389,Kyrgyzstan,KG,KGZ,Osh,Osh,KG-O,province,,87.0,5077,5077,4,Asia/Bishkek,FALSE,1417335548
Chek,Chek,,40.1111,70.8472,Kyrgyzstan,KG,KGZ,Batken,Batken,KG-B,province,minor,95.1,5059,5059,3,Asia/Bishkek,FALSE,1417648446
Kara-Oy,Kara-Oy,Dolinka,42.6361,77.0250,Kyrgyzstan,KG,KGZ,Ysyk-Köl,Ysyk-Kol,KG-Y,province,,23.5,5050,5050,4,Asia/Bishkek,FALSE,1417479291
Noygut,Noygut,,40.2444,72.6083,Kyrgyzstan,KG,KGZ,Osh,Osh,KG-O,province,,64.7,5043,5043,3,Asia/Bishkek,FALSE,1417918858
Monok,Monok,,40.6278,72.7861,Kyrgyzstan,KG,KGZ,Osh,Osh,KG-O,province,,129.1,5020,5020,4,Asia/Bishkek,FALSE,1417205762
Temirovka,Temirovka,,42.7000,77.4100,Kyrgyzstan,KG,KGZ,Ysyk-Köl,Ysyk-Kol,KG-Y,province,,23.5,5002,5002,4,Asia/Bishkek,FALSE,1417813905
Kök-Say,Kok-Say,"Kok-Say|Këksay|Sovkhoz Këk-Say",42.5000,71.1100,Kyrgyzstan,KG,KGZ,Talas,Talas,KG-T,province,,17.4,4991,4991,4,Asia/Bishkek,FALSE,1417341002
Changyr-Tash,Changyr-Tash,Chang‘ir-Tosh|Changörtash,40.8639,72.7569,Kyrgyzstan,KG,KGZ,Jalal-Abad,Jalal-Abad,KG-J,province,,401.9,4845,4845,3,Asia/Bishkek,FALSE,1417153362
Tërt-Kul’,Tert-Kul',Tortkël’|Tërtkël’|Karadzhal,42.1000,76.9400,Kyrgyzstan,KG,KGZ,Ysyk-Köl,Ysyk-Kol,KG-Y,province,,6.8,4825,4825,4,Asia/Bishkek,FALSE,1417807111
Kanysh-Kyya,Kanysh-Kyya,Kanysh-Kiya|Kanysh-Kyya,41.7500,71.0800,Kyrgyzstan,KG,KGZ,Jalal-Abad,Jalal-Abad,KG-J,province,minor,4.3,4805,4805,3,Asia/Bishkek,FALSE,1417941101
Poltavka,Poltavka,,42.8436,73.9556,Kyrgyzstan,KG,KGZ,Chüy,Chuy,KG-C,province,,34.0,4700,4700,4,Asia/Bishkek,FALSE,1417335097
Taldy-Suu,Taldy-Suu,Taldö-Su|Taldysu,42.8000,78.4600,Kyrgyzstan,KG,KGZ,Ysyk-Köl,Ysyk-Kol,KG-Y,province,,31.3,4696,4696,4,Asia/Bishkek,FALSE,1417773972
Kyzyl-Too,Kyzyl-Too,Kyzyl-Too,40.8278,73.5222,Kyrgyzstan,KG,KGZ,Osh,Osh,KG-O,province,,87.0,4690,4690,4,Asia/Bishkek,FALSE,1417789987
Chim-Korgon,Chim-Korgon,Chim-Kurgan,42.8222,75.5333,Kyrgyzstan,KG,KGZ,Chüy,Chuy,KG-C,province,,29.6,4667,4667,4,Asia/Bishkek,FALSE,1417417320
Uchar,Uchar,,40.4800,72.7900,Kyrgyzstan,KG,KGZ,Osh,Osh,KG-O,province,,129.1,4651,4651,4,Asia/Bishkek,FALSE,1417494967
Madaniyat,Madaniyat,Kok-Yatyk,40.5900,72.8600,Kyrgyzstan,KG,KGZ,Osh,Osh,KG-O,province,,129.1,4599,4599,3,Asia/Bishkek,FALSE,1417694578
Tësh,Tesh,Kara-Dar’ya|Tyosh,40.8744,72.6333,Kyrgyzstan,KG,KGZ,Jalal-Abad,Jalal-Abad,KG-J,province,,96.6,4579,4579,3,Asia/Bishkek,FALSE,1417198009
Bel,Bel,Bel’|Bel’uryuk,40.2694,72.4667,Kyrgyzstan,KG,KGZ,Osh,Osh,KG-O,province,,64.7,4550,4550,4,Asia/Bishkek,FALSE,1417842889
Jylandy,Jylandy,Dzhilandy|Dzhilyandy|Dzhilanny,40.8250,73.3139,Kyrgyzstan,KG,KGZ,Osh,Osh,KG-O,province,,87.0,4548,4548,4,Asia/Bishkek,FALSE,1417088624
Sheker,Sheker,Sheker,42.5300,71.1500,Kyrgyzstan,KG,KGZ,Talas,Talas,KG-T,province,,17.4,4532,4532,4,Asia/Bishkek,FALSE,1417114266
Komintern,Komintern,Naukent,41.0417,72.5861,Kyrgyzstan,KG,KGZ,Jalal-Abad,Jalal-Abad,KG-J,province,,69.8,4498,4498,3,Asia/Bishkek,FALSE,1417729166
Kosh-Döbö,Kosh-Dobo,Koshtëbë|Kosh-Dyube,41.0847,74.2592,Kyrgyzstan,KG,KGZ,Naryn,Naryn,KG-N,province,,4.9,4483,4483,4,Asia/Bishkek,FALSE,1417620754
Ak-Terek,Ak-Terek,Akterek,42.2360,77.7270,Kyrgyzstan,KG,KGZ,Ysyk-Köl,Ysyk-Kol,KG-Y,province,,6.4,4479,4479,3,Asia/Bishkek,FALSE,1417475119
Beshkent,Beshkent,Beshkent|Togal,40.0303,69.8183,Kyrgyzstan,KG,KGZ,Batken,Batken,KG-B,province,minor,27.2,4474,4474,3,Asia/Bishkek,FALSE,1417040146
Kachkynchy,Kachkynchy,"Kash Kanchi|Koshkenchi",41.0100,73.0500,Kyrgyzstan,KG,KGZ,Jalal-Abad,Jalal-Abad,KG-J,province,,121.7,4468,4468,4,Asia/Bishkek,FALSE,1417681634
Alga,Alga,Alga|Olg‘a,40.2361,71.5000,Kyrgyzstan,KG,KGZ,Batken,Batken,KG-B,province,minor,569.5,4362,4362,3,Asia/Bishkek,FALSE,1417554800
Dzhar-Korgon,Dzhar-Korgon,Yar-Kurgan,40.2417,72.8044,Kyrgyzstan,KG,KGZ,Osh,Osh,KG-O,province,,64.7,4336,4336,4,Asia/Bishkek,FALSE,1417369924
Kara-Kochkor,Kara-Kochkor,,40.6639,73.5000,Kyrgyzstan,KG,KGZ,Osh,Osh,KG-O,province,,16.4,4239,4239,4,Asia/Bishkek,FALSE,1417364757
Sretenka,Sretenka,Sretenskoye|Sretenka,42.9300,74.1300,Kyrgyzstan,KG,KGZ,Chüy,Chuy,KG-C,province,,59.7,4226,4226,4,Asia/Bishkek,FALSE,1417282161
Kaji-Say,Kaji-Say,Kadzhi-Say,42.1400,77.1806,Kyrgyzstan,KG,KGZ,Ysyk-Köl,Ysyk-Kol,KG-Y,province,,6.8,4220,4220,3,Asia/Bishkek,FALSE,1417952994
Kum-Döbö,Kum-Dobo,Akdzhar|Tyundyuk|Kum-Dyube|Kumtyube|Kum-Dëbë,42.2211,75.5500,Kyrgyzstan,KG,KGZ,Naryn,Naryn,KG-N,province,,9.9,4137,4137,4,Asia/Bishkek,FALSE,1417449602
Orto-Say,Orto-Say,,42.8050,74.5972,Kyrgyzstan,KG,KGZ,Bishkek,Bishkek,KG-GB,city,,93.7,4111,4111,4,Asia/Bishkek,FALSE,1417123136
Bash-Kayyngdy,Bash-Kayyngdy,Bash-Kaindy,41.1500,75.9000,Kyrgyzstan,KG,KGZ,Naryn,Naryn,KG-N,province,,2.7,4078,4078,3,Asia/Bishkek,FALSE,1417523355
Tëlëyken,Teleyken,Tölöykön|Tyolyoyken,40.4400,72.5600,Kyrgyzstan,KG,KGZ,Osh,Osh,KG-O,province,,64.7,4073,4073,3,Asia/Bishkek,TRUE,1417463817
Kyzyltu,Kyzyltu,,41.8861,72.9417,Kyrgyzstan,KG,KGZ,Jalal-Abad,Jalal-Abad,KG-J,province,,13.7,4031,4031,4,Asia/Bishkek,TRUE,1417872820
Savay,Savay,Sovay,40.7500,72.9800,Kyrgyzstan,KG,KGZ,Osh,Osh,KG-O,province,,423.7,3964,3964,3,Asia/Bishkek,FALSE,1417564822
Këk-Tash,Kek-Tash,Kok-Tash,39.7250,69.3944,Kyrgyzstan,KG,KGZ,Batken,Batken,KG-B,province,,27.2,3957,3957,4,Asia/Bishkek,TRUE,1417194393
Yur’evka,Yur'evka,Yur’yevskoye|Yur’yevka,42.7153,75.0344,Kyrgyzstan,KG,KGZ,Chüy,Chuy,KG-C,province,,79.0,3953,3953,3,Asia/Bishkek,FALSE,1417488256
Shamal-Terek,Shamal-Terek,,40.7944,73.5778,Kyrgyzstan,KG,KGZ,Osh,Osh,KG-O,province,,87.0,3901,3901,4,Asia/Bishkek,FALSE,1417343249
Kichi-Jargylchak,Kichi-Jargylchak,Dzhergel’char|Dzhergel’chak|Kichi-Dzhergylchak|Kichi-Dzhargylchak,42.2070,77.6880,Kyrgyzstan,KG,KGZ,Ysyk-Köl,Ysyk-Kol,KG-Y,province,,6.4,3872,3872,4,Asia/Bishkek,FALSE,1417008951
Besh-Kyungëy,Besh-Kyungey,,42.7733,74.6472,Kyrgyzstan,KG,KGZ,Chüy,Chuy,KG-C,province,,93.7,3856,3856,4,Asia/Bishkek,FALSE,1417115539
Örüktü,Oruktu,Oryuktyu|O‘ryuktyu,41.4278,71.4222,Kyrgyzstan,KG,KGZ,Jalal-Abad,Jalal-Abad,KG-J,province,,24.7,3831,3831,4,Asia/Bishkek,FALSE,1417026371
Kuu-Maydan,Kuu-Maydan,,40.2417,72.7333,Kyrgyzstan,KG,KGZ,Osh,Osh,KG-O,province,,64.7,3809,3809,4,Asia/Bishkek,FALSE,1417415234
Merkit,Merkit,Murkut,40.3000,72.2000,Kyrgyzstan,KG,KGZ,Osh,Osh,KG-O,province,,64.7,3803,3803,3,Asia/Bishkek,FALSE,1417103075
Arashan,Arashan,,42.7319,74.6433,Kyrgyzstan,KG,KGZ,Chüy,Chuy,KG-C,province,,93.7,3791,3791,4,Asia/Bishkek,FALSE,1417225574
Dzhany-Akman,Dzhany-Akman,Akhman,41.0111,72.8139,Kyrgyzstan,KG,KGZ,Jalal-Abad,Jalal-Abad,KG-J,province,,69.9,3789,3789,4,Asia/Bishkek,FALSE,1417447518
Ken-Buluk,Ken-Buluk,Kenbulun,42.8722,75.1278,Kyrgyzstan,KG,KGZ,Chüy,Chuy,KG-C,province,,77.2,3741,3741,4,Asia/Bishkek,FALSE,1417483361
Kara-Bulak,Kara-Bulak,,39.9417,70.9306,Kyrgyzstan,KG,KGZ,Batken,Batken,KG-B,province,,11.5,3725,3725,4,Asia/Bishkek,TRUE,1417149561
Üch-Terek,Uch-Terek,Uchterek|Sargata,41.7639,73.1944,Kyrgyzstan,KG,KGZ,Jalal-Abad,Jalal-Abad,KG-J,province,minor,13.7,3717,3717,3,Asia/Bishkek,FALSE,1417335121
Terek-Say,Terek-Say,Terek-Say|Terak-Soy|Terek-Soy,41.5000,71.1800,Kyrgyzstan,KG,KGZ,Jalal-Abad,Jalal-Abad,KG-J,province,,24.7,3708,3708,4,Asia/Bishkek,FALSE,1417220605
Mikhaylovka,Mikhaylovka,,42.6111,78.3325,Kyrgyzstan,KG,KGZ,Ysyk-Köl,Ysyk-Kol,KG-Y,province,,7.4,3699,3699,4,Asia/Bishkek,FALSE,1417741874
Ak-Suu,Ak-Suu,Ak-Suu|Zambarych,39.8958,69.3694,Kyrgyzstan,KG,KGZ,Batken,Batken,KG-B,province,minor,27.2,3672,3672,3,Asia/Bishkek,FALSE,1417641534
Ming-Kush,Ming-Kush,Min-Kush,41.6800,74.4600,Kyrgyzstan,KG,KGZ,Naryn,Naryn,KG-N,province,,6.7,3647,3647,4,Asia/Bishkek,FALSE,1417919666
Novovoznesenovka,Novovoznesenovka,"Novo-Voznesenskoye|Novo Konstantinovka|Valerianovskoye|Novo-Voznesenovka",42.5861,78.7444,Kyrgyzstan,KG,KGZ,Ysyk-Köl,Ysyk-Kol,KG-Y,province,,7.4,3647,3647,4,Asia/Bishkek,FALSE,1417368220
Kyzyl-Oktyabr’,Kyzyl-Oktyabr',Eskidurbul’,41.1028,72.7889,Kyrgyzstan,KG,KGZ,Jalal-Abad,Jalal-Abad,KG-J,province,,69.9,3641,3641,4,Asia/Bishkek,FALSE,1417469281
Semënovka,Semenovka,Semenovskoye|Tegirmenty,42.7200,77.5400,Kyrgyzstan,KG,KGZ,Ysyk-Köl,Ysyk-Kol,KG-Y,province,,23.5,3636,3636,4,Asia/Bishkek,FALSE,1417937640
Aygyr-Jal,Aygyr-Jal,Aygyr-Dzhal,41.7300,70.9800,Kyrgyzstan,KG,KGZ,Jalal-Abad,Jalal-Abad,KG-J,province,,4.3,3629,3629,4,Asia/Bishkek,FALSE,1417440099
Taldy-Bulak,Taldy-Bulak,"Sovkhoz Taldy-Bulak|Taldö-Bulak State Farm|Aul Pyatyy|Konezavod Nomer Sto Trinadtsat’|Taldy-Bulak",42.4000,72.9944,Kyrgyzstan,KG,KGZ,Talas,Talas,KG-T,province,,13.6,3615,3615,4,Asia/Bishkek,FALSE,1417880210
Kyzyl-Senir,Kyzyl-Senir,,41.0417,73.0028,Kyrgyzstan,KG,KGZ,Jalal-Abad,Jalal-Abad,KG-J,province,,96.6,3612,3612,4,Asia/Bishkek,FALSE,1417905423
Dmitriyevka,Dmitriyevka,,42.8944,74.9022,Kyrgyzstan,KG,KGZ,Chüy,Chuy,KG-C,province,,79.0,3602,3602,3,Asia/Bishkek,FALSE,1417770196
Karacha,Karacha,,41.0833,72.8083,Kyrgyzstan,KG,KGZ,Jalal-Abad,Jalal-Abad,KG-J,province,,69.9,3586,3586,4,Asia/Bishkek,FALSE,1417816884
Kyzyl-Bulak,Kyzyl-Bulak,,40.2225,72.2789,Kyrgyzstan,KG,KGZ,Osh,Osh,KG-O,province,,64.7,3576,3576,4,Asia/Bishkek,FALSE,1417677090
Kulanak,Kulanak,Kulanak,41.3500,75.5000,Kyrgyzstan,KG,KGZ,Naryn,Naryn,KG-N,province,,6.1,3544,3544,4,Asia/Bishkek,FALSE,1417129137
Chong-Aryk,Chong-Aryk,Kara-Sakal|Chonaryk,41.8917,72.6444,Kyrgyzstan,KG,KGZ,Jalal-Abad,Jalal-Abad,KG-J,province,,13.7,3523,3523,4,Asia/Bishkek,FALSE,1417837899
Taran-Bazar,Taran-Bazar,,41.1267,73.3088,Kyrgyzstan,KG,KGZ,Jalal-Abad,Jalal-Abad,KG-J,province,,96.6,3522,3522,3,Asia/Bishkek,FALSE,1417336597
Orozbekov,Orozbekov,Orozbekovo|Urazbekovo|Okhna|O‘rozbekovo,40.0611,71.6833,Kyrgyzstan,KG,KGZ,Batken,Batken,KG-B,province,minor,25.0,3503,3503,3,Asia/Bishkek,FALSE,1417183406
Chimgen,Chimgen,Chymgen|Bol’shevik,39.8725,69.5056,Kyrgyzstan,KG,KGZ,Batken,Batken,KG-B,province,,27.2,3490,3490,4,Asia/Bishkek,FALSE,1417896838
Döng-Aryk,Dong-Aryk,Don-Aryk|Dën-Aryk,42.7503,75.2161,Kyrgyzstan,KG,KGZ,Chüy,Chuy,KG-C,province,,30.2,3486,3486,4,Asia/Bishkek,FALSE,1417952059
Kashka-Suu,Kashka-Suu,Kara-Suu|Kashka-Su,39.6333,72.6667,Kyrgyzstan,KG,KGZ,Osh,Osh,KG-O,province,,5.7,3468,3468,4,Asia/Bishkek,TRUE,1417183583
Suusamyr,Suusamyr,"Suusamyr|Susamör State Farm|Susamyr",42.1778,73.9639,Kyrgyzstan,KG,KGZ,Chüy,Chuy,KG-C,province,,34.0,3468,3468,4,Asia/Bishkek,FALSE,1417244957
Kök-Tash,Kok-Tash,Këk-Tash|Mayli-Su|Mayly-Suu|Kek-Tash,41.1833,72.4000,Kyrgyzstan,KG,KGZ,Jalal-Abad,Jalal-Abad,KG-J,province,,54.8,3451,3451,4,Asia/Bishkek,FALSE,1417526626
Korumdu,Korumdu,Korumdy,42.6800,77.3400,Kyrgyzstan,KG,KGZ,Ysyk-Köl,Ysyk-Kol,KG-Y,province,,23.5,3450,3450,4,Asia/Bishkek,TRUE,1417212141
Mamazhan,Mamazhan,Mamajon|Yuvash,40.6111,72.9194,Kyrgyzstan,KG,KGZ,Osh,Osh,KG-O,province,,129.1,3445,3445,4,Asia/Bishkek,FALSE,1417486939
Kara-Suu,Kara-Suu,Karasu,42.1900,75.8100,Kyrgyzstan,KG,KGZ,Naryn,Naryn,KG-N,province,,9.9,3445,3445,4,Asia/Bishkek,FALSE,1417179236
Chong-Sary-Oy,Chong-Sary-Oy,Chon-Saroy|Chon-Sary-Oy|Chongsaray,42.6100,76.9400,Kyrgyzstan,KG,KGZ,Ysyk-Köl,Ysyk-Kol,KG-Y,province,,23.5,3430,3430,4,Asia/Bishkek,FALSE,1417474777
Chat-Kël’,Chat-Kel',Chatkul’,42.9300,74.3500,Kyrgyzstan,KG,KGZ,Chüy,Chuy,KG-C,province,,85.6,3414,3414,4,Asia/Bishkek,FALSE,1417491783
Kürmöntü,Kurmontu,Kurmentö|Kurmenty,42.7800,78.2500,Kyrgyzstan,KG,KGZ,Ysyk-Köl,Ysyk-Kol,KG-Y,province,,674.9,3396,3396,3,Asia/Bishkek,FALSE,1417564332
Internatsional,Internatsional,,40.2722,72.6639,Kyrgyzstan,KG,KGZ,Osh,Osh,KG-O,province,,64.7,3390,3390,3,Asia/Bishkek,FALSE,1417896073
Ak-Dzhol,Ak-Dzhol,,42.9428,74.4861,Kyrgyzstan,KG,KGZ,Chüy,Chuy,KG-C,province,,85.6,3358,3358,4,Asia/Bishkek,FALSE,1417013425
Emgekchil,Emgekchil,Entek-chil’|Emgekchil’,41.5553,75.9717,Kyrgyzstan,KG,KGZ,Naryn,Naryn,KG-N,province,,282.6,3353,3353,3,Asia/Bishkek,FALSE,1417185512
Kyzyl-Jar,Kyzyl-Jar,Kyzyl-Dzhar,41.2706,72.0064,Kyrgyzstan,KG,KGZ,Jalal-Abad,Jalal-Abad,KG-J,province,,28.3,3340,3340,4,Asia/Bishkek,FALSE,1417672843
Atana,Atana,Atana|Renzhit,41.3683,71.8547,Kyrgyzstan,KG,KGZ,Jalal-Abad,Jalal-Abad,KG-J,province,,35.6,3335,3335,4,Asia/Bishkek,FALSE,1417991430
Gerey-Shoron,Gerey-Shoron,Gerait|Gerayt,40.3000,72.2300,Kyrgyzstan,KG,KGZ,Osh,Osh,KG-O,province,,64.7,3326,3326,3,Asia/Bishkek,FALSE,1417943619
Karamyk,Karamyk,Karamyk,39.4833,71.8000,Kyrgyzstan,KG,KGZ,Osh,Osh,KG-O,province,,5.7,3324,3324,3,Asia/Bishkek,FALSE,1417449644
Khadzhir-Abad,Khadzhir-Abad,Xajir-Obod|Khodzharabad,40.9444,72.6167,Kyrgyzstan,KG,KGZ,Jalal-Abad,Jalal-Abad,KG-J,province,,69.9,3317,3317,4,Asia/Bishkek,FALSE,1417536114
Totiya,Totiya,Tuya-Lyash,40.8750,72.9583,Kyrgyzstan,KG,KGZ,Jalal-Abad,Jalal-Abad,KG-J,province,,96.6,3302,3302,4,Asia/Bishkek,FALSE,1417788749
Oogon-Talaa,Oogon-Talaa,Avgandala|Oogon-Talaa|Achi,41.2639,73.0222,Kyrgyzstan,KG,KGZ,Jalal-Abad,Jalal-Abad,KG-J,province,,69.9,3274,3274,4,Asia/Bishkek,FALSE,1417530758
Kara-Jygach,Kara-Jygach,Kyzyldzhazy|Karadzhigach|Kara-Dzhygach,41.7800,73.2800,Kyrgyzstan,KG,KGZ,Jalal-Abad,Jalal-Abad,KG-J,province,,13.7,3263,3263,4,Asia/Bishkek,FALSE,1417837887
Alashan,Alashan,Alashay,40.3111,72.3556,Kyrgyzstan,KG,KGZ,Osh,Osh,KG-O,province,,64.7,3260,3260,4,Asia/Bishkek,FALSE,1417873117
"Svetlaya Polyana","Svetlaya Polyana","Svetlaya Dolyana|Svetlaya Polyana",42.3494,78.0678,Kyrgyzstan,KG,KGZ,Ysyk-Köl,Ysyk-Kol,KG-Y,province,,6.4,3257,3257,4,Asia/Bishkek,FALSE,1417031126
Döng-Alysh,Dong-Alysh,Dën-Alysh|Danalysh|Dzhanalysh|Donalysh|Dëng-Alysh,42.2500,75.2300,Kyrgyzstan,KG,KGZ,Naryn,Naryn,KG-N,province,,9.9,3247,3247,4,Asia/Bishkek,FALSE,1417596969
Orto-Alysh,Orto-Alysh,Baytyk,42.7367,74.5483,Kyrgyzstan,KG,KGZ,Chüy,Chuy,KG-C,province,,90.3,3236,3236,3,Asia/Bishkek,FALSE,1417697237
Sopu-Korgon,Sopu-Korgon,Sufi-Kurgan|Sofi-Kurgan|Sopu-Korgon,40.0300,73.5000,Kyrgyzstan,KG,KGZ,Osh,Osh,KG-O,province,,9.3,3232,3232,4,Asia/Bishkek,FALSE,1417408273
Bash-Kuugandy,Bash-Kuugandy,Bash-Kurgandy,42.0028,74.6556,Kyrgyzstan,KG,KGZ,Naryn,Naryn,KG-N,province,,6.7,3218,3218,3,Asia/Bishkek,FALSE,1417852899
Margun,Margun,,40.0273,69.9425,Kyrgyzstan,KG,KGZ,Batken,Batken,KG-B,province,,27.2,3208,3208,4,Asia/Bishkek,FALSE,1417165164
Kamyshanovka,Kamyshanovka,Kamyshanovskoye|Kamöshanovskoye|Kamyshanovka,43.2178,74.2372,Kyrgyzstan,KG,KGZ,Chüy,Chuy,KG-C,province,,72.0,3196,3196,4,Asia/Bishkek,FALSE,1417945483
Orto-Aziya,Orto-Aziya,Akbashi|Akbash,41.0100,72.9800,Kyrgyzstan,KG,KGZ,Jalal-Abad,Jalal-Abad,KG-J,province,,96.6,3186,3186,4,Asia/Bishkek,FALSE,1417757446
Jangy-Jer,Jangy-Jer,Dzhany-Dzher|Djany-Djer,40.1250,70.8972,Kyrgyzstan,KG,KGZ,Batken,Batken,KG-B,province,,11.5,3168,3168,4,Asia/Bishkek,FALSE,1417082961
Karanay,Karanay,,40.3028,72.3861,Kyrgyzstan,KG,KGZ,Osh,Osh,KG-O,province,,64.7,3158,3158,4,Asia/Bishkek,FALSE,1417830380
Alma,Alma,Gul’ma|Gul’mara|Olma,41.0917,72.6833,Kyrgyzstan,KG,KGZ,Jalal-Abad,Jalal-Abad,KG-J,province,,54.8,3154,3154,3,Asia/Bishkek,FALSE,1417800248
Kara-Dzhygach,Kara-Dzhygach,Karadzhigach|Kara-Djygach|Kara-Dzhegach|Qora-Jig‘ach,40.1300,72.0800,Kyrgyzstan,KG,KGZ,Batken,Batken,KG-B,province,minor,25.0,3152,3152,3,Asia/Bishkek,FALSE,1417120463
Kichi-Kemin,Kichi-Kemin,,42.7853,75.9056,Kyrgyzstan,KG,KGZ,Chüy,Chuy,KG-C,province,,12.0,3145,3145,4,Asia/Bishkek,FALSE,1417725566
Ak-Shor,Ak-Shor,Oq-Sho‘r,40.4600,72.2100,Kyrgyzstan,KG,KGZ,Osh,Osh,KG-O,province,,270.5,3129,3129,3,Asia/Bishkek,FALSE,1417562280
Kyzyl-Uraan,Kyzyl-Uraan,Kyzyluran|Kyzyl-Uraan,41.7000,73.3000,Kyrgyzstan,KG,KGZ,Jalal-Abad,Jalal-Abad,KG-J,province,,13.7,3109,3109,4,Asia/Bishkek,FALSE,1417344805
Romanovka,Romanovka,Romanovskoye,42.8600,74.3300,Kyrgyzstan,KG,KGZ,Chüy,Chuy,KG-C,province,,85.6,3102,3102,3,Asia/Bishkek,FALSE,1417605079
Sogondu,Sogondu,Sungandy,40.2100,73.5100,Kyrgyzstan,KG,KGZ,Osh,Osh,KG-O,province,,9.3,3074,3074,4,Asia/Bishkek,FALSE,1417024533
Iskra,Iskra,,42.8103,75.4478,Kyrgyzstan,KG,KGZ,Chüy,Chuy,KG-C,province,,29.6,3065,3065,4,Asia/Bishkek,FALSE,1417518462
Ak-Jol,Ak-Jol,Chon-Ak-Dzhol|Akdzhol,41.5667,72.1972,Kyrgyzstan,KG,KGZ,Jalal-Abad,Jalal-Abad,KG-J,province,,28.3,3046,3046,4,Asia/Bishkek,FALSE,1417765118
Jangy-Jol,Jangy-Jol,Dzhangay-Dzhol|Dzhangi-Dzhol,41.5944,72.1222,Kyrgyzstan,KG,KGZ,Jalal-Abad,Jalal-Abad,KG-J,province,,28.3,3033,3033,4,Asia/Bishkek,FALSE,1417474093
Cholpon,Cholpon,Cholpon,42.1960,75.4750,Kyrgyzstan,KG,KGZ,Naryn,Naryn,KG-N,province,,9.9,3020,3020,4,Asia/Bishkek,FALSE,1417053546
Pülgön,Pulgon,Pulgon|Pul’gan|Paul’gan|Frunzenskoye|Pul’gon,40.1389,71.7306,Kyrgyzstan,KG,KGZ,Batken,Batken,KG-B,province,,25.0,3014,3014,4,Asia/Bishkek,FALSE,1417740853
Kegeti,Kegeti,Kegety|Kegetö|Kegeti,42.6900,75.1700,Kyrgyzstan,KG,KGZ,Chüy,Chuy,KG-C,province,,79.0,3004,3004,4,Asia/Bishkek,FALSE,1417233972
Toru-Aygyr,Toru-Aygyr,"Tur Aygyr|Toraygyr|Stanovishche Tur-Aygir|Toraygyn|Toruaygyr",42.4900,76.4200,Kyrgyzstan,KG,KGZ,Ysyk-Köl,Ysyk-Kol,KG-Y,province,,23.5,3000,3000,4,Asia/Bishkek,FALSE,1417157712
Uchkun,Uchkun,Uchkun,41.3700,75.3600,Kyrgyzstan,KG,KGZ,Naryn,Naryn,KG-N,province,,6.1,3000,3000,3,Asia/Bishkek,FALSE,1417400670
Selektsionnoye,Selektsionnoye,,42.8347,74.5232,Kyrgyzstan,KG,KGZ,Chüy,Chuy,KG-C,province,,85.6,2988,2988,4,Asia/Bishkek,FALSE,1417011226
Sary-Kashka,Sary-Kashka,Sarykashka|Sarykashkar|Renzhit|Rendzhit|Sari-Qashqa,41.4083,71.8814,Kyrgyzstan,KG,KGZ,Jalal-Abad,Jalal-Abad,KG-J,province,,28.3,2979,2979,3,Asia/Bishkek,FALSE,1417458343
Bagysh,Bagysh,,41.0158,73.0894,Kyrgyzstan,KG,KGZ,Jalal-Abad,Jalal-Abad,KG-J,province,,96.6,2963,2963,3,Asia/Bishkek,FALSE,1417700756
Sargata,Sargata,,41.7300,73.2000,Kyrgyzstan,KG,KGZ,Jalal-Abad,Jalal-Abad,KG-J,province,,13.7,2962,2962,3,Asia/Bishkek,FALSE,1417800148
Kenesh,Kenesh,,42.8939,74.9344,Kyrgyzstan,KG,KGZ,Chüy,Chuy,KG-C,province,,79.0,2927,2927,3,Asia/Bishkek,FALSE,1417050819
Kara-Alma,Kara-Alma,,41.2100,73.3367,Kyrgyzstan,KG,KGZ,Jalal-Abad,Jalal-Abad,KG-J,province,,96.6,2918,2918,4,Asia/Bishkek,FALSE,1417316020
Ak-Kyya,Ak-Kyya,Ak-Kyya,40.6583,73.6000,Kyrgyzstan,KG,KGZ,Osh,Osh,KG-O,province,,16.4,2884,2884,4,Asia/Bishkek,FALSE,1417893260
Kök-Jar,Kok-Jar,Këkdzhar|Kokdzhar,42.1850,75.6519,Kyrgyzstan,KG,KGZ,Naryn,Naryn,KG-N,province,,9.9,2880,2880,4,Asia/Bishkek,FALSE,1417512782
Mady,Mady,Mady|Madi,40.5389,72.9444,Kyrgyzstan,KG,KGZ,Osh,Osh,KG-O,province,,129.1,2876,2876,4,Asia/Bishkek,FALSE,1417372427
Kara-Bulak,Kara-Bulak,Kara-Bulak,39.8461,69.6461,Kyrgyzstan,KG,KGZ,Batken,Batken,KG-B,province,,27.2,2852,2852,4,Asia/Bishkek,FALSE,1417445613
Balbay,Balbay,Sarybulak,42.7800,78.2800,Kyrgyzstan,KG,KGZ,Ysyk-Köl,Ysyk-Kol,KG-Y,province,,489.4,2837,2837,3,Asia/Bishkek,FALSE,1417285962
Mangyt,Mangyt,Mangit|Kara-Kuchkan|Mang‘it,40.4500,72.5700,Kyrgyzstan,KG,KGZ,Osh,Osh,KG-O,province,,64.7,2837,2837,4,Asia/Bishkek,FALSE,1417835083
Kök-Oy,Kok-Oy,Kagoy|Këkoy,41.8600,74.4100,Kyrgyzstan,KG,KGZ,Naryn,Naryn,KG-N,province,,6.7,2830,2830,4,Asia/Bishkek,FALSE,1417721496
Pristan’-Prjeval’sk,Pristan'-Prjeval'sk,"Pristan’ Przheval’sk|Przheval’sk",42.5690,78.2970,Kyrgyzstan,KG,KGZ,Ysyk-Köl,Ysyk-Kol,KG-Y,province,,7.4,2829,2829,4,Asia/Bishkek,FALSE,1417021292
Kojoyar,Kojoyar,Kodzhoyar|Khodzhayar,42.7200,77.5200,Kyrgyzstan,KG,KGZ,Ysyk-Köl,Ysyk-Kol,KG-Y,province,,23.5,2804,2804,4,Asia/Bishkek,FALSE,1417391537
Sumsar,Sumsar,,41.3000,71.3100,Kyrgyzstan,KG,KGZ,Jalal-Abad,Jalal-Abad,KG-J,province,,24.7,2802,2802,4,Asia/Bishkek,TRUE,1417459342
Jar-Bashy,Jar-Bashy,Dzhar-Bashi,39.5100,72.1100,Kyrgyzstan,KG,KGZ,Osh,Osh,KG-O,province,,5.7,2798,2798,3,Asia/Bishkek,FALSE,1417427314
Kyzyl-Ata,Kyzyl-Ata,Kizyl-Ata|Qizil-Ota,41.4306,71.5361,Kyrgyzstan,KG,KGZ,Jalal-Abad,Jalal-Abad,KG-J,province,,24.7,2794,2794,4,Asia/Bishkek,FALSE,1417373058
Kyzyl-Tuu,Kyzyl-Tuu,Khodzhaaga|Kyzyltu|Khodzha-Ata|Kyzyl-Tuu,41.6750,72.0278,Kyrgyzstan,KG,KGZ,Jalal-Abad,Jalal-Abad,KG-J,province,,28.3,2792,2792,3,Asia/Bishkek,FALSE,1417356441
Kenzhekul,Kenzhekul,Kenjekul|Kenjeko‘l,40.6383,72.8133,Kyrgyzstan,KG,KGZ,Osh,Osh,KG-O,province,,129.1,2789,2789,4,Asia/Bishkek,FALSE,1417193137
Sary-Kamysh,Sary-Kamysh,Sarykamysh,42.4922,76.2875,Kyrgyzstan,KG,KGZ,Ysyk-Köl,Ysyk-Kol,KG-Y,province,,23.5,2775,2775,4,Asia/Bishkek,FALSE,1417956111
Dzhany-Alysh,Dzhany-Alysh,"Belyy Piket",42.8092,75.6058,Kyrgyzstan,KG,KGZ,Chüy,Chuy,KG-C,province,,12.0,2768,2768,4,Asia/Bishkek,FALSE,1417666674
Koy-Tash,Koy-Tash,,42.7172,74.6650,Kyrgyzstan,KG,KGZ,Chüy,Chuy,KG-C,province,,93.7,2736,2736,4,Asia/Bishkek,FALSE,1417214807
Avletim,Avletim,Aflatun,41.6333,71.9333,Kyrgyzstan,KG,KGZ,Jalal-Abad,Jalal-Abad,KG-J,province,,28.3,2732,2732,4,Asia/Bishkek,FALSE,1417541662
Dzhany-Dyykan,Dzhany-Dyykan,,40.9583,72.9306,Kyrgyzstan,KG,KGZ,Jalal-Abad,Jalal-Abad,KG-J,province,,96.6,2726,2726,4,Asia/Bishkek,FALSE,1417131692
Boston,Boston,Niyaz,41.0300,72.9600,Kyrgyzstan,KG,KGZ,Jalal-Abad,Jalal-Abad,KG-J,province,,96.6,2713,2713,3,Asia/Bishkek,TRUE,1417529988
Ken-Dzhylga,Ken-Dzhylga,Kendzhilga,40.3800,73.5000,Kyrgyzstan,KG,KGZ,Osh,Osh,KG-O,province,,9.3,2709,2709,4,Asia/Bishkek,FALSE,1417260929
Oktyabr’skoye,Oktyabr'skoye,Oktyabr’|Kara-Kashkar,40.6800,73.4600,Kyrgyzstan,KG,KGZ,Osh,Osh,KG-O,province,,16.4,2690,2690,4,Asia/Bishkek,FALSE,1417129002
Achyk-Suu,Achyk-Suu,Achiksu,39.4697,72.4986,Kyrgyzstan,KG,KGZ,Osh,Osh,KG-O,province,,5.7,2686,2686,3,Asia/Bishkek,FALSE,1417380837
Say,Say,Say,40.5833,73.6597,Kyrgyzstan,KG,KGZ,Osh,Osh,KG-O,province,,16.4,2678,2678,3,Asia/Bishkek,FALSE,1417225673
Shamshy,Shamshy,Shamsi,42.3100,75.4300,Kyrgyzstan,KG,KGZ,Naryn,Naryn,KG-N,province,,9.9,2675,2675,4,Asia/Bishkek,FALSE,1417853218
Sary-Gögöt,Sary-Gogot,Sarysogat|Sarsagut|Sarysogot|Sary-Sëgët,41.9500,73.2800,Kyrgyzstan,KG,KGZ,Jalal-Abad,Jalal-Abad,KG-J,province,,13.7,2671,2671,4,Asia/Bishkek,FALSE,1417667170
Alim-Tepe,Alim-Tepe,Olim-Tepe,40.6100,72.7600,Kyrgyzstan,KG,KGZ,Osh,Osh,KG-O,province,,129.1,2669,2669,4,Asia/Bishkek,FALSE,1417476564
Kolot,Kolot,Kulat,40.9833,72.7750,Kyrgyzstan,KG,KGZ,Jalal-Abad,Jalal-Abad,KG-J,province,,69.9,2668,2668,4,Asia/Bishkek,FALSE,1417571946
Ravat,Ravat,Ravat,39.8806,70.1667,Kyrgyzstan,KG,KGZ,Batken,Batken,KG-B,province,,27.2,2658,2658,4,Asia/Bishkek,FALSE,1417359614
Jangy-Bazar,Jangy-Bazar,Dzhany-Bazar,40.2472,72.7625,Kyrgyzstan,KG,KGZ,Osh,Osh,KG-O,province,,64.7,2657,2657,4,Asia/Bishkek,FALSE,1417486590
Chyrpykty,Chyrpykty,"Chirpykty|Cherpöktö|Cherpykty|Imeni Kirova|Kirov|Chyrpykty",42.5100,76.5800,Kyrgyzstan,KG,KGZ,Ysyk-Köl,Ysyk-Kol,KG-Y,province,,23.5,2657,2657,4,Asia/Bishkek,FALSE,1417559847
"Segizinchi Mart","Segizinchi Mart","Vos’moye Marta|Vos’mogo Marta",41.4500,75.4000,Kyrgyzstan,KG,KGZ,Naryn,Naryn,KG-N,province,,6.1,2655,2655,4,Asia/Bishkek,FALSE,1417418464
Ay-Tamga,Ay-Tamga,Ay-Tamg‘a,40.3183,72.2506,Kyrgyzstan,KG,KGZ,Osh,Osh,KG-O,province,,64.7,2648,2648,3,Asia/Bishkek,FALSE,1417136970
Ay-Tamga,Ay-Tamga,,40.3167,72.2500,Kyrgyzstan,KG,KGZ,Osh,Osh,KG-O,province,,64.7,2648,2648,4,Asia/Bishkek,TRUE,1417964662
Ak-Tektir,Ak-Tektir,Aktektir,41.9639,72.5139,Kyrgyzstan,KG,KGZ,Jalal-Abad,Jalal-Abad,KG-J,province,,13.7,2618,2618,3,Asia/Bishkek,FALSE,1417777939
Progress,Progress,"Progress|Kolkhoz Imeni Voroshilova",42.7244,75.3908,Kyrgyzstan,KG,KGZ,Chüy,Chuy,KG-C,province,,29.6,2591,2591,3,Asia/Bishkek,FALSE,1417097914
Toguz-Bulak,Toguz-Bulak,Toguz-Bulak,40.3800,73.4100,Kyrgyzstan,KG,KGZ,Osh,Osh,KG-O,province,,9.3,2584,2584,3,Asia/Bishkek,FALSE,1417575433
Kara-Oy,Kara-Oy,Karaoy,42.4583,72.7111,Kyrgyzstan,KG,KGZ,Talas,Talas,KG-T,province,,13.6,2572,2572,3,Asia/Bishkek,FALSE,1417136450
Ak-Bulung,Ak-Bulung,Akbulun,42.6264,78.8236,Kyrgyzstan,KG,KGZ,Ysyk-Köl,Ysyk-Kol,KG-Y,province,,7.4,2572,2572,4,Asia/Bishkek,TRUE,1417160617
Temen-Suu,Temen-Suu,"Kommuna Imeni Karla Marksa|Imeni Karla Marksa",42.6970,74.0220,Kyrgyzstan,KG,KGZ,Chüy,Chuy,KG-C,province,,34.0,2568,2568,4,Asia/Bishkek,FALSE,1417023889
Ottuk,Ottuk,Ottuk|Karashar,42.3089,76.2972,Kyrgyzstan,KG,KGZ,Ysyk-Köl,Ysyk-Kol,KG-Y,province,,23.5,2561,2561,4,Asia/Bishkek,FALSE,1417500259
Kayyrma,Kayyrma,,40.9889,72.8000,Kyrgyzstan,KG,KGZ,Jalal-Abad,Jalal-Abad,KG-J,province,,69.9,2554,2554,4,Asia/Bishkek,TRUE,1417367444
Kayragach,Kayragach,Kairagach,40.0508,69.7431,Kyrgyzstan,KG,KGZ,Batken,Batken,KG-B,province,,27.2,2553,2553,3,Asia/Bishkek,FALSE,1417152094
Üchbay,Uchbay,Uchbay,40.3000,72.7000,Kyrgyzstan,KG,KGZ,Osh,Osh,KG-O,province,,64.7,2545,2545,4,Asia/Bishkek,FALSE,1417995578
Yangi-Aryk,Yangi-Aryk,Yangi-Ariq,40.4389,72.5889,Kyrgyzstan,KG,KGZ,Osh,Osh,KG-O,province,,64.7,2538,2538,4,Asia/Bishkek,FALSE,1417370447
Shydyr,Shydyr,Shidyr|Shidir,41.1111,72.7222,Kyrgyzstan,KG,KGZ,Jalal-Abad,Jalal-Abad,KG-J,province,,54.8,2533,2533,4,Asia/Bishkek,FALSE,1417527682
Jan-Bulak,Jan-Bulak,Dzhanbulok|Dzhangybulak|Dzhan-Bulak|Dzham-Bulak|Dzhany-Bulak|Dzhem-Bulak|Janö-bulak|Jany-bulak,41.4300,75.7300,Kyrgyzstan,KG,KGZ,Naryn,Naryn,KG-N,province,,6.1,2527,2527,4,Asia/Bishkek,FALSE,1417024720
Besh-Burkhan,Besh-Burkhan,Pyshvyrkan,40.1986,72.2500,Kyrgyzstan,KG,KGZ,Osh,Osh,KG-O,province,,64.7,2519,2519,4,Asia/Bishkek,FALSE,1417241629
Aral,Aral,Orol,40.8667,72.9194,Kyrgyzstan,KG,KGZ,Jalal-Abad,Jalal-Abad,KG-J,province,,96.6,2463,2463,4,Asia/Bishkek,TRUE,1417515847
Jarkynbaev,Jarkynbaev,Kamenka|Zharkynbayevo,42.7300,77.7400,Kyrgyzstan,KG,KGZ,Ysyk-Köl,Ysyk-Kol,KG-Y,province,,23.5,2458,2458,4,Asia/Bishkek,FALSE,1417173242
Aral,Aral,,40.3000,72.6278,Kyrgyzstan,KG,KGZ,Osh,Osh,KG-O,province,,64.7,2452,2452,4,Asia/Bishkek,TRUE,1417556490
Tamchy,Tamchy,"Sovkhoz Tamchi|Tamchi",42.5600,76.6500,Kyrgyzstan,KG,KGZ,Ysyk-Köl,Ysyk-Kol,KG-Y,province,,23.5,2438,2438,4,Asia/Bishkek,FALSE,1417268507
Malovodnoye,Malovodnoye,,42.8444,74.3806,Kyrgyzstan,KG,KGZ,Chüy,Chuy,KG-C,province,,85.6,2433,2433,4,Asia/Bishkek,FALSE,1417612861
Masadan,Masadan,,40.8978,72.9692,Kyrgyzstan,KG,KGZ,Jalal-Abad,Jalal-Abad,KG-J,province,,96.6,2391,2391,4,Asia/Bishkek,FALSE,1417795916
Erkin-Too,Erkin-Too,,40.8167,73.5917,Kyrgyzstan,KG,KGZ,Osh,Osh,KG-O,province,,87.0,2389,2389,4,Asia/Bishkek,FALSE,1417678712
Arpatektir,Arpatektir,,40.3600,73.4000,Kyrgyzstan,KG,KGZ,Osh,Osh,KG-O,city,,9.3,2389,2389,4,Asia/Bishkek,FALSE,1417753504
Toguz-Bulak,Toguz-Bulak,Toguzbulak,42.0894,76.7436,Kyrgyzstan,KG,KGZ,Ysyk-Köl,Ysyk-Kol,KG-Y,province,,6.8,2372,2372,4,Asia/Bishkek,FALSE,1417817454
Kyzyl-Özgörüsh,Kyzyl-Ozgorush,Kyzyluzgorysh|Kyzylozkërush|Kyzyl-Ozgëryush,41.6300,73.4100,Kyrgyzstan,KG,KGZ,Jalal-Abad,Jalal-Abad,KG-J,province,,13.7,2368,2368,4,Asia/Bishkek,FALSE,1417012528
Samat,Samat,,39.9102,69.5087,Kyrgyzstan,KG,KGZ,Batken,Batken,KG-B,province,,27.2,2359,2359,4,Asia/Bishkek,FALSE,1417932113
Keng-Suu,Keng-Suu,Kensu,42.7550,78.7272,Kyrgyzstan,KG,KGZ,Ysyk-Köl,Ysyk-Kol,KG-Y,province,,31.3,2340,2340,4,Asia/Bishkek,FALSE,1417408126
Sary-Tash,Sary-Tash,Sary-Tash|Sarö-Tash|Saritash,39.7300,73.2500,Kyrgyzstan,KG,KGZ,Osh,Osh,KG-O,province,,9.3,2337,2337,4,Asia/Bishkek,TRUE,1417861644
Kosh-Korgon,Kosh-Korgon,,42.7536,75.4278,Kyrgyzstan,KG,KGZ,Chüy,Chuy,KG-C,province,,29.6,2317,2317,4,Asia/Bishkek,FALSE,1417816726
Ichke-Jergez,Ichke-Jergez,"Ichkedzherges|Mogila Samay|Ichke-Zherges",42.5417,78.7108,Kyrgyzstan,KG,KGZ,Ysyk-Köl,Ysyk-Kol,KG-Y,province,,7.4,2303,2303,4,Asia/Bishkek,FALSE,1417619998
Kyzyl-Tuu,Kyzyl-Tuu,Kyzyltu,41.0583,75.5528,Kyrgyzstan,KG,KGZ,Naryn,Naryn,KG-N,province,,2.7,2291,2291,4,Asia/Bishkek,FALSE,1417253566
Nichke,Nichke,,41.7100,73.4100,Kyrgyzstan,KG,KGZ,Jalal-Abad,Jalal-Abad,KG-J,province,,13.7,2279,2279,4,Asia/Bishkek,TRUE,1417051217
Kyzyl-Bulak,Kyzyl-Bulak,Kyzyl-Bulak|Qizil-Buloq,40.0300,71.7500,Kyrgyzstan,KG,KGZ,Batken,Batken,KG-B,province,minor,25.0,2272,2272,3,Asia/Bishkek,FALSE,1417473273
Ak-Say,Ak-Say,"Sovkhoz Aksay",42.1300,76.8300,Kyrgyzstan,KG,KGZ,Ysyk-Köl,Ysyk-Kol,KG-Y,province,,6.8,2262,2262,4,Asia/Bishkek,FALSE,1417403494
Tuz-Bel’,Tuz-Bel',,40.5600,73.3500,Kyrgyzstan,KG,KGZ,Osh,Osh,KG-O,province,,95.5,2248,2248,4,Asia/Bishkek,FALSE,1417480413
Yatan,Yatan,,40.3139,72.6694,Kyrgyzstan,KG,KGZ,Osh,Osh,KG-O,province,,64.7,2247,2247,3,Asia/Bishkek,FALSE,1417726644
Ak-Chaya,Ak-Chaya,,40.2347,72.2972,Kyrgyzstan,KG,KGZ,Osh,Osh,KG-O,city,,64.7,2244,2244,4,Asia/Bishkek,FALSE,1417421276
Chunkur-Kyshtak,Chunkur-Kyshtak,Chunqur-Qishtak,40.2583,71.5028,Kyrgyzstan,KG,KGZ,Batken,Batken,KG-B,province,,569.5,2240,2240,3,Asia/Bishkek,FALSE,1417237898
Kyzyl-Döbö,Kyzyl-Dobo,Kyzyltëbë|Kyzyl-Dëbë|Kyzyltyube,42.2000,75.2600,Kyrgyzstan,KG,KGZ,Naryn,Naryn,KG-N,province,,9.9,2239,2239,4,Asia/Bishkek,FALSE,1417343121
Beryu,Beryu,Börü|Bëryu,40.3300,72.9700,Kyrgyzstan,KG,KGZ,Osh,Osh,KG-O,province,,129.1,2237,2237,4,Asia/Bishkek,FALSE,1417611184
Kerkidan,Kerkidan,Kerkidon,40.3972,72.0953,Kyrgyzstan,KG,KGZ,Osh,Osh,KG-O,province,,64.7,2219,2219,4,Asia/Bishkek,FALSE,1417502714
Sumsar,Sumsar,Monchak-Tepe|Shakaftar|Shakaptar|Shekaftar|Sumsar,41.2100,71.3100,Kyrgyzstan,KG,KGZ,Jalal-Abad,Jalal-Abad,KG-J,province,,24.7,2217,2217,4,Asia/Bishkek,FALSE,1417634781
Taldyk,Taldyk,Taldök,40.3139,73.2278,Kyrgyzstan,KG,KGZ,Osh,Osh,KG-O,city,,129.1,2210,2210,4,Asia/Bishkek,FALSE,1417701106
Korgon,Korgon,Korgon|Lyaylyak,39.8889,69.9361,Kyrgyzstan,KG,KGZ,Batken,Batken,KG-B,province,minor,27.2,2204,2204,3,Asia/Bishkek,FALSE,1417993088
Eski-Pokrovka,Eski-Pokrovka,"Verkhne-Pokrovskoye|Pokrovskoye|Staraya Pokrovka",40.6875,73.1528,Kyrgyzstan,KG,KGZ,Osh,Osh,KG-O,province,,87.0,2203,2203,3,Asia/Bishkek,FALSE,1417216286
Gaz,Gaz,Gaz,39.8694,71.0222,Kyrgyzstan,KG,KGZ,Batken,Batken,KG-B,province,,11.5,2201,2201,3,Asia/Bishkek,FALSE,1417168606
Talaa,Talaa,,40.4444,73.2583,Kyrgyzstan,KG,KGZ,Osh,Osh,KG-O,province,,127.3,2185,2185,4,Asia/Bishkek,FALSE,1417793550
Shankol,Shankol,,40.2269,72.7472,Kyrgyzstan,KG,KGZ,Osh,Osh,KG-O,province,,64.7,2182,2182,3,Asia/Bishkek,FALSE,1417462496
Boroldoy,Boroldoy,Burulday|Boroldoy,42.7900,75.8500,Kyrgyzstan,KG,KGZ,Chüy,Chuy,KG-C,province,,12.0,2181,2181,4,Asia/Bishkek,FALSE,1417800155
Toskool,Toskool,,41.2028,72.6917,Kyrgyzstan,KG,KGZ,Jalal-Abad,Jalal-Abad,KG-J,province,,54.8,2180,2180,3,Asia/Bishkek,FALSE,1417192507
Kuturgu,Kuturgu,Fol’baumka|Kuturga,42.7500,78.1100,Kyrgyzstan,KG,KGZ,Ysyk-Köl,Ysyk-Kol,KG-Y,province,,31.3,2172,2172,3,Asia/Bishkek,FALSE,1417848731
Maydan,Maydan,Maidan,40.0500,72.0800,Kyrgyzstan,KG,KGZ,Batken,Batken,KG-B,province,,25.0,2168,2168,4,Asia/Bishkek,TRUE,1417020012
Shabdan,Shabdan,Novorossiyka|Novorssiyskoye,42.7333,76.0783,Kyrgyzstan,KG,KGZ,Chüy,Chuy,KG-C,province,,12.0,2157,2157,4,Asia/Bishkek,FALSE,1417294236
Mukur,Mukur,,41.6167,71.8889,Kyrgyzstan,KG,KGZ,Jalal-Abad,Jalal-Abad,KG-J,province,,28.3,2156,2156,4,Asia/Bishkek,FALSE,1417350070
Bel’-Kyshtak,Bel'-Kyshtak,Tuleykan|Bel-Qishtak,40.5600,72.6800,Kyrgyzstan,KG,KGZ,Osh,Osh,KG-O,province,,229.0,2144,2144,3,Asia/Bishkek,FALSE,1417012902
Ak-Ölöng,Ak-Olong,Akelëng|Ak-Olën|Akulen,42.3400,76.1600,Kyrgyzstan,KG,KGZ,Ysyk-Köl,Ysyk-Kol,KG-Y,province,,6.8,2142,2142,4,Asia/Bishkek,FALSE,1417306907
Arimdzhan,Arimdzhan,Arimjon,41.0300,72.5600,Kyrgyzstan,KG,KGZ,Jalal-Abad,Jalal-Abad,KG-J,province,,69.9,2141,2141,4,Asia/Bishkek,FALSE,1417000005
Kyzyl-Tuu,Kyzyl-Tuu,,40.2639,72.9833,Kyrgyzstan,KG,KGZ,Osh,Osh,KG-O,province,,129.1,2132,2132,4,Asia/Bishkek,FALSE,1417888819
Chiy-Talaa,Chiy-Talaa,Sëget|Sugut,39.9500,73.5000,Kyrgyzstan,KG,KGZ,Osh,Osh,KG-O,province,,9.3,2114,2114,3,Asia/Bishkek,FALSE,1417340520
Birdik,Birdik,,42.9600,74.8800,Kyrgyzstan,KG,KGZ,Chüy,Chuy,KG-C,province,,79.0,2076,2076,4,Asia/Bishkek,TRUE,1417553100
Oy-Tal,Oy-Tal,Oytal|Tamazh,40.4206,74.1119,Kyrgyzstan,KG,KGZ,Osh,Osh,KG-O,province,,16.4,2076,2076,3,Asia/Bishkek,FALSE,1417490292
Chong-Örüktü,Chong-Oruktu,Chong-Uryukty|Chon-Oryuktyu|Chon-Uryukty,42.7300,77.8400,Kyrgyzstan,KG,KGZ,Ysyk-Köl,Ysyk-Kol,KG-Y,province,,23.5,2045,2045,3,Asia/Bishkek,FALSE,1417496657
Kichi-Karakol,Kichi-Karakol,Chongkarakël’|Kichik-Karakol|Kichi-Karakol,39.9000,73.4167,Kyrgyzstan,KG,KGZ,Osh,Osh,KG-O,province,,9.3,2039,2039,4,Asia/Bishkek,FALSE,1417303416
Dzher-Kazar,Dzher-Kazar,,42.9432,74.7270,Kyrgyzstan,KG,KGZ,Chüy,Chuy,KG-C,province,,93.7,2021,2021,4,Asia/Bishkek,FALSE,1417747207
Karakungey,Karakungey,Kara-Kyungey,42.2000,75.9100,Kyrgyzstan,KG,KGZ,Naryn,Naryn,KG-N,province,,9.9,2016,2016,4,Asia/Bishkek,FALSE,1417296256
Koy-Tash,Koy-Tash,Uchkurt,41.5767,72.1086,Kyrgyzstan,KG,KGZ,Jalal-Abad,Jalal-Abad,KG-J,province,,28.3,2016,2016,4,Asia/Bishkek,TRUE,1417704977
Chok-Tal,Chok-Tal,"Choktal|Stanovishche Choktal",42.5800,76.7400,Kyrgyzstan,KG,KGZ,Ysyk-Köl,Ysyk-Kol,KG-Y,province,,23.5,2009,2009,4,Asia/Bishkek,FALSE,1417248509
Aral,Aral,Il’chibay|Aral,42.7167,78.6167,Kyrgyzstan,KG,KGZ,Ysyk-Köl,Ysyk-Kol,KG-Y,province,,31.3,1979,1979,4,Asia/Bishkek,FALSE,1417472318
Kyzyl-Tokoy,Kyzyl-Tokoy,Kyzyl-Tokay|Kizyl-Tukay|Kyzyl-Tokoy|Qizil-Toqoy,41.3800,71.3300,Kyrgyzstan,KG,KGZ,Jalal-Abad,Jalal-Abad,KG-J,province,,4.3,1975,1975,4,Asia/Bishkek,FALSE,1417931619
Mazarsu,Mazarsu,Mazar,41.9100,72.6600,Kyrgyzstan,KG,KGZ,Jalal-Abad,Jalal-Abad,KG-J,province,,13.7,1968,1968,4,Asia/Bishkek,FALSE,1417738211
Kurulush,Kurulush,Kurulush|Jangy-Bazar,41.6611,70.7833,Kyrgyzstan,KG,KGZ,Jalal-Abad,Jalal-Abad,KG-J,province,,4.3,1968,1968,4,Asia/Bishkek,TRUE,1417963170
Sary-Döbö,Sary-Dobo,Sarytëbë,42.7500,78.4000,Kyrgyzstan,KG,KGZ,Ysyk-Köl,Ysyk-Kol,KG-Y,province,,31.3,1967,1967,3,Asia/Bishkek,FALSE,1417106671
Khauz,Khauz,Khauz|Xovuz|Hovuz,40.3756,72.2047,Kyrgyzstan,KG,KGZ,Osh,Osh,KG-O,province,,64.7,1964,1964,4,Asia/Bishkek,FALSE,1417835606
Dostuk,Dostuk,Kyzyl|Do‘stuk,40.8681,72.8458,Kyrgyzstan,KG,KGZ,Jalal-Abad,Jalal-Abad,KG-J,province,,200.6,1960,1960,3,Asia/Bishkek,FALSE,1417997510
Kongur-Ölön,Kongur-Olon,Konur-Olën|Kongurolëng|Konur-Ulen|Kongurlëng,42.1000,76.6100,Kyrgyzstan,KG,KGZ,Ysyk-Köl,Ysyk-Kol,KG-Y,province,,6.8,1957,1957,3,Asia/Bishkek,FALSE,1417990987
Baglan,Baglan,,40.2256,72.2275,Kyrgyzstan,KG,KGZ,Osh,Osh,KG-O,province,,64.7,1953,1953,4,Asia/Bishkek,FALSE,1417609396
Kayyngdy,Kayyngdy,Karatebe|Kaindy,42.7439,76.1581,Kyrgyzstan,KG,KGZ,Chüy,Chuy,KG-C,province,,12.0,1935,1935,4,Asia/Bishkek,TRUE,1417661567
Kara-Bulung,Kara-Bulung,Karabulun,41.0953,75.5886,Kyrgyzstan,KG,KGZ,Naryn,Naryn,KG-N,province,,2.7,1917,1917,4,Asia/Bishkek,FALSE,1417412082
Salamalik,Salamalik,Salyam-Alim|Salyam-Alik|Galyam-alik|Salyam-Alyk,40.8500,73.6300,Kyrgyzstan,KG,KGZ,Osh,Osh,KG-O,province,,87.0,1898,1898,4,Asia/Bishkek,FALSE,1417397874
Aral,Aral,Orol|Aral-Vakhym,40.9889,72.6389,Kyrgyzstan,KG,KGZ,Jalal-Abad,Jalal-Abad,KG-J,province,,69.9,1896,1896,4,Asia/Bishkek,TRUE,1417735287
Raykomol,Raykomol,Chigir,41.6017,72.2386,Kyrgyzstan,KG,KGZ,Jalal-Abad,Jalal-Abad,KG-J,province,,28.3,1892,1892,4,Asia/Bishkek,FALSE,1417632722
Echki-Bashy,Echki-Bashy,Ichkebash,41.5667,75.9000,Kyrgyzstan,KG,KGZ,Naryn,Naryn,KG-N,province,,156.9,1885,1885,4,Asia/Bishkek,FALSE,1417810087
Kozuchak,Kozuchak,,42.4389,72.2750,Kyrgyzstan,KG,KGZ,Talas,Talas,KG-T,province,,16.3,1873,1873,4,Asia/Bishkek,FALSE,1417329380
Kaltak,Kaltak,Kalmak,40.2500,72.1000,Kyrgyzstan,KG,KGZ,Batken,Batken,KG-B,province,,25.0,1869,1869,4,Asia/Bishkek,FALSE,1417350409
Emgektala,Emgektala,Emgek-Talaa,41.3900,75.6000,Kyrgyzstan,KG,KGZ,Naryn,Naryn,KG-N,province,,6.1,1866,1866,4,Asia/Bishkek,FALSE,1417548300
Kuturgan,Kuturgan,Kuturgan,40.9167,73.5056,Kyrgyzstan,KG,KGZ,Osh,Osh,KG-O,province,,87.0,1846,1846,3,Asia/Bishkek,FALSE,1417362518
Tegirmenti,Tegirmenti,Tegirmenti|Tegermenti,42.7600,76.1600,Kyrgyzstan,KG,KGZ,Chüy,Chuy,KG-C,province,,12.0,1842,1842,4,Asia/Bishkek,FALSE,1417239557
Ak-Bosogo,Ak-Bosogo,Akbosaga|Ak-Bosyaga|Ak-Bosogo,39.8000,73.2333,Kyrgyzstan,KG,KGZ,Osh,Osh,KG-O,province,,9.3,1841,1841,4,Asia/Bishkek,FALSE,1417452050
Kichi-Uryukty,Kichi-Uryukty,Orta-Uryukty|Kichi-Oryuktyu,42.7300,77.9300,Kyrgyzstan,KG,KGZ,Ysyk-Köl,Ysyk-Kol,KG-Y,province,,31.3,1818,1818,4,Asia/Bishkek,FALSE,1417967925
Chong-Karakol,Chong-Karakol,Chon-Karakol,39.8833,73.3250,Kyrgyzstan,KG,KGZ,Osh,Osh,KG-O,province,,9.3,1812,1812,4,Asia/Bishkek,FALSE,1417350366
Nayman,Nayman,Naiman,40.3167,72.3500,Kyrgyzstan,KG,KGZ,Osh,Osh,KG-O,province,,64.7,1811,1811,4,Asia/Bishkek,TRUE,1417008725
Ak-Jar,Ak-Jar,Ak-Dzhar,40.8000,73.4500,Kyrgyzstan,KG,KGZ,Osh,Osh,KG-O,province,,87.0,1810,1810,3,Asia/Bishkek,FALSE,1417697423
Besh-Bala,Besh-Bala,,41.0228,73.0806,Kyrgyzstan,KG,KGZ,Jalal-Abad,Jalal-Abad,KG-J,province,,96.6,1810,1810,3,Asia/Bishkek,FALSE,1417705532
Golbo,Golbo,,39.8118,69.6129,Kyrgyzstan,KG,KGZ,Batken,Batken,KG-B,province,,27.2,1810,1810,4,Asia/Bishkek,FALSE,1417158518
Lipenka,Lipenka,Lipenskoye|Lipenka,42.5222,78.2025,Kyrgyzstan,KG,KGZ,Ysyk-Köl,Ysyk-Kol,KG-Y,province,,6.4,1803,1803,4,Asia/Bishkek,FALSE,1417389900
Ysyk-Köl,Ysyk-Kol,Issyk-Kul’,42.6000,78.1472,Kyrgyzstan,KG,KGZ,Ysyk-Köl,Ysyk-Kol,KG-Y,province,,7.4,1803,1803,4,Asia/Bishkek,FALSE,1417047056
Korumdu,Korumdu,Korumdy,42.7828,78.5658,Kyrgyzstan,KG,KGZ,Ysyk-Köl,Ysyk-Kol,KG-Y,province,,31.3,1794,1794,3,Asia/Bishkek,FALSE,1417104515
Bulak-Bashy,Bulak-Bashy,Bulak-Bashi,39.9986,69.5764,Kyrgyzstan,KG,KGZ,Batken,Batken,KG-B,province,,27.2,1791,1791,4,Asia/Bishkek,TRUE,1417264906
Korgon-Döbö,Korgon-Dobo,Korgontyube,41.4833,72.1028,Kyrgyzstan,KG,KGZ,Jalal-Abad,Jalal-Abad,KG-J,province,,28.3,1785,1785,4,Asia/Bishkek,FALSE,1417721989
Karasu,Karasu,Oktyabr’,41.8583,72.9250,Kyrgyzstan,KG,KGZ,Jalal-Abad,Jalal-Abad,KG-J,province,,13.7,1770,1770,3,Asia/Bishkek,FALSE,1417881916
Kara-Shoro,Kara-Shoro,,40.3417,73.3861,Kyrgyzstan,KG,KGZ,Osh,Osh,KG-O,province,,9.3,1750,1750,3,Asia/Bishkek,FALSE,1417914191
Shaty,Shaty,,42.7839,78.3814,Kyrgyzstan,KG,KGZ,Ysyk-Köl,Ysyk-Kol,KG-Y,province,,31.3,1745,1745,3,Asia/Bishkek,FALSE,1417348131
Kara-Saz,Kara-Saz,Karasaz,42.1989,75.8861,Kyrgyzstan,KG,KGZ,Naryn,Naryn,KG-N,province,,9.9,1743,1743,4,Asia/Bishkek,FALSE,1417906955
Kamysh-Bashy,Kamysh-Bashy,,40.9361,72.9306,Kyrgyzstan,KG,KGZ,Jalal-Abad,Jalal-Abad,KG-J,province,,96.6,1736,1736,4,Asia/Bishkek,FALSE,1417226493
Cholpon,Cholpon,Cholpon|Cholpan,42.6300,78.4800,Kyrgyzstan,KG,KGZ,Ysyk-Köl,Ysyk-Kol,KG-Y,province,,7.4,1730,1730,4,Asia/Bishkek,FALSE,1417801655
Kyzyl-Oktyabr’,Kyzyl-Oktyabr',"Krasnyy Oktyabr’",42.7694,75.7325,Kyrgyzstan,KG,KGZ,Chüy,Chuy,KG-C,province,,12.0,1723,1723,4,Asia/Bishkek,FALSE,1417321243
"Birinchi May","Birinchi May",Pervomayskoye,42.9447,73.6383,Kyrgyzstan,KG,KGZ,Chüy,Chuy,KG-C,province,,7.5,1722,1722,4,Asia/Bishkek,TRUE,1417932310
Besh-Badam,Besh-Badam,,41.1417,72.8861,Kyrgyzstan,KG,KGZ,Jalal-Abad,Jalal-Abad,KG-J,province,,69.9,1720,1720,4,Asia/Bishkek,FALSE,1417182397
Kyzyl-Bayrak,Kyzyl-Bayrak,"Imeni Shvernika",40.5413,72.7145,Kyrgyzstan,KG,KGZ,Osh,Osh,KG-O,province,,140.4,1706,1706,3,Asia/Bishkek,FALSE,1417411554
Kyzyl-Tuu,Kyzyl-Tuu,Kyzyltu,42.1850,76.6730,Kyrgyzstan,KG,KGZ,Ysyk-Köl,Ysyk-Kol,KG-Y,province,,6.8,1703,1703,4,Asia/Bishkek,FALSE,1417505475
Tayan,Tayan,Taen|Tayan,39.9028,71.1083,Kyrgyzstan,KG,KGZ,Batken,Batken,KG-B,province,minor,11.5,1693,1693,3,Asia/Bishkek,FALSE,1417482248
Kyzyl-Abad,Kyzyl-Abad,Qizil-Obod,40.5750,72.9972,Kyrgyzstan,KG,KGZ,Osh,Osh,KG-O,province,,129.1,1673,1673,4,Asia/Bishkek,FALSE,1417660493
Tostu,Tostu,,41.5786,71.6672,Kyrgyzstan,KG,KGZ,Jalal-Abad,Jalal-Abad,KG-J,province,,28.3,1665,1665,4,Asia/Bishkek,FALSE,1417817861
Predtechenka,Predtechenka,,42.9525,74.0564,Kyrgyzstan,KG,KGZ,Chüy,Chuy,KG-C,province,,34.0,1665,1665,4,Asia/Bishkek,FALSE,1417034583
Epkin,Epkin,Akochok,42.1600,75.4100,Kyrgyzstan,KG,KGZ,Naryn,Naryn,KG-N,province,,9.9,1663,1663,4,Asia/Bishkek,FALSE,1417692976
Alabash,Alabash,,42.1100,76.4700,Kyrgyzstan,KG,KGZ,Ysyk-Köl,Ysyk-Kol,KG-Y,province,,6.8,1663,1663,4,Asia/Bishkek,FALSE,1417473709
Shalta,Shalta,,42.8386,74.3356,Kyrgyzstan,KG,KGZ,Chüy,Chuy,KG-C,province,,85.6,1638,1638,3,Asia/Bishkek,FALSE,1417357045
Chauvai,Chauvai,Chauvay|Chovvoy,40.1300,72.1300,Kyrgyzstan,KG,KGZ,Batken,Batken,KG-B,province,,511.6,1636,1636,3,Asia/Bishkek,FALSE,1417547486
Sarytologoy,Sarytologoy,,42.7239,78.7806,Kyrgyzstan,KG,KGZ,Ysyk-Köl,Ysyk-Kol,KG-Y,province,,31.3,1631,1631,4,Asia/Bishkek,FALSE,1417327781
Toktoyan,Toktoyan,,42.7000,78.6600,Kyrgyzstan,KG,KGZ,Ysyk-Köl,Ysyk-Kol,KG-Y,province,,31.3,1623,1623,3,Asia/Bishkek,FALSE,1417523683
Onbir-Dzhylga,Onbir-Dzhylga,Oy-Bir-Dzhilga,42.6944,75.4222,Kyrgyzstan,KG,KGZ,Chüy,Chuy,KG-C,province,,29.6,1609,1609,4,Asia/Bishkek,FALSE,1417272320
Dzhekendi,Dzhekendi,,39.5000,71.9000,Kyrgyzstan,KG,KGZ,Osh,Osh,KG-O,province,,5.7,1588,1588,4,Asia/Bishkek,FALSE,1417750685
Terek,Terek,Terek,40.0167,73.5500,Kyrgyzstan,KG,KGZ,Osh,Osh,KG-O,province,,9.3,1576,1576,4,Asia/Bishkek,TRUE,1417381692
Kaynar,Kaynar,Kaynar,42.5389,71.0833,Kyrgyzstan,KG,KGZ,Talas,Talas,KG-T,province,,17.4,1570,1570,4,Asia/Bishkek,FALSE,1417286110
Dodon,Dodon,Dodan,40.3167,72.2722,Kyrgyzstan,KG,KGZ,Osh,Osh,KG-O,province,,64.7,1559,1559,3,Asia/Bishkek,FALSE,1417440885
Kyzyl-Köl,Kyzyl-Kol,Abdukaly|Abdykalyk,41.7833,72.0500,Kyrgyzstan,KG,KGZ,Jalal-Abad,Jalal-Abad,KG-J,province,,28.3,1552,1552,4,Asia/Bishkek,FALSE,1417419605
Kyzyl-Eshme,Kyzyl-Eshme,,39.5600,72.2600,Kyrgyzstan,KG,KGZ,Osh,Osh,KG-O,province,,5.7,1532,1532,4,Asia/Bishkek,FALSE,1417516352
Dzhar-Kapchygay,Dzhar-Kapchygay,Dzhar-Kopchugay|Dzharkapchigay,41.6058,71.7931,Kyrgyzstan,KG,KGZ,Jalal-Abad,Jalal-Abad,KG-J,province,,28.3,1522,1522,4,Asia/Bishkek,FALSE,1417479104
Kyzart,Kyzart,Kyzart,42.0306,74.9833,Kyrgyzstan,KG,KGZ,Naryn,Naryn,KG-N,province,,6.7,1516,1516,4,Asia/Bishkek,FALSE,1417552543
Uluk,Uluk,,41.4100,71.8300,Kyrgyzstan,KG,KGZ,Jalal-Abad,Jalal-Abad,KG-J,province,,28.3,1503,1503,4,Asia/Bishkek,FALSE,1417005199
Sovet,Sovet,Sovetskiy|Kan|Sovetskii,40.1667,71.3111,Kyrgyzstan,KG,KGZ,Batken,Batken,KG-B,province,,25.0,1502,1502,4,Asia/Bishkek,FALSE,1417148172
Kara-Döbö,Kara-Dobo,Kara-Tyube|Kara-Dëbë,42.7850,75.4444,Kyrgyzstan,KG,KGZ,Chüy,Chuy,KG-C,province,,29.6,1495,1495,4,Asia/Bishkek,FALSE,1417001022
Ak-Tash,Ak-Tash,Tegirmensay|Tegermen-Sai|Ak-Tash|Tegermensay,41.7028,70.6472,Kyrgyzstan,KG,KGZ,Jalal-Abad,Jalal-Abad,KG-J,province,,4.3,1491,1491,4,Asia/Bishkek,FALSE,1417098429
Kolba,Kolba,,42.4500,72.4000,Kyrgyzstan,KG,KGZ,Talas,Talas,KG-T,province,,13.6,1490,1490,4,Asia/Bishkek,FALSE,1417301081
Boz-Karagan,Boz-Karagan,Boskorgon|Boz-Karagan,40.3333,73.3917,Kyrgyzstan,KG,KGZ,Osh,Osh,KG-O,province,,9.3,1477,1477,4,Asia/Bishkek,FALSE,1417435233
Mogol-Korgon,Mogol-Korgon,Mo‘g‘ol-Qo‘rg‘on,41.0389,72.7083,Kyrgyzstan,KG,KGZ,Jalal-Abad,Jalal-Abad,KG-J,province,,69.9,1469,1469,4,Asia/Bishkek,FALSE,1417176331
Aral,Aral,,41.9139,72.9028,Kyrgyzstan,KG,KGZ,Jalal-Abad,Jalal-Abad,KG-J,province,,13.7,1466,1466,4,Asia/Bishkek,TRUE,1417674333
Karool-Dëbë,Karool-Debe,,42.7319,76.1217,Kyrgyzstan,KG,KGZ,Chüy,Chuy,KG-C,province,,12.0,1452,1452,4,Asia/Bishkek,FALSE,1417563080
Bel-Aldy,Bel-Aldy,Bel’aldy|Bel’-Aldy,41.9100,73.2300,Kyrgyzstan,KG,KGZ,Jalal-Abad,Jalal-Abad,KG-J,province,,13.7,1448,1448,4,Asia/Bishkek,FALSE,1417126861
Chalk-Öydö,Chalk-Oydo,Chalk-Oydë|Chalkaydy|Chalkoydy|Chalkayudö|Chalkayudy,40.7300,73.6500,Kyrgyzstan,KG,KGZ,Osh,Osh,KG-O,province,,66.3,1445,1445,4,Asia/Bishkek,FALSE,1417276704
Alga,Alga,Alga|Dzhar|Jar,39.9668,69.3718,Kyrgyzstan,KG,KGZ,Batken,Batken,KG-B,province,,27.2,1439,1439,4,Asia/Bishkek,TRUE,1417544430
Tash-Bashat,Tash-Bashat,"Imeni Voroshilova|Tash-Bashat|Kolkhoz Imeni Lenina|Tashposhat",41.4664,76.3947,Kyrgyzstan,KG,KGZ,Naryn,Naryn,KG-N,province,,6.1,1439,1439,3,Asia/Bishkek,FALSE,1417842013
Kara-Teyit,Kara-Teyit,Kara-Teyit,39.5000,71.7500,Kyrgyzstan,KG,KGZ,Osh,Osh,KG-O,province,,5.7,1439,1439,3,Asia/Bishkek,FALSE,1417673773
Ming-Bulak,Ming-Bulak,Min-Bulak,41.4814,75.8539,Kyrgyzstan,KG,KGZ,Naryn,Naryn,KG-N,province,,6.1,1438,1438,4,Asia/Bishkek,FALSE,1417417448
Kongorchok,Kongorchok,Konorchok,41.2508,74.5997,Kyrgyzstan,KG,KGZ,Naryn,Naryn,KG-N,province,,4.9,1434,1434,3,Asia/Bishkek,FALSE,1417010942
Chong-Tash,Chong-Tash,Chongtash,42.7717,78.6219,Kyrgyzstan,KG,KGZ,Ysyk-Köl,Ysyk-Kol,KG-Y,province,,31.3,1412,1412,3,Asia/Bishkek,FALSE,1417193960
Örnök,Ornok,Ornok|Chetkoysu,42.5972,76.8639,Kyrgyzstan,KG,KGZ,Ysyk-Köl,Ysyk-Kol,KG-Y,province,,23.5,1410,1410,4,Asia/Bishkek,FALSE,1417022586
Madaniyat,Madaniyat,,42.4833,71.9167,Kyrgyzstan,KG,KGZ,Talas,Talas,KG-T,province,,16.3,1394,1394,4,Asia/Bishkek,FALSE,1417787407
Mantysh,Mantysh,Mantysh,42.2019,75.2447,Kyrgyzstan,KG,KGZ,Naryn,Naryn,KG-N,province,,9.9,1393,1393,4,Asia/Bishkek,FALSE,1417296756
Laglan,Laglan,Lyaglan|Lyaglyan|Laglan,40.2806,73.0972,Kyrgyzstan,KG,KGZ,Osh,Osh,KG-O,province,,129.1,1393,1393,4,Asia/Bishkek,FALSE,1417011863
Kesek,Kesek,Kisek|Kesak,40.4400,72.5800,Kyrgyzstan,KG,KGZ,Osh,Osh,KG-O,province,,64.7,1385,1385,4,Asia/Bishkek,FALSE,1417160591
Saylyk,Saylyk,,42.8092,75.3797,Kyrgyzstan,KG,KGZ,Chüy,Chuy,KG-C,province,,43.6,1384,1384,4,Asia/Bishkek,FALSE,1417416386
Arkyt,Arkyt,Arkit,41.8056,71.9583,Kyrgyzstan,KG,KGZ,Jalal-Abad,Jalal-Abad,KG-J,province,,28.3,1379,1379,4,Asia/Bishkek,FALSE,1417874283
Otuzul,Otuzul,,42.5500,78.4800,Kyrgyzstan,KG,KGZ,Ysyk-Köl,Ysyk-Kol,KG-Y,province,,7.4,1375,1375,4,Asia/Bishkek,FALSE,1417126685
Kyzyl-Suu,Kyzyl-Suu,Kyzyl-Suu,42.7103,75.4764,Kyrgyzstan,KG,KGZ,Chüy,Chuy,KG-C,province,,29.6,1371,1371,3,Asia/Bishkek,FALSE,1417462060
Temirkanat,Temirkanat,,42.0500,76.9100,Kyrgyzstan,KG,KGZ,Ysyk-Köl,Ysyk-Kol,KG-Y,province,,6.8,1361,1361,3,Asia/Bishkek,FALSE,1417171668
Ayuu-Talan,Ayuu-Talan,,40.3361,73.6667,Kyrgyzstan,KG,KGZ,Osh,Osh,KG-O,province,,9.3,1337,1337,3,Asia/Bishkek,FALSE,1417944891
Mykan,Mykan,Mekan|Mykach,42.9300,74.6500,Kyrgyzstan,KG,KGZ,Chüy,Chuy,KG-C,province,,93.7,1335,1335,4,Asia/Bishkek,FALSE,1417336357
Kayyng-Talaa,Kayyng-Talaa,Kaintala,40.3065,74.2705,Kyrgyzstan,KG,KGZ,Osh,Osh,KG-O,province,,16.4,1331,1331,3,Asia/Bishkek,FALSE,1417086228
Kara-Dzhygach,Kara-Dzhygach,Karadzhigach,40.4917,73.5306,Kyrgyzstan,KG,KGZ,Osh,Osh,KG-O,province,,16.4,1326,1326,4,Asia/Bishkek,TRUE,1417197193
Spartak,Spartak,Spartak,43.0333,74.1333,Kyrgyzstan,KG,KGZ,Chüy,Chuy,KG-C,province,,59.7,1321,1321,3,Asia/Bishkek,FALSE,1417440417
Kyzyl-Ordo,Kyzyl-Ordo,Qizil-O‘rda,40.5417,73.0500,Kyrgyzstan,KG,KGZ,Osh,Osh,KG-O,province,,129.1,1315,1315,4,Asia/Bishkek,FALSE,1417873794
Kyzyl-Alay,Kyzyl-Alay,Chagyr,39.8600,73.2800,Kyrgyzstan,KG,KGZ,Osh,Osh,KG-O,province,,9.3,1310,1310,3,Asia/Bishkek,FALSE,1417886246
Toluk,Toluk,Toluk,41.9007,73.5751,Kyrgyzstan,KG,KGZ,Jalal-Abad,Jalal-Abad,KG-J,province,,13.7,1304,1304,4,Asia/Bishkek,FALSE,1417154507
Bogatyrovka,Bogatyrovka,Bogatyrevka|Bogatörovka,42.5278,78.1481,Kyrgyzstan,KG,KGZ,Ysyk-Köl,Ysyk-Kol,KG-Y,province,,6.4,1303,1303,4,Asia/Bishkek,FALSE,1417071449
Itagar,Itagar,,41.6319,71.8736,Kyrgyzstan,KG,KGZ,Jalal-Abad,Jalal-Abad,KG-J,province,,28.3,1301,1301,4,Asia/Bishkek,FALSE,1417265395
Ortok,Ortok,Ak-Kuduk,42.2000,75.3600,Kyrgyzstan,KG,KGZ,Naryn,Naryn,KG-N,province,,9.9,1297,1297,4,Asia/Bishkek,FALSE,1417912029
Almalu,Almalu,,41.9300,73.5100,Kyrgyzstan,KG,KGZ,Jalal-Abad,Jalal-Abad,KG-J,province,,13.7,1295,1295,4,Asia/Bishkek,FALSE,1417737089
Stavropolovka,Stavropolovka,Stavropol’skaya|Stavropol’ka|Stavropolovka,43.0139,73.8556,Kyrgyzstan,KG,KGZ,Chüy,Chuy,KG-C,province,,8.4,1285,1285,4,Asia/Bishkek,FALSE,1417795268
Mundus,Mundus,Manduz|Munduz,41.4500,71.9500,Kyrgyzstan,KG,KGZ,Jalal-Abad,Jalal-Abad,KG-J,province,,28.3,1285,1285,3,Asia/Bishkek,FALSE,1417323125
Beysheke,Beysheke,,42.8158,75.8153,Kyrgyzstan,KG,KGZ,Chüy,Chuy,KG-C,province,,12.0,1268,1268,4,Asia/Bishkek,FALSE,1417095324
Bozuchuk,Bozuchuk,,42.5653,78.7561,Kyrgyzstan,KG,KGZ,Ysyk-Köl,Ysyk-Kol,KG-Y,province,,7.4,1265,1265,4,Asia/Bishkek,FALSE,1417000001
Oytal,Oytal,Alekseyevka|Uytal|Alekseyvka,42.7500,78.0000,Kyrgyzstan,KG,KGZ,Ysyk-Köl,Ysyk-Kol,KG-Y,province,,31.3,1264,1264,4,Asia/Bishkek,FALSE,1417013198
"Birinchi May","Birinchi May","Pervomayskoye|Pervoye Maya",41.1700,76.0500,Kyrgyzstan,KG,KGZ,Naryn,Naryn,KG-N,province,,2.7,1262,1262,3,Asia/Bishkek,FALSE,1417310397
Terek,Terek,Terek,40.3600,74.2000,Kyrgyzstan,KG,KGZ,Osh,Osh,KG-O,province,,16.4,1261,1261,4,Asia/Bishkek,FALSE,1417015851
Bek-Dzhar,Bek-Dzhar,,40.3583,73.1417,Kyrgyzstan,KG,KGZ,Osh,Osh,KG-O,province,,129.1,1259,1259,4,Asia/Bishkek,FALSE,1417446487
Dzhalgyzterek,Dzhalgyzterek,,41.4600,75.7800,Kyrgyzstan,KG,KGZ,Naryn,Naryn,KG-N,province,,6.1,1245,1245,4,Asia/Bishkek,FALSE,1417497079
Ulan-Bulak,Ulan-Bulak,Ulan-Buloq,41.5500,71.6833,Kyrgyzstan,KG,KGZ,Jalal-Abad,Jalal-Abad,KG-J,province,,24.7,1241,1241,4,Asia/Bishkek,FALSE,1417418402
Dolon,Dolon,Dolono|Doloko,42.7000,78.4500,Kyrgyzstan,KG,KGZ,Ysyk-Köl,Ysyk-Kol,KG-Y,province,,31.3,1220,1220,4,Asia/Bishkek,FALSE,1417118720
Özgörüsh,Ozgorush,Ozgeryush,39.8175,70.0419,Kyrgyzstan,KG,KGZ,Batken,Batken,KG-B,province,,27.2,1209,1209,3,Asia/Bishkek,FALSE,1417292166
Jangy-Turmush,Jangy-Turmush,Dzhany-Turmush,40.3333,73.5722,Kyrgyzstan,KG,KGZ,Osh,Osh,KG-O,province,,9.3,1208,1208,4,Asia/Bishkek,FALSE,1417628181
Sary-Bee,Sary-Bee,Sary-Bee,40.5561,73.8883,Kyrgyzstan,KG,KGZ,Osh,Osh,KG-O,province,,16.4,1206,1206,4,Asia/Bishkek,FALSE,1417283293
"Imeni Vserossiyskoy Chrezvychaynoy Komissii","Imeni Vserossiyskoy Chrezvychaynoy Komissii","Imeni Vecheki",42.7300,78.4100,Kyrgyzstan,KG,KGZ,Ysyk-Köl,Ysyk-Kol,KG-Y,province,,31.3,1195,1195,3,Asia/Bishkek,FALSE,1417754344
Kosh-Dëbë,Kosh-Debe,,40.2433,72.2931,Kyrgyzstan,KG,KGZ,Osh,Osh,KG-O,province,,64.7,1192,1192,4,Asia/Bishkek,FALSE,1417323045
Kyz-Kël’,Kyz-Kel',,41.1250,73.0917,Kyrgyzstan,KG,KGZ,Jalal-Abad,Jalal-Abad,KG-J,province,,96.6,1190,1190,4,Asia/Bishkek,FALSE,1417658569
Chontoguzbay,Chontoguzbay,Voroshilovka|Toguzbay,42.7167,78.6167,Kyrgyzstan,KG,KGZ,Ysyk-Köl,Ysyk-Kol,KG-Y,province,,31.3,1188,1188,4,Asia/Bishkek,FALSE,1417421104
Ak-Bulak,Ak-Bulak,,42.7972,78.2361,Kyrgyzstan,KG,KGZ,Ysyk-Köl,Ysyk-Kol,KG-Y,province,,674.9,1184,1184,3,Asia/Bishkek,FALSE,1417704247
Chek,Chek,,40.9194,72.5861,Kyrgyzstan,KG,KGZ,Jalal-Abad,Jalal-Abad,KG-J,province,,69.9,1178,1178,4,Asia/Bishkek,TRUE,1417040375
Köngdük,Kongduk,Konduk,40.4611,74.1167,Kyrgyzstan,KG,KGZ,Osh,Osh,KG-O,province,,16.4,1177,1177,4,Asia/Bishkek,FALSE,1417371386
Sadda,Sadda,,40.9347,72.9111,Kyrgyzstan,KG,KGZ,Jalal-Abad,Jalal-Abad,KG-J,province,,96.6,1166,1166,3,Asia/Bishkek,FALSE,1417565903
Sovetskoye,Sovetskoye,"Zimovka Iskandera",42.7397,75.8986,Kyrgyzstan,KG,KGZ,Chüy,Chuy,KG-C,province,,12.0,1146,1146,3,Asia/Bishkek,FALSE,1417602748
Ak-Terek,Ak-Terek,Ak-Terek,40.8667,73.6806,Kyrgyzstan,KG,KGZ,Osh,Osh,KG-O,province,,87.0,1133,1133,3,Asia/Bishkek,FALSE,1417016060
Ak-Dzhar,Ak-Dzhar,,41.6139,73.3722,Kyrgyzstan,KG,KGZ,Jalal-Abad,Jalal-Abad,KG-J,province,,13.7,1109,1109,4,Asia/Bishkek,FALSE,1417702851
Nura,Nura,Nura,39.6300,73.8600,Kyrgyzstan,KG,KGZ,Osh,Osh,KG-O,province,,9.3,1101,1101,3,Asia/Bishkek,FALSE,1417611110
Buguchu,Buguchu,,42.2128,75.5242,Kyrgyzstan,KG,KGZ,Naryn,Naryn,KG-N,province,,9.9,1097,1097,4,Asia/Bishkek,FALSE,1417742278
Baykashka-Terek,Baykashka-Terek,"Bay-Kashka Terek",41.6631,71.9394,Kyrgyzstan,KG,KGZ,Jalal-Abad,Jalal-Abad,KG-J,province,,28.3,1096,1096,3,Asia/Bishkek,FALSE,1417471691
Dzhyl-Kol,Dzhyl-Kol,Jil-Ko‘l,41.1756,72.0864,Kyrgyzstan,KG,KGZ,Jalal-Abad,Jalal-Abad,KG-J,province,,28.3,1094,1094,4,Asia/Bishkek,FALSE,1417784542
Kara-Bulak,Kara-Bulak,,42.7989,75.7489,Kyrgyzstan,KG,KGZ,Chüy,Chuy,KG-C,province,,12.0,1087,1087,4,Asia/Bishkek,FALSE,1417676225
Dzhany-Dzhol,Dzhany-Dzhol,Churbek,39.9800,69.9000,Kyrgyzstan,KG,KGZ,Batken,Batken,KG-B,province,,27.2,1085,1085,4,Asia/Bishkek,FALSE,1417455427
Chaldybar,Chaldybar,Chaldövar|Chaldyrar|Chaldavar|Chaldyvar,41.7167,72.0500,Kyrgyzstan,KG,KGZ,Jalal-Abad,Jalal-Abad,KG-J,province,,28.3,1082,1082,4,Asia/Bishkek,FALSE,1417086951
Oktyabr,Oktyabr,Kyzyl-Oktyabr’,40.2611,73.5833,Kyrgyzstan,KG,KGZ,Osh,Osh,KG-O,province,,9.3,1080,1080,4,Asia/Bishkek,FALSE,1417969933
Kosh-Eter,Kosh-Eter,,40.8806,73.7111,Kyrgyzstan,KG,KGZ,Osh,Osh,KG-O,province,,87.0,1074,1074,4,Asia/Bishkek,FALSE,1417878048
Buyga,Buyga,,40.4778,73.7611,Kyrgyzstan,KG,KGZ,Osh,Osh,KG-O,province,,16.4,1074,1074,3,Asia/Bishkek,FALSE,1417816126
Shibee,Shibee,,39.4597,71.9192,Kyrgyzstan,KG,KGZ,Osh,Osh,KG-O,province,,5.7,1073,1073,3,Asia/Bishkek,FALSE,1417664773
Kyzyl-Korgon,Kyzyl-Korgon,Qizil-Qo‘rg‘on,40.4083,72.5833,Kyrgyzstan,KG,KGZ,Osh,Osh,KG-O,province,,64.7,1072,1072,4,Asia/Bishkek,FALSE,1417266489
Ak-Bashat,Ak-Bashat,,42.8842,73.9136,Kyrgyzstan,KG,KGZ,Chüy,Chuy,KG-C,province,,34.0,1061,1061,4,Asia/Bishkek,TRUE,1417454210
Döng-Talaa,Dong-Talaa,Dën-Talaa|Dëngtala|Don-Tala,42.1200,76.5800,Kyrgyzstan,KG,KGZ,Ysyk-Köl,Ysyk-Kol,KG-Y,province,,6.8,1055,1055,4,Asia/Bishkek,FALSE,1417290822
Kurbu,Kurbu,,42.6300,78.4300,Kyrgyzstan,KG,KGZ,Ysyk-Köl,Ysyk-Kol,KG-Y,province,,7.4,1046,1046,4,Asia/Bishkek,FALSE,1417283259
Ara-Kël’,Ara-Kel',,40.8861,73.7694,Kyrgyzstan,KG,KGZ,Osh,Osh,KG-O,province,,87.0,1044,1044,4,Asia/Bishkek,FALSE,1417733883
Jyrgalang,Jyrgalang,Dzhargalan|Dzhirgala|Dzhirgalan|Dzhergalan,42.6000,79.0300,Kyrgyzstan,KG,KGZ,Ysyk-Köl,Ysyk-Kol,KG-Y,province,,10.3,1033,1033,4,Asia/Bishkek,FALSE,1417138494
Kayyrma,Kayyrma,,42.6931,75.3967,Kyrgyzstan,KG,KGZ,Chüy,Chuy,KG-C,province,,29.6,1033,1033,4,Asia/Bishkek,TRUE,1417150636
Guzar,Guzar,,40.6694,73.1611,Kyrgyzstan,KG,KGZ,Osh,Osh,KG-O,province,,87.0,1030,1030,4,Asia/Bishkek,TRUE,1417771996
Toguz-Bulak,Toguz-Bulak,Toguz-Bulak,39.8667,69.7500,Kyrgyzstan,KG,KGZ,Batken,Batken,KG-B,province,minor,27.2,1028,1028,3,Asia/Bishkek,FALSE,1417285990
Tepke,Tepke,,42.6000,78.4100,Kyrgyzstan,KG,KGZ,Ysyk-Köl,Ysyk-Kol,KG-Y,province,,7.4,1028,1028,4,Asia/Bishkek,FALSE,1417769532
Syn-Tash,Syn-Tash,,42.7031,75.0600,Kyrgyzstan,KG,KGZ,Chüy,Chuy,KG-C,province,,79.0,1023,1023,4,Asia/Bishkek,FALSE,1417422670
"Kök-Moynok Eki","Kok-Moynok Eki","Kok-Moynok|Këk-Moynok Pervoye|Sovkhoz Këk-Maynak|Kok-Maynak|Kokmoynak|Sovkhoz Këk-Moynak",42.4578,76.0506,Kyrgyzstan,KG,KGZ,Ysyk-Köl,Ysyk-Kol,KG-Y,province,,6.8,1015,1015,4,Asia/Bishkek,FALSE,1417990462
Samansur,Samansur,,42.7800,75.5100,Kyrgyzstan,KG,KGZ,Chüy,Chuy,KG-C,province,,29.6,1015,1015,4,Asia/Bishkek,FALSE,1417013470
Kashkelen,Kashkelen,,42.7939,75.6744,Kyrgyzstan,KG,KGZ,Chüy,Chuy,KG-C,province,,12.0,1015,1015,4,Asia/Bishkek,FALSE,1417171165
Ak-Beket,Ak-Beket,,42.8056,75.6361,Kyrgyzstan,KG,KGZ,Chüy,Chuy,KG-C,province,,12.0,1013,1013,4,Asia/Bishkek,FALSE,1417877471
Shamshy,Shamshy,Shamsi,42.7000,75.3639,Kyrgyzstan,KG,KGZ,Chüy,Chuy,KG-C,province,,29.6,1010,1010,4,Asia/Bishkek,FALSE,1417388995
Sarban,Sarban,,42.7625,74.4883,Kyrgyzstan,KG,KGZ,Chüy,Chuy,KG-C,province,,85.6,1010,1010,4,Asia/Bishkek,FALSE,1417328928
Pum,Pum,,40.0722,72.1000,Kyrgyzstan,KG,KGZ,Batken,Batken,KG-B,province,,25.0,1009,1009,4,Asia/Bishkek,FALSE,1417141221
Kyzyl-Bayrak,Kyzyl-Bayrak,,40.8800,73.7364,Kyrgyzstan,KG,KGZ,Osh,Osh,KG-O,province,,87.0,1008,1008,4,Asia/Bishkek,TRUE,1417207730
Bashky-Terek,Bashky-Terek,Ortoterek|Yangi-Bazar,41.9300,71.3500,Kyrgyzstan,KG,KGZ,Jalal-Abad,Jalal-Abad,KG-J,province,,4.3,1000,1000,4,Asia/Bishkek,FALSE,1417090297
Syny,Syny,Syny,41.6167,72.0500,Kyrgyzstan,KG,KGZ,Jalal-Abad,Jalal-Abad,KG-J,province,,28.3,993,993,4,Asia/Bishkek,FALSE,1417604563
Gidrostroitel,Gidrostroitel,,42.8786,75.1472,Kyrgyzstan,KG,KGZ,Chüy,Chuy,KG-C,province,,17.7,988,988,4,Asia/Bishkek,FALSE,1417617838
Alga,Alga,,42.7664,75.3150,Kyrgyzstan,KG,KGZ,Chüy,Chuy,KG-C,province,,29.6,979,979,4,Asia/Bishkek,FALSE,1417047487
Semet,Semet,Kosh-Dëbë|Semet,41.3958,71.8686,Kyrgyzstan,KG,KGZ,Jalal-Abad,Jalal-Abad,KG-J,province,,28.3,971,971,4,Asia/Bishkek,FALSE,1417697883
Rot-Front,Rot-Front,,42.7222,75.1056,Kyrgyzstan,KG,KGZ,Chüy,Chuy,KG-C,province,,79.0,968,968,4,Asia/Bishkek,FALSE,1417356349
Ak-Bulak,Ak-Bulak,,39.8015,69.5277,Kyrgyzstan,KG,KGZ,Batken,Batken,KG-B,province,,27.2,952,952,4,Asia/Bishkek,TRUE,1417006783
Ak-Say,Ak-Say,,42.7461,75.0594,Kyrgyzstan,KG,KGZ,Chüy,Chuy,KG-C,province,,79.0,950,950,4,Asia/Bishkek,FALSE,1417881360
Barbulak,Barbulak,Akterek,42.2450,76.5806,Kyrgyzstan,KG,KGZ,Ysyk-Köl,Ysyk-Kol,KG-Y,province,,6.8,948,948,3,Asia/Bishkek,FALSE,1417477378
Kashka-Suu,Kashka-Suu,Kaska-Suu,41.5806,71.6756,Kyrgyzstan,KG,KGZ,Jalal-Abad,Jalal-Abad,KG-J,province,,28.3,938,938,4,Asia/Bishkek,TRUE,1417500691
Dzhar-Kyshlak,Dzhar-Kyshlak,Jar-Qishloq,40.5139,72.3889,Kyrgyzstan,KG,KGZ,Osh,Osh,KG-O,province,,747.6,938,938,3,Asia/Bishkek,FALSE,1417669895
Kichi-Bülölü,Kichi-Bulolu,Kichibulolu|Kichikbleuli|Kichi-Byulëlyu,40.1800,73.6000,Kyrgyzstan,KG,KGZ,Osh,Osh,KG-O,province,,9.3,920,920,4,Asia/Bishkek,FALSE,1417576684
Kara-Koktu,Kara-Koktu,"Qora Ko‘ktu",40.3500,72.6100,Kyrgyzstan,KG,KGZ,Osh,Osh,KG-O,province,,64.7,916,916,4,Asia/Bishkek,FALSE,1417313158
Zar-Tash,Zar-Tash,"Zar Tosh",40.2500,71.0200,Kyrgyzstan,KG,KGZ,Batken,Batken,KG-B,province,,11.5,915,915,4,Asia/Bishkek,FALSE,1417877110
Teeke,Teeke,,40.2639,73.1694,Kyrgyzstan,KG,KGZ,Osh,Osh,KG-O,province,,129.1,903,903,4,Asia/Bishkek,TRUE,1417750158
Kyzyl-Aryk,Kyzyl-Aryk,,42.7000,75.0667,Kyrgyzstan,KG,KGZ,Chüy,Chuy,KG-C,province,,79.0,903,903,4,Asia/Bishkek,FALSE,1417534042
Myrza-Patcha,Myrza-Patcha,Mirza-Patcha,39.9198,69.5013,Kyrgyzstan,KG,KGZ,Batken,Batken,KG-B,province,,447.2,901,901,3,Asia/Bishkek,FALSE,1417893075
Korgon-Say,Korgon-Say,Kurgan-Say|Chanach,41.8556,71.2194,Kyrgyzstan,KG,KGZ,Jalal-Abad,Jalal-Abad,KG-J,province,,4.3,875,875,4,Asia/Bishkek,FALSE,1417548029
Torgamysh,Torgamysh,,41.6164,72.0858,Kyrgyzstan,KG,KGZ,Jalal-Abad,Jalal-Abad,KG-J,province,,28.3,875,875,4,Asia/Bishkek,FALSE,1417825262
Turasu,Turasu,"Tuura-Suu|Tarasu|Ferma Turasu",42.1300,76.3300,Kyrgyzstan,KG,KGZ,Ysyk-Köl,Ysyk-Kol,KG-Y,province,,6.8,868,868,4,Asia/Bishkek,FALSE,1417672315
Kanduva,Kanduva,Kandava|Konduva|Kanduga,40.7028,73.5361,Kyrgyzstan,KG,KGZ,Osh,Osh,KG-O,province,,87.0,861,861,4,Asia/Bishkek,FALSE,1417171915
Ak-Kuduk,Ak-Kuduk,,42.9700,74.8722,Kyrgyzstan,KG,KGZ,Chüy,Chuy,KG-C,province,,79.0,861,861,4,Asia/Bishkek,FALSE,1417593411
Karagaybulak,Karagaybulak,,42.6444,74.9500,Kyrgyzstan,KG,KGZ,Chüy,Chuy,KG-C,province,,79.0,857,857,4,Asia/Bishkek,FALSE,1417723131
Murake,Murake,Murakinskoye,42.7511,74.0183,Kyrgyzstan,KG,KGZ,Chüy,Chuy,KG-C,province,,34.0,851,851,4,Asia/Bishkek,FALSE,1417953108
Kechu,Kechu,,41.5761,72.2656,Kyrgyzstan,KG,KGZ,Jalal-Abad,Jalal-Abad,KG-J,province,,28.3,848,848,4,Asia/Bishkek,FALSE,1417810503
Arpa-Tektir,Arpa-Tektir,Arpatektor,42.6289,75.1633,Kyrgyzstan,KG,KGZ,Chüy,Chuy,KG-C,province,,79.0,843,843,4,Asia/Bishkek,FALSE,1417583043
Nel’dy,Nel'dy,,42.6231,72.0811,Kyrgyzstan,KG,KGZ,Talas,Talas,KG-T,province,,43.7,840,840,4,Asia/Bishkek,FALSE,1417702164
Oryuktyu-Khutor,Oryuktyu-Khutor,"Otdeleniye Chetvërtoye Sovkhoza Yryukty",42.7386,77.8203,Kyrgyzstan,KG,KGZ,Ysyk-Köl,Ysyk-Kol,KG-Y,province,,23.5,834,834,4,Asia/Bishkek,FALSE,1417522534
Noot,Noot,,41.8994,73.5958,Kyrgyzstan,KG,KGZ,Jalal-Abad,Jalal-Abad,KG-J,province,,13.7,832,832,4,Asia/Bishkek,FALSE,1417749156
Ak-Tala,Ak-Tala,Karasu,42.1806,75.3250,Kyrgyzstan,KG,KGZ,Naryn,Naryn,KG-N,province,,9.9,832,832,4,Asia/Bishkek,FALSE,1417338323
Ak-Tüz,Ak-Tuz,Ak-Tyuz,42.8794,76.1342,Kyrgyzstan,KG,KGZ,Chüy,Chuy,KG-C,province,,12.0,827,827,4,Asia/Bishkek,FALSE,1417278335
Maymak,Maymak,Maymak,42.6806,71.2139,Kyrgyzstan,KG,KGZ,Talas,Talas,KG-T,province,,17.4,827,827,4,Asia/Bishkek,FALSE,1417380711
Tegerek-Saz,Tegerek-Saz,Tegerek,40.4300,73.6300,Kyrgyzstan,KG,KGZ,Osh,Osh,KG-O,province,,10.5,821,821,3,Asia/Bishkek,FALSE,1417372415
"Ming Bulak","Ming Bulak",Minbulak,42.7272,78.5142,Kyrgyzstan,KG,KGZ,Ysyk-Köl,Ysyk-Kol,KG-Y,province,,31.3,820,820,4,Asia/Bishkek,FALSE,1417394524
Kum-Shoro,Kum-Shoro,Kum-Shoro,40.3000,73.5500,Kyrgyzstan,KG,KGZ,Osh,Osh,KG-O,province,,9.3,819,819,3,Asia/Bishkek,FALSE,1417443747
Dostuk,Dostuk,Dostuk,41.3764,75.6400,Kyrgyzstan,KG,KGZ,Naryn,Naryn,KG-N,province,,6.1,815,815,4,Asia/Bishkek,FALSE,1417344800
Almaluu,Almaluu,Almalu,42.7222,75.5122,Kyrgyzstan,KG,KGZ,Chüy,Chuy,KG-C,province,,12.9,810,810,4,Asia/Bishkek,TRUE,1417042752
Kyzyl-Dzhyldyz,Kyzyl-Dzhyldyz,,41.0278,72.5208,Kyrgyzstan,KG,KGZ,Jalal-Abad,Jalal-Abad,KG-J,province,,65.5,802,802,4,Asia/Bishkek,FALSE,1417251277
Rovnoye,Rovnoye,,42.8942,73.5286,Kyrgyzstan,KG,KGZ,Chüy,Chuy,KG-C,province,,7.5,801,801,4,Asia/Bishkek,FALSE,1417827005
Askaly,Askaly,,40.0800,73.5800,Kyrgyzstan,KG,KGZ,Osh,Osh,KG-O,province,,9.3,797,797,4,Asia/Bishkek,FALSE,1417857892
Kara-Kabak,Kara-Kabak,Kara-Kavak|Kara-Kabak|Kyzyl-Don,39.6667,72.7167,Kyrgyzstan,KG,KGZ,Osh,Osh,KG-O,province,,5.7,795,795,4,Asia/Bishkek,FALSE,1417192161
Kara-Tash,Kara-Tash,Karatash,40.5489,73.9753,Kyrgyzstan,KG,KGZ,Osh,Osh,KG-O,province,,16.4,782,782,4,Asia/Bishkek,TRUE,1417105212
Toguz-Bulak,Toguz-Bulak,,40.4600,73.6300,Kyrgyzstan,KG,KGZ,Osh,Osh,KG-O,province,,16.4,776,776,4,Asia/Bishkek,TRUE,1417949372
Kalmak-Ashuu,Kalmak-Ashuu,,42.7222,76.0856,Kyrgyzstan,KG,KGZ,Chüy,Chuy,KG-C,province,,12.0,773,773,4,Asia/Bishkek,FALSE,1417334318
Burana,Burana,,42.7500,75.2694,Kyrgyzstan,KG,KGZ,Chüy,Chuy,KG-C,province,,29.6,772,772,4,Asia/Bishkek,FALSE,1417835137
Kengesh,Kengesh,Kenesh,40.6333,73.4278,Kyrgyzstan,KG,KGZ,Osh,Osh,KG-O,province,,16.4,763,763,3,Asia/Bishkek,FALSE,1417318728
Taldy-Bulak,Taldy-Bulak,,42.7119,75.2816,Kyrgyzstan,KG,KGZ,Chüy,Chuy,KG-C,province,,29.6,758,758,4,Asia/Bishkek,FALSE,1417194129
Munduz,Munduz,,42.4436,78.1414,Kyrgyzstan,KG,KGZ,Ysyk-Köl,Ysyk-Kol,KG-Y,province,,6.4,752,752,4,Asia/Bishkek,FALSE,1417360480
Sary-Bulak,Sary-Bulak,Sary-Bulak,40.4861,73.6306,Kyrgyzstan,KG,KGZ,Osh,Osh,KG-O,province,,16.4,739,739,3,Asia/Bishkek,FALSE,1417712710
Kyzyl-Jar,Kyzyl-Jar,Kyzyldzhar,40.3208,74.2408,Kyrgyzstan,KG,KGZ,Osh,Osh,KG-O,province,,16.4,732,732,4,Asia/Bishkek,FALSE,1417049047
Aydarbek,Aydarbek,,42.9103,73.9158,Kyrgyzstan,KG,KGZ,Chüy,Chuy,KG-C,province,,34.0,731,731,4,Asia/Bishkek,FALSE,1417517801
Ak-Kuduk,Ak-Kuduk,,41.4000,75.4000,Kyrgyzstan,KG,KGZ,Naryn,Naryn,KG-N,province,,6.1,718,718,3,Asia/Bishkek,FALSE,1417893040
Jergetal,Jergetal,Dzhergetal|Dzhirgital,39.9778,73.4861,Kyrgyzstan,KG,KGZ,Osh,Osh,KG-O,province,,9.3,712,712,4,Asia/Bishkek,FALSE,1417438784
Kara-Bulak,Kara-Bulak,,40.4300,73.6000,Kyrgyzstan,KG,KGZ,Osh,Osh,KG-O,province,,9.3,710,710,4,Asia/Bishkek,TRUE,1417804767
Tash-Bulak,Tash-Bulak,,41.1600,72.9300,Kyrgyzstan,KG,KGZ,Jalal-Abad,Jalal-Abad,KG-J,province,,87.8,707,707,3,Asia/Bishkek,TRUE,1417969365
Chon-Tash,Chon-Tash,,42.7496,74.6017,Kyrgyzstan,KG,KGZ,Chüy,Chuy,KG-C,province,,93.7,704,704,3,Asia/Bishkek,FALSE,1417045353
Tar-Suu,Tar-Suu,Tarsu,42.7000,76.0500,Kyrgyzstan,KG,KGZ,Chüy,Chuy,KG-C,province,,12.0,698,698,4,Asia/Bishkek,FALSE,1417618752
Ak-Turpak,Ak-Turpak,Oq-Turpoq,40.1889,71.0528,Kyrgyzstan,KG,KGZ,Batken,Batken,KG-B,province,,22.8,684,684,4,Asia/Bishkek,FALSE,1417931823
Madaniyat,Madaniyat,,42.7075,75.4486,Kyrgyzstan,KG,KGZ,Chüy,Chuy,KG-C,province,,29.6,667,667,3,Asia/Bishkek,FALSE,1417478380
Kan,Kan,,39.7611,71.0222,Kyrgyzstan,KG,KGZ,Batken,Batken,KG-B,province,,11.5,661,661,4,Asia/Bishkek,FALSE,1417889231
Besh-Dzhygach,Besh-Dzhygach,Besh-Jig‘ach|Bish-Agach,41.0361,72.6222,Kyrgyzstan,KG,KGZ,Jalal-Abad,Jalal-Abad,KG-J,province,,65.5,659,659,4,Asia/Bishkek,FALSE,1417159273
Podgornoye,Podgornoye,,42.7283,74.6706,Kyrgyzstan,KG,KGZ,Chüy,Chuy,KG-C,province,,93.7,638,638,4,Asia/Bishkek,FALSE,1417559354
"Këk-Moynok Vtoroye","Kek-Moynok Vtoroye","Kokmoynok|Kök-Moynok Eki|Ovtsevodcheskaya Tovarnaya Ferma Vtoroye Sovkhoza Kok-Moynak",42.4836,75.8564,Kyrgyzstan,KG,KGZ,Ysyk-Köl,Ysyk-Kol,KG-Y,province,,6.8,633,633,3,Asia/Bishkek,FALSE,1417156209
Shoro,Shoro,Shoro,41.4800,75.4800,Kyrgyzstan,KG,KGZ,Naryn,Naryn,KG-N,province,,6.1,618,618,4,Asia/Bishkek,FALSE,1417006605
Kosh-Köl,Kosh-Kol,Koshkul’|Koshkol’|Kosh-Kël’,42.5300,76.6100,Kyrgyzstan,KG,KGZ,Ysyk-Köl,Ysyk-Kol,KG-Y,province,,23.5,610,610,4,Asia/Bishkek,FALSE,1417473495
Kara-Oy,Kara-Oy,,40.1583,72.6500,Kyrgyzstan,KG,KGZ,Osh,Osh,KG-O,province,,64.7,602,602,3,Asia/Bishkek,FALSE,1417272665
Karool,Karool,,40.0333,72.0833,Kyrgyzstan,KG,KGZ,Batken,Batken,KG-B,province,,25.0,583,583,3,Asia/Bishkek,FALSE,1417036003
Denuz-Too,Denuz-Too,Donguztau|Donguztou,40.8639,73.5583,Kyrgyzstan,KG,KGZ,Osh,Osh,KG-O,province,,87.0,570,570,4,Asia/Bishkek,FALSE,1417671599
Sasyk-Bulak,Sasyk-Bulak,,40.7083,73.6139,Kyrgyzstan,KG,KGZ,Osh,Osh,KG-O,province,,23.2,565,565,4,Asia/Bishkek,FALSE,1417296423
Dzhany-Chek,Dzhany-Chek,Dzhenychek,42.8139,75.3528,Kyrgyzstan,KG,KGZ,Chüy,Chuy,KG-C,province,,711.4,557,557,3,Asia/Bishkek,FALSE,1417912405
Ak-Terek,Ak-Terek,Oq-Terek,40.4100,72.7700,Kyrgyzstan,KG,KGZ,Osh,Osh,KG-O,province,,64.7,550,550,4,Asia/Bishkek,TRUE,1417007130
Kara-Dëbë,Kara-Debe,Qora-Dyobyoe|Qora-Dyobe,41.5056,71.6306,Kyrgyzstan,KG,KGZ,Jalal-Abad,Jalal-Abad,KG-J,province,,268.2,541,541,3,Asia/Bishkek,FALSE,1417244390
Kyzyl-Asker,Kyzyl-Asker,,42.7417,75.3306,Kyrgyzstan,KG,KGZ,Chüy,Chuy,KG-C,province,,29.6,536,536,4,Asia/Bishkek,FALSE,1417927512
Achy,Achy,,40.9139,73.2028,Kyrgyzstan,KG,KGZ,Jalal-Abad,Jalal-Abad,KG-J,province,,96.6,520,520,3,Asia/Bishkek,FALSE,1417300044
Tabylgyty,Tabylgyty,Tabylgaty,41.7222,74.2056,Kyrgyzstan,KG,KGZ,Naryn,Naryn,KG-N,province,,6.7,517,517,3,Asia/Bishkek,FALSE,1417169059
Kosh-Bulak,Kosh-Bulak,Koshbulak,41.4667,74.3972,Kyrgyzstan,KG,KGZ,Jalal-Abad,Jalal-Abad,KG-J,province,,5.5,517,517,4,Asia/Bishkek,FALSE,1417436194
Kyzyl-Ünkür,Kyzyl-Unkur,Kyzylungungir|Kyzyl-Unkyur,41.3600,73.0600,Kyrgyzstan,KG,KGZ,Jalal-Abad,Jalal-Abad,KG-J,province,,69.9,500,500,4,Asia/Bishkek,FALSE,1417045572
Orto-Tokoy,Orto-Tokoy,Orto-Tokay,42.3400,76.0200,Kyrgyzstan,KG,KGZ,Ysyk-Köl,Ysyk-Kol,KG-Y,province,,6.8,491,491,4,Asia/Bishkek,FALSE,1417111302
Terek-Suu,Terek-Suu,,40.5322,73.8283,Kyrgyzstan,KG,KGZ,Osh,Osh,KG-O,province,,16.4,477,477,4,Asia/Bishkek,FALSE,1417235057
Papan,Papan,Papan,40.3000,72.9800,Kyrgyzstan,KG,KGZ,Osh,Osh,KG-O,province,,129.1,448,448,3,Asia/Bishkek,FALSE,1417867751
Tokbay,Tokbay,Dunsay,42.8000,74.4125,Kyrgyzstan,KG,KGZ,Chüy,Chuy,KG-C,province,,85.6,447,447,4,Asia/Bishkek,FALSE,1417863183
Kyzyl-Bayrak,Kyzyl-Bayrak,,42.7150,76.0311,Kyrgyzstan,KG,KGZ,Chüy,Chuy,KG-C,province,,12.0,428,428,3,Asia/Bishkek,FALSE,1417311087
Bordu,Bordu,,42.7301,75.5509,Kyrgyzstan,KG,KGZ,Chüy,Chuy,KG-C,province,,12.0,426,426,4,Asia/Bishkek,TRUE,1417324142
"Gornaya Serafimovka","Gornaya Serafimovka",,42.6892,74.8689,Kyrgyzstan,KG,KGZ,Chüy,Chuy,KG-C,province,,79.0,417,417,4,Asia/Bishkek,FALSE,1417640019
Novomikhaylovka,Novomikhaylovka,,42.8222,75.5611,Kyrgyzstan,KG,KGZ,Chüy,Chuy,KG-C,province,,13.3,398,398,4,Asia/Bishkek,FALSE,1417229841
Norus,Norus,,42.7003,74.7942,Kyrgyzstan,KG,KGZ,Chüy,Chuy,KG-C,province,,93.7,382,382,4,Asia/Bishkek,FALSE,1417892684
Chat,Chat,,41.7417,72.0575,Kyrgyzstan,KG,KGZ,Jalal-Abad,Jalal-Abad,KG-J,province,,28.3,372,372,4,Asia/Bishkek,TRUE,1417065861
Murdash,Murdash,"Kyzyl-Bulak|Imeni Budennova|Murdash",40.4458,73.5903,Kyrgyzstan,KG,KGZ,Osh,Osh,KG-O,province,,9.3,370,370,3,Asia/Bishkek,FALSE,1417100792
Kyzyl-Bulak,Kyzyl-Bulak,,40.4466,73.5890,Kyrgyzstan,KG,KGZ,Osh,Osh,KG-O,province,,16.4,370,370,4,Asia/Bishkek,TRUE,1417666886
Ak-Bulun,Ak-Bulun,,41.4503,76.2842,Kyrgyzstan,KG,KGZ,Naryn,Naryn,KG-N,province,,6.1,343,343,3,Asia/Bishkek,FALSE,1417344770
Kyzylbiit,Kyzylbiit,Kyzylbeyit,41.5417,72.4139,Kyrgyzstan,KG,KGZ,Jalal-Abad,Jalal-Abad,KG-J,province,,54.8,342,342,4,Asia/Bishkek,FALSE,1417652002
Erke-Kashka,Erke-Kashka,Irke-Kashka|Erka-Qashqa,40.5472,72.4389,Kyrgyzstan,KG,KGZ,Osh,Osh,KG-O,province,,270.5,328,328,3,Asia/Bishkek,FALSE,1417994867
Kurankol,Kurankol,,40.3972,73.1528,Kyrgyzstan,KG,KGZ,Osh,Osh,KG-O,province,,129.1,321,321,4,Asia/Bishkek,FALSE,1417577228
Kichik,Kichik,,40.2944,73.1917,Kyrgyzstan,KG,KGZ,Osh,Osh,KG-O,province,,129.1,321,321,4,Asia/Bishkek,FALSE,1417958525
Ryazansay,Ryazansay,,41.4778,72.2972,Kyrgyzstan,KG,KGZ,Jalal-Abad,Jalal-Abad,KG-J,province,,28.3,305,305,4,Asia/Bishkek,FALSE,1417922994
Sarybulun,Sarybulun,,41.7417,74.2806,Kyrgyzstan,KG,KGZ,Naryn,Naryn,KG-N,province,,6.7,298,298,4,Asia/Bishkek,FALSE,1417398531
Kel-Chaty,Kel-Chaty,,40.1694,73.5833,Kyrgyzstan,KG,KGZ,Osh,Osh,KG-O,province,,9.3,274,274,3,Asia/Bishkek,FALSE,1417825864
Kichik-Alay,Kichik-Alay,,40.0300,72.9100,Kyrgyzstan,KG,KGZ,Osh,Osh,KG-O,city,,64.7,266,266,3,Asia/Bishkek,FALSE,1417880984
Korgon,Korgon,Zardaly|Zardulu|Zardalo|Zardali|Zardele|Zardale,39.6444,70.9556,Kyrgyzstan,KG,KGZ,Batken,Batken,KG-B,province,,11.5,260,260,4,Asia/Bishkek,TRUE,1417749414
Udarnik,Udarnik,,42.7506,75.6431,Kyrgyzstan,KG,KGZ,Chüy,Chuy,KG-C,province,,12.0,246,246,4,Asia/Bishkek,FALSE,1417704922
Kara-Shibak,Kara-Shibak,Kara-Shivak,39.5100,72.1800,Kyrgyzstan,KG,KGZ,Osh,Osh,KG-O,province,,5.7,240,240,4,Asia/Bishkek,FALSE,1417205987
Tash-Bulak,Tash-Bulak,,40.2500,72.2300,Kyrgyzstan,KG,KGZ,Osh,Osh,KG-O,province,,511.6,229,229,3,Asia/Bishkek,FALSE,1417476529
Dorozhnyy,Dorozhnyy,,42.7619,75.7869,Kyrgyzstan,KG,KGZ,Chüy,Chuy,KG-C,province,,12.0,220,220,4,Asia/Bishkek,FALSE,1417976237
Austan,Austan,,40.0100,72.0800,Kyrgyzstan,KG,KGZ,Batken,Batken,KG-B,province,,25.0,209,209,4,Asia/Bishkek,FALSE,1417617995
Teskey,Teskey,Terskey|Teskei,39.9000,71.2833,Kyrgyzstan,KG,KGZ,Batken,Batken,KG-B,province,,25.0,191,191,4,Asia/Bishkek,FALSE,1417406368
Engilchek,Engilchek,Engil’chek|Inyl’chek|Enil’chek,42.0333,79.0833,Kyrgyzstan,KG,KGZ,Ysyk-Köl,Ysyk-Kol,KG-Y,province,,7.4,138,138,4,Asia/Bishkek,FALSE,1417010868
Bordu,Bordu,Bordunskiy,42.6550,75.6000,Kyrgyzstan,KG,KGZ,Chüy,Chuy,KG-C,province,,12.0,124,124,4,Asia/Bishkek,FALSE,1417662977
Korgon-Tash,Korgon-Tash,Tashty-Kalan|Tashty-Kalan,39.7333,70.9500,Kyrgyzstan,KG,KGZ,Batken,Batken,KG-B,province,,11.5,95,95,4,Asia/Bishkek,FALSE,1417381165
Cholok,Cholok,,42.7236,75.8417,Kyrgyzstan,KG,KGZ,Chüy,Chuy,KG-C,province,,12.0,95,95,4,Asia/Bishkek,FALSE,1417999422
"Kozho Korum","Kozho Korum",Khodzhanorum|Kojo-Korum,40.0800,71.3100,Kyrgyzstan,KG,KGZ,Batken,Batken,KG-B,province,,25.0,72,72,4,Asia/Bishkek,FALSE,1417184032
Balykty,Balykty,,41.9800,72.5800,Kyrgyzstan,KG,KGZ,Jalal-Abad,Jalal-Abad,KG-J,province,,13.7,56,56,4,Asia/Bishkek,TRUE,1417097073
Sary-Kamysh,Sary-Kamysh,,41.3306,72.2639,Kyrgyzstan,KG,KGZ,Jalal-Abad,Jalal-Abad,KG-J,province,,661.6,48,48,3,Asia/Bishkek,FALSE,1417954256
Sary-Kamysh,Sary-Kamysh,Sariqamish,40.1272,71.1764,Kyrgyzstan,KG,KGZ,Batken,Batken,KG-B,province,,25.0,6,6,4,Asia/Bishkek,FALSE,1417955741
Ichke-Suu,Ichke-Suu,,42.6979,74.8021,Kyrgyzstan,KG,KGZ,Chüy,Chuy,KG-C,province,,93.7,,,4,Asia/Bishkek,FALSE,1417937844
Ak-Say,Ak-Say,Aksay,42.4852,72.5260,Kyrgyzstan,KG,KGZ,Talas,Talas,KG-T,province,,13.6,,,4,Asia/Bishkek,FALSE,1417528728
Ak-Say,Ak-Say,Ak-Sai,39.8744,70.5221,Kyrgyzstan,KG,KGZ,Batken,Batken,KG-B,province,minor,159.2,,,3,Asia/Bishkek,FALSE,1417685947
Arakël’,Arakel',,42.1703,75.4660,Kyrgyzstan,KG,KGZ,Naryn,Naryn,KG-N,province,,9.9,,,5,Asia/Bishkek,FALSE,1417111185
Kyzyl-Oy,Kyzyl-Oy,Kyzyloy,41.9505,74.1642,Kyrgyzstan,KG,KGZ,Chüy,Chuy,KG-C,province,,34.0,,,4,Asia/Bishkek,FALSE,1417417001
Belek,Belek,,42.8000,74.3113,Kyrgyzstan,KG,KGZ,Chüy,Chuy,KG-C,province,,85.6,,,4,Asia/Bishkek,FALSE,1417551548
Kyzyl-Oy,Kyzyl-Oy,,40.2514,73.1372,Kyrgyzstan,KG,KGZ,Osh,Osh,KG-O,province,,129.1,,,4,Asia/Bishkek,FALSE,1417026220
Kyzyl-Oy,Kyzyl-Oy,,40.3542,73.2825,Kyrgyzstan,KG,KGZ,Osh,Osh,KG-O,province,,9.3,,,4,Asia/Bishkek,TRUE,1417911279
Kyzyl-Oy,Kyzyl-Oy,,40.3760,73.3939,Kyrgyzstan,KG,KGZ,Osh,Osh,KG-O,province,,9.3,,,5,Asia/Bishkek,TRUE,1417670372
Symap,Symap,,39.7730,70.8606,Kyrgyzstan,KG,KGZ,Batken,Batken,KG-B,province,,11.5,,,4,Asia/Bishkek,FALSE,1417748761
Kalchu,Kalchu,Kulchu,39.5095,72.0451,Kyrgyzstan,KG,KGZ,Osh,Osh,KG-O,province,,5.7,,,5,Asia/Bishkek,FALSE,1417423030
Karool-Töbö,Karool-Tobo,Karool-Tëbë|Karaultëbë,40.5300,75.9600,Kyrgyzstan,KG,KGZ,Naryn,Naryn,KG-N,province,,2.7,,,5,Asia/Bishkek,FALSE,1417180562
Mekhnatabad,Mekhnatabad,,39.8583,70.5327,Kyrgyzstan,KG,KGZ,Batken,Batken,KG-B,province,,233.8,,,3,Asia/Dushanbe,FALSE,1417253621
Kaindy,Kaindy,,41.5000,76.3833,Kyrgyzstan,KG,KGZ,Naryn,Naryn,KG-N,province,,6.1,,,5,Asia/Bishkek,FALSE,1417578557
Karagain,Karagain,Karagayna,42.3478,72.0877,Kyrgyzstan,KG,KGZ,Talas,Talas,KG-T,province,,16.3,,,4,Asia/Bishkek,FALSE,1417502212
Kaindy,Kaindy,,41.4828,74.4826,Kyrgyzstan,KG,KGZ,Jalal-Abad,Jalal-Abad,KG-J,province,,5.5,,,5,Asia/Bishkek,FALSE,1417216328
Karatyube,Karatyube,,40.8701,73.9001,Kyrgyzstan,KG,KGZ,Osh,Osh,KG-O,province,,87.0,,,4,Asia/Bishkek,FALSE,1417074019
Layli-Su,Layli-Su,Laylysu,41.4677,75.5205,Kyrgyzstan,KG,KGZ,Naryn,Naryn,KG-N,province,,6.1,,,5,Asia/Bishkek,FALSE,1417536584
Ak-Shyyrak,Ak-Shyyrak,Akshiyrak|Ak-Shyyrak,41.8237,78.7537,Kyrgyzstan,KG,KGZ,Ysyk-Köl,Ysyk-Kol,KG-Y,province,,6.4,,,5,Asia/Bishkek,FALSE,1417714245
Ak-Suu,Ak-Suu,Pervomayskiy,41.5000,75.2000,Kyrgyzstan,KG,KGZ,Naryn,Naryn,KG-N,province,,4.9,,,5,Asia/Bishkek,FALSE,1417835741
Teskey,Teskey,,42.1266,74.0118,Kyrgyzstan,KG,KGZ,Chüy,Chuy,KG-C,province,,34.0,,,4,Asia/Bishkek,FALSE,1417913155
Dzhangyaryk,Dzhangyaryk,,42.4859,72.5572,Kyrgyzstan,KG,KGZ,Talas,Talas,KG-T,province,,13.6,,,4,Asia/Bishkek,FALSE,1417564456
Kyrkkazyk,Kyrkkazyk,,41.8682,72.5944,Kyrgyzstan,KG,KGZ,Jalal-Abad,Jalal-Abad,KG-J,province,,13.7,,,4,Asia/Bishkek,FALSE,1417773441
El’chibek,El'chibek,,40.4941,73.2463,Kyrgyzstan,KG,KGZ,Osh,Osh,KG-O,province,,129.1,,,4,Asia/Bishkek,FALSE,1417110686
Kara-Moynok,Kara-Moynok,Karamoynok,42.2377,75.2327,Kyrgyzstan,KG,KGZ,Naryn,Naryn,KG-N,province,,9.9,,,5,Asia/Bishkek,FALSE,1417712517
Aybek,Aybek,,40.2553,72.6685,Kyrgyzstan,KG,KGZ,Osh,Osh,KG-O,province,,64.7,,,4,Asia/Bishkek,FALSE,1417413021
