city,city_ascii,city_alt,lat,lng,country,iso2,iso3,admin_name,admin_name_ascii,admin_code,admin_type,capital,density,population,population_proper,ranking,timezone,same_name,id
Beirut,Beirut,Beyrouth|Bayrūt|Beiroūt,33.8983,35.5057,Lebanon,LB,LBN,Beyrouth,Beyrouth,LB-BA,governorate,primary,75959.6,2421354,2421354,1,Asia/Beirut,FALSE,1422847713
"Barr Eliâs","Barr Elias","Bar Elias|Berr Elyās|Barr Ilyās",33.7750,35.9000,Lebanon,LB,LBN,Béqaa,Beqaa,LB-BI,governorate,,974.1,300000,300000,2,Asia/Beirut,FALSE,1422386644
Tripoli,Tripoli,Trâblous|Ţarābulus,34.4367,35.8344,Lebanon,LB,LBN,Liban-Nord,Liban-Nord,LB-AS,governorate,admin,8930.4,243800,243800,2,Asia/Beirut,FALSE,1422886065
Sidon,Sidon,Saïda|Şaydūn|Şaydā,33.5606,35.3758,Lebanon,LB,LBN,Liban-Sud,Liban-Sud,LB-JA,governorate,admin,10230.2,163554,163554,2,Asia/Beirut,FALSE,1422897920
"El Minié","El Minie","El Minnié|Al Minyah|Al Minnīyah",34.4470,35.8178,Lebanon,LB,LBN,Liban-Nord,Liban-Nord,LB-AS,governorate,,5671.2,150000,150000,2,Asia/Beirut,FALSE,1422845769
"Borj Hammoud","Borj Hammoud","Borj el Hamoud|Borj el Hammoud|Burj Hamūd|Burj Ḩammūd",33.8936,35.5403,Lebanon,LB,LBN,Mont-Liban,Mont-Liban,LB-JL,governorate,,60000.0,150000,150000,2,Asia/Beirut,FALSE,1422255275
Aaley,Aaley,Alley|Alia|Aley|‘Āleih|Aliye|‘Ālayh|‘Āliyah,33.8000,35.6000,Lebanon,LB,LBN,Mont-Liban,Mont-Liban,LB-JL,governorate,minor,4516.9,130000,130000,2,Asia/Beirut,FALSE,1422055581
Joünié,Jounie,Djounie|Jūniyah,33.9697,35.6156,Lebanon,LB,LBN,Mont-Liban,Mont-Liban,LB-JL,governorate,minor,14323.9,102221,102221,2,Asia/Beirut,FALSE,1422032780
Zahlé,Zahle,Zaḩlah,33.8333,35.9167,Lebanon,LB,LBN,Béqaa,Beqaa,LB-BI,governorate,admin,12500.0,100000,100000,2,Asia/Beirut,FALSE,1422031285
Baabda,Baabda,B‘abdā,33.8333,35.5333,Lebanon,LB,LBN,Mont-Liban,Mont-Liban,LB-JL,governorate,admin,15288.2,84900,84900,2,Asia/Beirut,FALSE,1422639397
Baalbek,Baalbek,Ba‘labakk|Héliopolis|Ba‘labak|Baalbeck|Ba‘albak,34.0063,36.2073,Lebanon,LB,LBN,Baalbek-Hermel,Baalbek-Hermel,LB-BH,governorate,admin,2166.0,81052,81052,2,Asia/Beirut,FALSE,1422694451
Nabatîyé,Nabatiye,"En Nabatīye|Nabatîyé et Tahta|An Nabaţīyah at Taḩtā|Nabaţīyah at Taḩtā|An Nabaţīyah",33.3833,35.4500,Lebanon,LB,LBN,Nabatîyé,Nabatiye,LB-NA,governorate,admin,9240.6,80000,80000,2,Asia/Beirut,FALSE,1422269278
"Borj el Qoblé","Borj el Qoble","Burj el-Qibli|Borj Qibli|Borj el Qibleh|Burj Qibli|Burj al Qiblī|Burj al Qiblah|Borj el Qibli",33.2631,35.2389,Lebanon,LB,LBN,Liban-Sud,Liban-Sud,LB-JA,governorate,,9113.7,61973,61973,2,Asia/Beirut,FALSE,1422937881
Tyre,Tyre,"Tyr|Es Sur|Soûr|Şūr",33.2708,35.1961,Lebanon,LB,LBN,Liban-Sud,Liban-Sud,LB-JA,governorate,minor,15000.0,60000,60000,2,Asia/Beirut,FALSE,1422316734
"Qabb Eliâs","Qabb Elias","Qabb Ilyās|Qubb Ilyās",33.7986,35.8250,Lebanon,LB,LBN,Béqaa,Beqaa,LB-BI,governorate,,1586.2,50000,50000,3,Asia/Beirut,FALSE,1422087652
"El Ghâzîyé","El Ghaziye","El Rhaziye|Ghazie|Ghaziyé|Al Ghāzīyah",33.5186,35.3661,Lebanon,LB,LBN,Liban-Sud,Liban-Sud,LB-JA,governorate,,3333.3,50000,50000,2,Asia/Beirut,FALSE,1422216263
Aarsâl,Aarsal,‘Irsāl|‘Arsāl,34.1794,36.4208,Lebanon,LB,LBN,Baalbek-Hermel,Baalbek-Hermel,LB-BH,governorate,,157.8,50000,50000,3,Asia/Beirut,FALSE,1422612862
Batroûn,Batroun,"Botrys|Batrūn|Al Batrūn",34.2500,35.6500,Lebanon,LB,LBN,Liban-Nord,Liban-Nord,LB-AS,governorate,minor,1257.3,45000,45000,3,Asia/Beirut,FALSE,1422217431
Jbaïl,Jbail,"Jebaïl|Jbayl|Djébail|Biblos|Byblos|Jbail|Jubayl|Bīblūs|Jubayl Bīblus",34.1236,35.6519,Lebanon,LB,LBN,Mont-Liban,Mont-Liban,LB-JL,governorate,minor,9615.4,40000,40000,2,Asia/Beirut,FALSE,1422678909
Chmistâr,Chmistar,Shmisţār|Chemestar,33.9667,36.0167,Lebanon,LB,LBN,Baalbek-Hermel,Baalbek-Hermel,LB-BH,governorate,,1666.7,30000,30000,3,Asia/Beirut,FALSE,1422851411
"El Fanar","El Fanar","El Qabbârîyé|Al Qabbārīyah|Al Fanār",33.8667,35.5667,Lebanon,LB,LBN,Mont-Liban,Mont-Liban,LB-JL,governorate,,500.0,30000,30000,3,Asia/Beirut,FALSE,1422818939
"Bent Jbaïl","Bent Jbail","Bennt Jbail|Bint Umm Jubail|Bent Jbeil|Bint Jubayl",33.1208,35.4336,Lebanon,LB,LBN,Nabatîyé,Nabatiye,LB-NA,governorate,minor,3296.7,30000,30000,2,Asia/Beirut,FALSE,1422323141
Zghartā,Zgharta,Zaghartā|Ezgharta,34.4000,35.9000,Lebanon,LB,LBN,Liban-Nord,Liban-Nord,LB-AS,governorate,minor,11538.5,30000,30000,2,Asia/Beirut,FALSE,1422751344
"Qornet Chahouâne","Qornet Chahouane","Qurnat Shahwān",33.9200,35.6700,Lebanon,LB,LBN,Mont-Liban,Mont-Liban,LB-JL,governorate,,6751.8,28000,28000,2,Asia/Beirut,FALSE,1422333947
Ehden,Ehden,Ihden|Ehdène|Ihdin,34.2919,35.9546,Lebanon,LB,LBN,Liban-Nord,Liban-Nord,LB-AS,governorate,,19.4,25000,25000,3,Asia/Beirut,FALSE,1422592801
Bcharré,Bcharre,Bisharri|Bsherri|Bcharreh|Bcharrī|Becharri|Basharrī|Besherri|Bsharrī,34.2511,36.0111,Lebanon,LB,LBN,Liban-Nord,Liban-Nord,LB-AS,governorate,minor,13.1,24000,24000,3,Asia/Beirut,FALSE,1422518205
"Majdel Aanjar","Majdel Aanjar","Majdal ‘Anjar",33.7075,35.9039,Lebanon,LB,LBN,Béqaa,Beqaa,LB-BI,governorate,,896.7,23000,23000,3,Asia/Beirut,FALSE,1422228495
"El Hermel","El Hermel","Hirmil|Hermil|Hermel|Hurmal|Al Harmal|Al Hirmil",34.3914,36.3958,Lebanon,LB,LBN,Baalbek-Hermel,Baalbek-Hermel,LB-BH,governorate,minor,660.0,22250,22250,3,Asia/Beirut,FALSE,1422119929
"Kfar Kiddé","Kfar Kidde","Kafr Kiddah",34.2028,35.6544,Lebanon,LB,LBN,Mont-Liban,Mont-Liban,LB-JL,governorate,,146.1,20000,20000,3,Asia/Beirut,FALSE,1422121365
"El Bâzoûrîyé","El Bazouriye","El-Bazouriyah|Bazouriyé|Al Buzūrīyah|Al Bāzūrīyah",33.2539,35.2717,Lebanon,LB,LBN,Liban-Sud,Liban-Sud,LB-JA,governorate,,1458.9,20000,20000,3,Asia/Beirut,FALSE,1422000794
Dbaïyé,Dbaiye,"Aḑ Ḑubayyah|Aḑ Ḑabiyyah|Dubayyih|Debaye|Dubaiya|Dbayeh|Dubayyah",33.9353,35.5897,Lebanon,LB,LBN,Mont-Liban,Mont-Liban,LB-JL,governorate,,7612.4,18000,18000,2,Asia/Beirut,FALSE,1422722338
Baaqlîne,Baaqline,B‘aqleen|Baaklin|Baakline|Ba‘aqlīn|B‘aqlīn,33.6797,35.5583,Lebanon,LB,LBN,Mont-Liban,Mont-Liban,LB-JL,governorate,,1214.3,17000,17000,3,Asia/Beirut,FALSE,1422382914
"Râs Baalbek","Ras Baalbek","Ra’s Ba‘labakk",34.2597,36.4236,Lebanon,LB,LBN,Baalbek-Hermel,Baalbek-Hermel,LB-BH,governorate,,125.4,15000,15000,3,Asia/Beirut,FALSE,1422859198
"Joubb Jannîne","Joubb Jannine","Joub Jannine|Djeb Djennin|Jubb Jannīn",33.6333,35.7833,Lebanon,LB,LBN,Béqaa,Beqaa,LB-BI,governorate,minor,373.2,14728,14728,3,Asia/Beirut,FALSE,1422617067
Kahhalé,Kahhale,"El Kahhalé|Al Kaḩḩālah",33.8219,35.5875,Lebanon,LB,LBN,Mont-Liban,Mont-Liban,LB-JL,governorate,,6701.0,13000,13000,2,Asia/Beirut,FALSE,1422675912
Barja,Barja,Barjā,33.6497,35.4433,Lebanon,LB,LBN,Mont-Liban,Mont-Liban,LB-JL,governorate,,1767.9,12888,12888,3,Asia/Beirut,FALSE,1422958830
Hasroûn,Hasroun,Ḩaşrūn,34.2419,35.9794,Lebanon,LB,LBN,Liban-Nord,Liban-Nord,LB-AS,governorate,,494.3,12000,12000,3,Asia/Beirut,FALSE,1422559333
"El Qâa","El Qaa","Al Qā‘ah|El Kaa|Qaa|Al Qā‘",34.3436,36.4756,Lebanon,LB,LBN,Baalbek-Hermel,Baalbek-Hermel,LB-BH,governorate,,929.5,12000,12000,3,Asia/Beirut,FALSE,1422667021
Chaqra,Chaqra,Chakra|Shaqrā,33.1917,35.4628,Lebanon,LB,LBN,Nabatîyé,Nabatiye,LB-NA,governorate,,379.4,12000,12000,3,Asia/Beirut,FALSE,1422232460
Bteghrîne,Bteghrine,Bertregreen|Btirhrîne|B‘tagrin|Btighreen|Btighrīn,33.9300,35.7450,Lebanon,LB,LBN,Mont-Liban,Mont-Liban,LB-JL,governorate,,1464.3,12000,12000,3,Asia/Beirut,FALSE,1422572821
Qoubaiyat,Qoubaiyat,"Al Qubayyāt",34.5683,36.2764,Lebanon,LB,LBN,Aakkâr,Aakkar,LB-AK,governorate,,171.4,12000,12000,3,Asia/Beirut,FALSE,1422198461
Sarafand,Sarafand,"Es-Sarafand|Aş Şarafand|Şarafand",33.4517,35.2908,Lebanon,LB,LBN,Liban-Sud,Liban-Sud,LB-JA,governorate,,3278.3,10965,10965,2,Asia/Beirut,FALSE,1422620086
Srîfa,Srifa,Şurayfā,33.2814,35.3964,Lebanon,LB,LBN,Liban-Sud,Liban-Sud,LB-JA,governorate,,2879.2,10000,10000,2,Asia/Beirut,FALSE,1422782357
Chartoûn,Chartoun,Shartūn,33.7711,35.6858,Lebanon,LB,LBN,Mont-Liban,Mont-Liban,LB-JL,governorate,,16.0,10000,10000,4,Asia/Beirut,FALSE,1422935329
Qâna,Qana,Qānā,33.2092,35.2992,Lebanon,LB,LBN,Liban-Sud,Liban-Sud,LB-JA,governorate,,1842.0,10000,10000,3,Asia/Beirut,FALSE,1422539070
Amioûn,Amioun,Amiun|Amyūn,34.3000,35.8000,Lebanon,LB,LBN,Liban-Nord,Liban-Nord,LB-AS,governorate,minor,877.2,10000,10000,3,Asia/Beirut,FALSE,1422143071
"Râs el Metn","Ras el Metn","Ra’s al Matn|Rās al Matn",33.8500,35.6667,Lebanon,LB,LBN,Mont-Liban,Mont-Liban,LB-JL,governorate,,769.2,10000,10000,3,Asia/Beirut,FALSE,1422014908
"Ed Dâmoûr","Ed Damour","Damour|Ed Damur|Ad Dāmūr",33.7333,35.4500,Lebanon,LB,LBN,Mont-Liban,Mont-Liban,LB-JL,governorate,,990.1,10000,10000,3,Asia/Beirut,FALSE,1422987773
"Kfar Aabîda","Kfar Aabida","Kafr ‘Ubaydā",34.2264,35.6600,Lebanon,LB,LBN,Liban-Nord,Liban-Nord,LB-AS,governorate,,10253.0,9613,9613,2,Asia/Beirut,FALSE,1422225745
Boudaï,Boudai,Būdā’ī|Boudayé|Būdāy,34.0611,36.0611,Lebanon,LB,LBN,Baalbek-Hermel,Baalbek-Hermel,LB-BH,governorate,,248.8,8000,8000,3,Asia/Beirut,FALSE,1422231065
Rahbé,Rahbe,"Raḩbah|Ar Raḩbah",34.5039,36.1467,Lebanon,LB,LBN,Aakkâr,Aakkar,LB-AK,governorate,,7.0,8000,8000,4,Asia/Beirut,FALSE,1422505580
"El Qalamoûn","El Qalamoun","El Qalmoûn|Al Qalamūn",34.3833,35.7833,Lebanon,LB,LBN,Liban-Nord,Liban-Nord,LB-AS,governorate,,2201.3,7000,7000,2,Asia/Beirut,FALSE,1422625715
"El Qaraaoun","El Qaraaoun","El Qar‘aun|Al Qir‘awn|El-Qer‘ann|Qaraaoun|Al Qar‘ūn|El Qaraoun|Al Qar‘awn",33.5633,35.7219,Lebanon,LB,LBN,Béqaa,Beqaa,LB-BI,governorate,,479.5,7000,7000,3,Asia/Beirut,FALSE,1422931306
Machghara,Machghara,Mashgharah,33.5281,35.6517,Lebanon,LB,LBN,Béqaa,Beqaa,LB-BI,governorate,,290.7,6800,6800,3,Asia/Beirut,FALSE,1422640613
Nîha,Niha,Nīḩā,33.5947,35.6303,Lebanon,LB,LBN,Mont-Liban,Mont-Liban,LB-JL,governorate,,218.8,6500,6500,3,Asia/Beirut,FALSE,1422974500
"Kâmed el Lôz","Kamed el Loz","Kāmid al Lawz",33.6183,35.8186,Lebanon,LB,LBN,Béqaa,Beqaa,LB-BI,governorate,,277.1,6000,6000,3,Asia/Beirut,FALSE,1422906694
"Ej Jmaïlîyé","Ej Jmailiye","Jamlieh|Al Jumaylīyah|Al Jamīlīyah",33.6661,35.5183,Lebanon,LB,LBN,Mont-Liban,Mont-Liban,LB-JL,governorate,,1189.3,5500,5500,3,Asia/Beirut,FALSE,1422040713
Qornâyel,Qornayel,Qurnāyil,33.8544,35.7261,Lebanon,LB,LBN,Mont-Liban,Mont-Liban,LB-JL,governorate,,656.3,5500,5500,3,Asia/Beirut,FALSE,1422663437
"El Bâroûk","El Barouk","Baruk|El Bārūk|Bâroûk|Al Bārūk",33.7083,35.6775,Lebanon,LB,LBN,Mont-Liban,Mont-Liban,LB-JL,governorate,,188.2,5197,5197,4,Asia/Beirut,FALSE,1422609824
Qartaba,Qartaba,Qarţabā,34.1000,35.8500,Lebanon,LB,LBN,Mont-Liban,Mont-Liban,LB-JL,governorate,,588.2,5000,5000,3,Asia/Beirut,FALSE,1422402044
"Nahr Ibrâhîm","Nahr Ibrahim","Nahr Ibrāhīm",34.0661,35.6450,Lebanon,LB,LBN,Mont-Liban,Mont-Liban,LB-JL,governorate,,3255.8,4786,4786,2,Asia/Beirut,FALSE,1422440364
Halba,Halba,Halbe|‘Akkār|Aakar|Ḩalbā,34.5506,36.0781,Lebanon,LB,LBN,Aakkâr,Aakkar,LB-AK,governorate,admin,1009.8,4730,4730,2,Asia/Beirut,FALSE,1422962727
Ardé,Arde,Ardia|Ardah,34.4131,35.9119,Lebanon,LB,LBN,Liban-Nord,Liban-Nord,LB-AS,governorate,,790.6,4554,4554,3,Asia/Beirut,FALSE,1422693450
Zakrît,Zakrit,Zikrīt|Zakrīt,33.9300,35.5800,Lebanon,LB,LBN,Mont-Liban,Mont-Liban,LB-JL,governorate,,4500.0,4500,4500,2,Asia/Beirut,FALSE,1422707053
Dinbou,Dinbou,Dinnbo|Dennbou|Danbū,34.4789,36.0878,Lebanon,LB,LBN,Aakkâr,Aakkar,LB-AK,governorate,,332.8,4078,4078,3,Asia/Beirut,FALSE,1422613023
Tikrit,Tikrit,,34.5186,36.1581,Lebanon,LB,LBN,Aakkâr,Aakkar,LB-AK,governorate,,720.2,4069,4069,3,Asia/Beirut,FALSE,1422314941
"Aïn Aata","Ain Aata","‘Ain ‘Ata|‘Ayn ‘Aţā",33.4364,35.7794,Lebanon,LB,LBN,Béqaa,Beqaa,LB-BI,governorate,,68.9,4000,4000,3,Asia/Beirut,FALSE,1422315876
Mahroûna,Mahrouna,Maḩrūnah|Maḩrūnā,33.2190,35.3428,Lebanon,LB,LBN,Liban-Sud,Liban-Sud,LB-JA,governorate,,160.0,4000,4000,4,Asia/Beirut,FALSE,1422913715
Aabay,Aabay,‘Abayah|‘Bayh|Aabey|‘Abayh|Abey|‘Abeih|Abiye|‘Abay,33.7370,35.5258,Lebanon,LB,LBN,Mont-Liban,Mont-Liban,LB-JL,governorate,,889.5,4000,4000,3,Asia/Beirut,FALSE,1422073463
"Ain er Remmané","Ain er Remmane","Aïn er Roummane|Aïn er Remmeni|Ain el-Rummaneh|‘Ayn ar Rummānah",33.9186,35.6875,Lebanon,LB,LBN,Mont-Liban,Mont-Liban,LB-JL,governorate,,200.0,4000,4000,4,Asia/Beirut,FALSE,1422906295
"Hadet ej Jobbé","Hadet ej Jobbe","Hadeth ej Joubbé|Hadath el-Jubbah|Hadeth esh Shibbe|Hadeth el Joubbe|Ḩadath al Jubbah",34.2500,35.9294,Lebanon,LB,LBN,Liban-Nord,Liban-Nord,LB-AS,governorate,,350.3,4000,4000,3,Asia/Beirut,FALSE,1422419751
Maaroûb,Maaroub,Ma‘rūb,33.2842,35.3472,Lebanon,LB,LBN,Liban-Sud,Liban-Sud,LB-JA,governorate,,899.7,3600,3600,3,Asia/Beirut,FALSE,1422125496
Qnât,Qnat,Qnāt|Qanāt,34.2532,35.8936,Lebanon,LB,LBN,Liban-Nord,Liban-Nord,LB-AS,governorate,,460.5,3500,3500,3,Asia/Beirut,FALSE,1422220419
Nîha,Niha,Nīḩā,33.8947,35.9636,Lebanon,LB,LBN,Béqaa,Beqaa,LB-BI,governorate,,350.5,3400,3400,3,Asia/Beirut,FALSE,1422198651
Chadra,Chadra,Shadrah,34.6183,36.3206,Lebanon,LB,LBN,Aakkâr,Aakkar,LB-AK,governorate,,5.4,3307,3307,4,Asia/Beirut,FALSE,1422820383
Bouârej,Bouarej,Buarij|Bwarej|Bwârij|Bouerij|Bawārij,33.8125,35.8222,Lebanon,LB,LBN,Béqaa,Beqaa,LB-BI,governorate,,703.7,3250,3250,3,Asia/Beirut,FALSE,1422241548
"Qaaqaïet es Snaoubar","Qaaqaiet es Snaoubar","Qa‘qa‘īyat aş Şanawbar",33.4308,35.3444,Lebanon,LB,LBN,Liban-Sud,Liban-Sud,LB-JA,governorate,,857.1,3000,3000,3,Asia/Beirut,FALSE,1422295385
Zebqîne,Zebqine,Zibqīn,33.1667,35.2667,Lebanon,LB,LBN,Liban-Sud,Liban-Sud,LB-JA,governorate,,205.9,3000,3000,3,Asia/Beirut,FALSE,1422726613
Saoufar,Saoufar,Şawfar,33.8028,35.7006,Lebanon,LB,LBN,Mont-Liban,Mont-Liban,LB-JL,governorate,,1976.0,3000,3000,3,Asia/Beirut,FALSE,1422676567
Marjayoûn,Marjayoun,"Marjaayoun|Djedeideh|El Judeide|Marji‘yūn",33.3619,35.5897,Lebanon,LB,LBN,Nabatîyé,Nabatiye,LB-NA,governorate,minor,380.7,3000,3000,3,Asia/Beirut,FALSE,1422538182
Aïnab,Ainab,‘Aynāb,33.7658,35.5486,Lebanon,LB,LBN,Mont-Liban,Mont-Liban,LB-JL,governorate,,692.0,3000,3000,3,Asia/Beirut,FALSE,1422100044
Bchaalé,Bchaale,Bshi‘lahl|Bshālā|Bchélé|Bchéla|Bishālah|Bisha‘lah,34.2036,35.8236,Lebanon,LB,LBN,Liban-Nord,Liban-Nord,LB-AS,governorate,,310.6,2800,2800,3,Asia/Beirut,FALSE,1422498162
"El Kouâchra","El Kouachra","Al Kwāshrah|El Kouaïchra|El Kwashrah",34.6120,36.2080,Lebanon,LB,LBN,Aakkâr,Aakkar,LB-AK,governorate,,495.2,2763,2763,3,Asia/Beirut,FALSE,1422035813
Fâraïya,Faraiya,Faraya|Ferraya|Fārayyā,34.0122,35.8239,Lebanon,LB,LBN,Mont-Liban,Mont-Liban,LB-JL,governorate,,310.3,2700,2700,3,Asia/Beirut,FALSE,1422121087
"Borj Rahhâl","Borj Rahhal","Borj Rahal|Burj Raḩḩāl",33.3097,35.2825,Lebanon,LB,LBN,Liban-Sud,Liban-Sud,LB-JA,governorate,,4939.8,2625,2625,2,Asia/Beirut,FALSE,1422575312
Bqerzlâ,Bqerzla,Bqirzla|Bkerzala|Bqarzlā,34.5103,36.0556,Lebanon,LB,LBN,Aakkâr,Aakkar,LB-AK,governorate,,318.8,2608,2608,3,Asia/Beirut,FALSE,1422010764
"Adma et Defné","Adma et Defne","Admā ad Dafnah|Admā wa ad Dafnī|Ad Dafnah",34.0225,35.6472,Lebanon,LB,LBN,Mont-Liban,Mont-Liban,LB-JL,governorate,,913.5,2497,2497,3,Asia/Beirut,FALSE,1422315905
Hrâr,Hrar,,34.4569,36.1225,Lebanon,LB,LBN,Aakkâr,Aakkar,LB-AK,governorate,,300.7,2306,2306,3,Asia/Beirut,FALSE,1422331157
Machha,Machha,Mashḩā,34.5417,36.1147,Lebanon,LB,LBN,Aakkâr,Aakkar,LB-AK,governorate,,399.7,2286,2286,3,Asia/Beirut,FALSE,1422111654
Bezbina,Bezbina,Bazbîna|Bazbeena|Bizbīnā,34.5156,36.1953,Lebanon,LB,LBN,Aakkâr,Aakkar,LB-AK,governorate,,382.5,2268,2268,3,Asia/Beirut,FALSE,1422415122
"Beït Mellat","Beit Mellat","Beït Mellâte|Bayt Millāt|Bayt Mallāţ|Beit Millat",34.5297,36.1625,Lebanon,LB,LBN,Aakkâr,Aakkar,LB-AK,governorate,,804.1,2139,2139,3,Asia/Beirut,FALSE,1422306927
Aaïyat,Aaiyat,‘Īyāt,34.5356,36.1981,Lebanon,LB,LBN,Aakkâr,Aakkar,LB-AK,governorate,,767.3,2133,2133,3,Asia/Beirut,FALSE,1422392427
Berhalioûn,Berhalioun,Badbhoûn|Bdébhoûn|Barḩaliyūn|Barḩalyūn|Barhalioun|Ber’halioûn|Bdabhūn|Bdabhoun,34.2589,35.8762,Lebanon,LB,LBN,Liban-Nord,Liban-Nord,LB-AS,governorate,,245.5,2000,2000,3,Asia/Beirut,FALSE,1422309604
"Haouch Tell Safîyé","Haouch Tell Safiye","Ḩawsh Tall Şafīyah|Ḩawsh Talşafīyah",34.0250,36.1397,Lebanon,LB,LBN,Baalbek-Hermel,Baalbek-Hermel,LB-BH,governorate,,396.0,2000,2000,3,Asia/Beirut,FALSE,1422947333
Jebrayel,Jebrayel,Gebrâyel|Jibrā’īl|Jebraye,34.5211,36.1308,Lebanon,LB,LBN,Aakkâr,Aakkar,LB-AK,governorate,,342.6,1826,1826,3,Asia/Beirut,FALSE,1422607540
"Ed Daoura","Ed Daoura","Ad Dawrah|Daurat ‘Akkar|Daurah",34.5436,36.2147,Lebanon,LB,LBN,Aakkâr,Aakkar,LB-AK,governorate,,240.9,1689,1689,3,Asia/Beirut,FALSE,1422163622
"Cheïkh Tâbâ","Cheikh Taba","Esh-Sheikh Taba|Ash Shaykh Ţābā",34.5331,36.0778,Lebanon,LB,LBN,Aakkâr,Aakkar,LB-AK,governorate,,939.7,1635,1635,3,Asia/Beirut,FALSE,1422474542
"Karm Saddé","Karm Sadde","Karm as Saddah|Karm Saddah",34.3058,35.8897,Lebanon,LB,LBN,Liban-Nord,Liban-Nord,LB-AS,governorate,,256.0,1538,1538,3,Asia/Beirut,FALSE,1422742930
Akroum,Akroum,Akrūm,34.5439,36.3631,Lebanon,LB,LBN,Aakkâr,Aakkar,LB-AK,governorate,,0.2,1518,1518,3,Asia/Beirut,FALSE,1422273516
Jeddâyel,Jeddayel,Jadā’il|Jazil|Jdâyel|Jadāyil,34.1644,35.6486,Lebanon,LB,LBN,Mont-Liban,Mont-Liban,LB-JL,governorate,,1428.6,1500,1500,3,Asia/Beirut,FALSE,1422209989
"Aïn Ebel","Ain Ebel","‘Ain Ibil|Aïn Ibel|Ain Ibl|‘Ayn Ibil",33.1097,35.4028,Lebanon,LB,LBN,Nabatîyé,Nabatiye,LB-NA,governorate,,110.3,1500,1500,4,Asia/Beirut,FALSE,1422242687
"El Houaïch","El Houaich","Hweish|Al Ḩuwaysh|El-Hweish",34.4983,36.1169,Lebanon,LB,LBN,Aakkâr,Aakkar,LB-AK,governorate,,226.7,1451,1451,3,Asia/Beirut,FALSE,1422498582
"Tell Bîri","Tell Biri","Tall Bīrah",34.6225,36.0586,Lebanon,LB,LBN,Aakkâr,Aakkar,LB-AK,governorate,,76.8,1439,1439,3,Asia/Beirut,FALSE,1422108625
"Khreïbet ej Jindi","Khreibet ej Jindi","Khuraybat al Jundī",34.5583,36.0961,Lebanon,LB,LBN,Aakkâr,Aakkar,LB-AK,governorate,,293.2,1419,1419,3,Asia/Beirut,FALSE,1422487613
Chehoûr,Chehour,Shḩūr|Shaḩūr,33.3000,35.3667,Lebanon,LB,LBN,Liban-Sud,Liban-Sud,LB-JA,governorate,,176.3,1375,1375,4,Asia/Beirut,FALSE,1422699633
"El Borj","El Borj","Al Burj|El-Burj",34.5308,36.1892,Lebanon,LB,LBN,Aakkâr,Aakkar,LB-AK,governorate,,940.8,1320,1320,3,Asia/Beirut,FALSE,1422713054
"Aïn Yaaqoub","Ain Yaaqoub","‘Ain Ya‘qoub|Aïn Yakoub|‘Ayn Ya‘qūb",34.5194,36.1986,Lebanon,LB,LBN,Aakkâr,Aakkar,LB-AK,governorate,,340.7,1281,1281,3,Asia/Beirut,FALSE,1422104890
Fîaa,Fiaa,Fih|Fī‘|Fī‘ā,34.3484,35.7883,Lebanon,LB,LBN,Liban-Nord,Liban-Nord,LB-AS,governorate,,365.5,1276,1276,3,Asia/Beirut,FALSE,1422643344
Bdebba,Bdebba,Bdibbā|Bdabbā|Bdubbā|Bidabbā,34.3500,35.8167,Lebanon,LB,LBN,Liban-Nord,Liban-Nord,LB-AS,governorate,,641.7,1200,1200,3,Asia/Beirut,FALSE,1422585016
Tâchaa,Tachaa,Tāshi‘,34.4978,36.1883,Lebanon,LB,LBN,Aakkâr,Aakkar,LB-AK,governorate,,46.9,1136,1136,4,Asia/Beirut,FALSE,1422807365
"Aalma ech Chaab","Aalma ech Chaab","‘Almat ash Sha‘b|‘Alam esh Sha‘b|‘Alma esh Sha‘b|Alma Chaab|Alma esh Shaub|‘Almā ash Sha‘b",33.1039,35.1828,Lebanon,LB,LBN,Liban-Sud,Liban-Sud,LB-JA,governorate,,199.1,1080,1080,4,Asia/Beirut,FALSE,1422354373
Idbil,Idbil,Aadbel,34.5347,36.0969,Lebanon,LB,LBN,Aakkâr,Aakkar,LB-AK,governorate,,551.8,1065,1065,3,Asia/Beirut,FALSE,1422521726
Batroûmîne,Batroumine,Batrūmūn|Batrūmīn,34.3500,35.8000,Lebanon,LB,LBN,Liban-Nord,Liban-Nord,LB-AS,governorate,,307.9,1050,1050,3,Asia/Beirut,FALSE,1422635809
Haïzouq,Haizouq,Heizouq|Ḩayzūq,34.5478,36.1286,Lebanon,LB,LBN,Aakkâr,Aakkar,LB-AK,governorate,,343.3,1030,1030,3,Asia/Beirut,FALSE,1422189338
Shattaha,Shattaha,"Shiţţāḩah|Beït ech Chataha",34.5331,36.1703,Lebanon,LB,LBN,Aakkâr,Aakkar,LB-AK,governorate,,1187.4,1000,1000,3,Asia/Beirut,FALSE,1422061698
Iaal,Iaal,Ee‘al|Ī‘āl|Iī‘āl,34.3667,35.9167,Lebanon,LB,LBN,Liban-Nord,Liban-Nord,LB-AS,governorate,,404.0,1000,1000,3,Asia/Beirut,FALSE,1422642433
"Kfar Shouba","Kfar Shouba","Kafr Shūbā",33.3281,35.6925,Lebanon,LB,LBN,Nabatîyé,Nabatiye,LB-NA,governorate,,27.0,1000,1000,4,Asia/Beirut,FALSE,1422003674
"Aïn ez Zaït","Ain ez Zait","‘Ayn az Zayt|‘Ain ez Zeit",34.5900,36.1997,Lebanon,LB,LBN,Aakkâr,Aakkar,LB-AK,governorate,,608.7,980,980,3,Asia/Beirut,FALSE,1422616837
Mounjez,Mounjez,Munjiz,34.6156,36.2450,Lebanon,LB,LBN,Aakkâr,Aakkar,LB-AK,governorate,,159.3,943,943,4,Asia/Beirut,FALSE,1422739469
"Kfar Hazîr","Kfar Hazir","Kafr Ḩazīr",34.3078,35.7736,Lebanon,LB,LBN,Liban-Nord,Liban-Nord,LB-AS,governorate,,336.6,917,917,3,Asia/Beirut,FALSE,1422024332
"Al ‘Uwaynāt","Al `Uwaynat",Aaoueïnâte|Aoueinate|Aaouainat,34.6247,36.3019,Lebanon,LB,LBN,Aakkâr,Aakkar,LB-AK,governorate,,326.2,884,884,3,Asia/Beirut,FALSE,1422617241
Jouar,Jouar,,33.9229,35.6417,Lebanon,LB,LBN,Mont-Liban,Mont-Liban,LB-JL,governorate,,915.6,879,879,3,Asia/Beirut,FALSE,1422674508
Ilât,Ilat,Aayâte|Eelat,34.5192,36.1097,Lebanon,LB,LBN,Aakkâr,Aakkar,LB-AK,governorate,,207.5,832,832,3,Asia/Beirut,FALSE,1422330587
Haouchab,Haouchab,Ḩawshab|Haushab|El-Haushab,34.5639,36.0997,Lebanon,LB,LBN,Aakkâr,Aakkar,LB-AK,governorate,,467.6,828,828,3,Asia/Beirut,FALSE,1422818267
"Majdal Balhîss","Majdal Balhiss","Majdal Balhīş",33.5381,35.7450,Lebanon,LB,LBN,Béqaa,Beqaa,LB-BI,governorate,,109.8,800,800,3,Asia/Beirut,FALSE,1422912802
"Deïr Janine","Deir Janine","Deir Janeen|Dayr Jannīn|Dayr Janīn",34.5647,36.1769,Lebanon,LB,LBN,Aakkâr,Aakkar,LB-AK,governorate,,131.3,767,767,3,Asia/Beirut,FALSE,1422434138
"El Qantara","El Qantara","El-Qantarah|El Qanntara|Al Qanţarah",34.5186,36.0711,Lebanon,LB,LBN,Aakkâr,Aakkar,LB-AK,governorate,,398.4,761,761,3,Asia/Beirut,FALSE,1422483415
Rmâh,Rmah,"Ar Rimmāḩ|Er-Rimmah",34.6194,36.2639,Lebanon,LB,LBN,Aakkâr,Aakkar,LB-AK,governorate,,374.7,742,742,3,Asia/Beirut,FALSE,1422739506
Haïtla,Haitla,Heitlah|Heitla|Haytlah|Haïtala,34.6025,36.1339,Lebanon,LB,LBN,Aakkâr,Aakkar,LB-AK,governorate,,296.7,712,712,3,Asia/Beirut,FALSE,1422229376
"Joûret el Balloût","Jouret el Ballout","Jūrat al Ballūţ",33.8910,35.6349,Lebanon,LB,LBN,Mont-Liban,Mont-Liban,LB-JL,governorate,,414.2,700,700,3,Asia/Beirut,TRUE,1422579188
Toulâ,Toula,Tūlā,34.1999,35.7249,Lebanon,LB,LBN,Liban-Nord,Liban-Nord,LB-AS,governorate,,503.4,650,650,3,Asia/Beirut,FALSE,1422236241
Aandqet,Aandqet,Aanndaqatt|‘Andqit|Andakit|Andeket|‘Andaqat|‘Andaqah,34.5867,36.3050,Lebanon,LB,LBN,Aakkâr,Aakkar,LB-AK,governorate,,87.8,620,620,3,Asia/Beirut,FALSE,1422780406
"Mâr Toûma","Mar Touma","Mār Tūmā",34.5111,36.0283,Lebanon,LB,LBN,Aakkâr,Aakkar,LB-AK,governorate,,268.6,607,607,3,Asia/Beirut,FALSE,1422018807
"El Ghâbât","El Ghabat","Ghabat|Al Ghābāt",34.0803,35.8735,Lebanon,LB,LBN,Mont-Liban,Mont-Liban,LB-JL,governorate,,128.3,600,600,4,Asia/Beirut,FALSE,1422523712
"Aamâret el Bikât","Aamaret el Bikat","Aamâr el Bikât|Aamâr el Beïkâte|‘Amār al Baykāt",34.6083,36.1639,Lebanon,LB,LBN,Aakkâr,Aakkar,LB-AK,governorate,,133.7,512,512,4,Asia/Beirut,FALSE,1422203460
"Deïr el Aachâyer","Deir el Aachayer","Deir el Ashayir|Deir el Achair|Dayr al ‘Ashā’ir|Dayr al Af Ayer|Deir el-‘Ashayer|Deïr el Aachaïr|Dayr al ‘Ashāyir",33.5892,36.0192,Lebanon,LB,LBN,Béqaa,Beqaa,LB-BI,governorate,,44.5,500,500,3,Asia/Beirut,FALSE,1422632615
Saïssoûq,Saissouq,Saysūq,34.4889,36.0525,Lebanon,LB,LBN,Aakkâr,Aakkar,LB-AK,governorate,,63.6,470,470,3,Asia/Beirut,FALSE,1422802806
"Ouâdi el Haour","Ouadi el Haour","Wādī al Ḩawr|Beit el-Haush|El Haouch",34.6089,36.1547,Lebanon,LB,LBN,Aakkâr,Aakkar,LB-AK,governorate,,539.7,394,394,3,Asia/Beirut,FALSE,1422291427
"Mazraat en Nahr","Mazraat en Nahr","Beïn enn Nahraïne|Bayn an Nahrayn|Mazra‘at an Nahr",34.2840,35.9186,Lebanon,LB,LBN,Liban-Nord,Liban-Nord,LB-AS,governorate,,294.5,378,378,3,Asia/Beirut,FALSE,1422170620
"Kroûm Aarab","Kroum Aarab","Kurūm al ‘Arab",34.5550,36.0917,Lebanon,LB,LBN,Aakkâr,Aakkar,LB-AK,governorate,,647.4,369,369,3,Asia/Beirut,FALSE,1422735465
"Dâr Chmizzîne","Dar Chmizzine","Dar Shmizzeen|Dār Shmizzīn|Dâr Chmezzîne|Dār Bishmazīn|Dār Shimzīn",34.2840,35.7834,Lebanon,LB,LBN,Liban-Nord,Liban-Nord,LB-AS,governorate,,310.2,325,325,3,Asia/Beirut,FALSE,1422110818
Chamaa,Chamaa,"Ash Sham‘ah|Shama‘|Sham‘",33.1456,35.2081,Lebanon,LB,LBN,Liban-Sud,Liban-Sud,LB-JA,governorate,,192.1,301,301,3,Asia/Beirut,FALSE,1422538011
"Mazraat Bani Saab","Mazraat Bani Saab","Mazra‘at Banī Şa‘b",34.2475,35.8839,Lebanon,LB,LBN,Liban-Nord,Liban-Nord,LB-AS,governorate,,119.6,230,230,4,Asia/Beirut,FALSE,1422350957
Sharbila,Sharbila,Charbîla,34.5833,36.1461,Lebanon,LB,LBN,Aakkâr,Aakkar,LB-AK,governorate,,40.5,210,210,3,Asia/Beirut,FALSE,1422141345
Barbara,Barbara,El-Birbarah|Barbārah|Birbarah,34.5728,36.1883,Lebanon,LB,LBN,Aakkâr,Aakkar,LB-AK,governorate,,176.5,203,203,4,Asia/Beirut,FALSE,1422943808
Boussît,Boussit,Bouseet|Būsīţ|Boûssîte,34.4380,35.9264,Lebanon,LB,LBN,Liban-Nord,Liban-Nord,LB-AS,governorate,,121.1,198,198,4,Asia/Beirut,FALSE,1422138484
"Kfar Chakhna","Kfar Chakhna","Kafr Shikhnā",34.4000,35.9000,Lebanon,LB,LBN,Liban-Nord,Liban-Nord,LB-AS,governorate,,86.4,100,100,4,Asia/Beirut,FALSE,1422793492
"Aïn Aakrîne","Ain Aakrine","‘Ayn ‘Ikrīn",34.2856,35.8467,Lebanon,LB,LBN,Liban-Nord,Liban-Nord,LB-AS,governorate,,82.6,96,96,4,Asia/Beirut,FALSE,1422925865
"El Kroum","El Kroum","Al Kurūm",33.7878,35.5263,Lebanon,LB,LBN,Mont-Liban,Mont-Liban,LB-JL,governorate,,1642.3,,,3,Asia/Beirut,FALSE,1422000033
"Er Ramtânîyé","Er Ramtaniye","Ar Ramtānīyah",33.8361,35.8239,Lebanon,LB,LBN,Béqaa,Beqaa,LB-BI,governorate,,1.4,,,5,Asia/Beirut,FALSE,1422651656
"Rejm Beït Khalaf","Rejm Beit Khalaf",,34.6194,36.3906,Lebanon,LB,LBN,Aakkâr,Aakkar,LB-AK,governorate,,243.6,,,3,Asia/Beirut,FALSE,1422353997
"Qalaat Tabboûch","Qalaat Tabbouch","Qal‘at Ţabbūsh",33.6225,35.4708,Lebanon,LB,LBN,Mont-Liban,Mont-Liban,LB-JL,governorate,,1894.6,,,3,Asia/Beirut,FALSE,1422971242
"Zouq el Kharab","Zouq el Kharab","Zūq al Kharāb",33.9419,35.6103,Lebanon,LB,LBN,Mont-Liban,Mont-Liban,LB-JL,governorate,,7285.9,,,2,Asia/Beirut,FALSE,1422469217
"Aïn el Hânoût","Ain el Hanout","‘Ayn al Ḩānūt",34.0708,35.7250,Lebanon,LB,LBN,Mont-Liban,Mont-Liban,LB-JL,governorate,,402.3,,,3,Asia/Beirut,FALSE,1422569275
Srahmoul,Srahmoul,Sraḩmūl|Saraḩmūl,33.7711,35.5303,Lebanon,LB,LBN,Mont-Liban,Mont-Liban,LB-JL,governorate,,683.5,,,3,Asia/Beirut,FALSE,1422000001
Bkâssîne,Bkassine,"Bkesine|Bkāsīn|Nahr el Besri|Bakāssīn",33.5669,35.5778,Lebanon,LB,LBN,Liban-Sud,Liban-Sud,LB-JA,governorate,,1281.6,,,3,Asia/Beirut,FALSE,1422549424
"Herqâne Aïnab","Herqane Ainab","Ḩarqān ‘Aynābah",33.7603,35.5433,Lebanon,LB,LBN,Mont-Liban,Mont-Liban,LB-JL,governorate,,692.0,,,3,Asia/Beirut,FALSE,1422323131
Lâssa,Lassa,Lāsā,34.0761,35.8600,Lebanon,LB,LBN,Mont-Liban,Mont-Liban,LB-JL,governorate,,20.5,,,3,Asia/Beirut,FALSE,1422643611
"Haï el Baalbakié","Hai el Baalbakie","Ḩayy al Ba‘labakkīyah|Ḩayy al Ba‘lbakkīyah",34.0869,35.6503,Lebanon,LB,LBN,Mont-Liban,Mont-Liban,LB-JL,governorate,,572.6,,,3,Asia/Beirut,FALSE,1422981417
Bestiyât,Bestiyat,Bestiâs|Bistāt|Bathiyyāt|Bathtīyāt,33.2893,35.3582,Lebanon,LB,LBN,Liban-Sud,Liban-Sud,LB-JA,governorate,,679.8,,,3,Asia/Beirut,FALSE,1422059247
"Haql el Jâmeaa","Haql el Jameaa","Ḩaql al Jāmi‘",34.2019,36.3122,Lebanon,LB,LBN,Baalbek-Hermel,Baalbek-Hermel,LB-BH,governorate,,49.4,,,4,Asia/Beirut,FALSE,1422266987
Jouaïya,Jouaiya,Jwayyā|Juwayyā,33.2333,35.3333,Lebanon,LB,LBN,Liban-Sud,Liban-Sud,LB-JA,governorate,,1893.3,,,3,Asia/Beirut,FALSE,1422515877
Insârîyé,Insariye,"Inşārīyah|Insariyah|Innsârîyé|Al Inşārīyah|El-Insariyah",33.4167,35.2833,Lebanon,LB,LBN,Liban-Sud,Liban-Sud,LB-JA,governorate,,1135.6,,,3,Asia/Beirut,FALSE,1422707639
"Ej Jdîdé","Ej Jdide","Jdaïdé|Ej Jdaïde|El-Jdeidah|Al Judaydah|Al Jdaydih",34.5339,36.0678,Lebanon,LB,LBN,Aakkâr,Aakkar,LB-AK,governorate,,1396.3,,,3,Asia/Beirut,FALSE,1422043842
"Mrâh Semaane","Mrah Semaane",,34.1792,36.1536,Lebanon,LB,LBN,Baalbek-Hermel,Baalbek-Hermel,LB-BH,governorate,,98.3,,,4,Asia/Beirut,FALSE,1422459124
"Hâret el Faouqa","Haret el Faouqa","Ḩārat al Fawqā",34.2422,36.3153,Lebanon,LB,LBN,Baalbek-Hermel,Baalbek-Hermel,LB-BH,governorate,,212.2,,,3,Asia/Beirut,FALSE,1422819323
Hidâb,Hidab,"Heedab|Ḩaydāb|Haïdaba|Haïdab|Haï Debla|Hidāb",33.5269,35.5289,Lebanon,LB,LBN,Liban-Sud,Liban-Sud,LB-JA,governorate,,369.0,,,3,Asia/Beirut,FALSE,1422197835
Bouryâne,Bouryane,Būryān,34.1733,35.9025,Lebanon,LB,LBN,Liban-Nord,Liban-Nord,LB-AS,governorate,,98.3,,,4,Asia/Beirut,FALSE,1422498371
Bikfaya,Bikfaya,Bikfeiya|Bekfeya|Bikfa|Bikfaya|Bikfayyā,33.9167,35.6833,Lebanon,LB,LBN,Mont-Liban,Mont-Liban,LB-JL,governorate,,1965.9,,,3,Asia/Beirut,FALSE,1422015954
"El Hemmâr","El Hemmar","Al Ḩammār",33.8667,35.8958,Lebanon,LB,LBN,Béqaa,Beqaa,LB-BI,governorate,,433.2,,,3,Asia/Beirut,FALSE,1422074734
"Mazraat Khaïzarâne","Mazraat Khaizarane","Mazra‘at al Khayzarān|El-Kheizaran|Mazra‘at Khayzarān",33.4454,35.2783,Lebanon,LB,LBN,Liban-Sud,Liban-Sud,LB-JA,governorate,,3415.7,,,2,Asia/Beirut,FALSE,1422597706
Berzqaïn,Berzqain,Barzaqīn|Barzaqayn,34.2173,35.6579,Lebanon,LB,LBN,Liban-Nord,Liban-Nord,LB-AS,governorate,,6830.2,,,2,Asia/Beirut,FALSE,1422433082
"Ez Zillaïqât","Ez Zillaiqat","Az Zullayqāt",34.0197,35.6842,Lebanon,LB,LBN,Mont-Liban,Mont-Liban,LB-JL,governorate,,2215.9,,,2,Asia/Beirut,FALSE,1422595851
"El Qnaïtra","El Qnaitra","Al Qunayţirah",33.9256,35.6558,Lebanon,LB,LBN,Mont-Liban,Mont-Liban,LB-JL,governorate,,2583.0,,,2,Asia/Beirut,FALSE,1422976506
Cheïkhlar,Cheikhlar,"Chikhlâr|Esh-Sheikh Lar|Shaykhlar",34.6211,36.2731,Lebanon,LB,LBN,Aakkâr,Aakkar,LB-AK,governorate,,164.3,,,4,Asia/Beirut,FALSE,1422423378
"Kâf el Malloûl","Kaf el Malloul","Kāf al Mallūl|Kahf al Mallūl",34.3515,35.9567,Lebanon,LB,LBN,Liban-Nord,Liban-Nord,LB-AS,governorate,,785.2,,,3,Asia/Beirut,FALSE,1422266736
"Er Rafîd","Er Rafid","Ar Rafīd",33.5719,35.8169,Lebanon,LB,LBN,Béqaa,Beqaa,LB-BI,governorate,,509.5,,,3,Asia/Beirut,FALSE,1422293576
"Mâr Yoûssef","Mar Youssef","Mār Yūsuf",34.2614,35.7028,Lebanon,LB,LBN,Liban-Nord,Liban-Nord,LB-AS,governorate,,976.7,,,3,Asia/Beirut,FALSE,1422500015
Sebrîne,Sebrine,Sibrīn,34.1106,35.7097,Lebanon,LB,LBN,Mont-Liban,Mont-Liban,LB-JL,governorate,,52.4,,,4,Asia/Beirut,FALSE,1422134786
Qoubbeyaa,Qoubbeyaa,Qibbay‘|Qubbay‘,33.8136,35.6964,Lebanon,LB,LBN,Mont-Liban,Mont-Liban,LB-JL,governorate,,3302.6,,,2,Asia/Beirut,FALSE,1422570918
"El Khiâm","El Khiam","Al Khayyām",33.7067,35.4500,Lebanon,LB,LBN,Mont-Liban,Mont-Liban,LB-JL,governorate,,270.0,,,3,Asia/Beirut,FALSE,1422589295
"Es Souâné","Es Souane","Aş Şawwānah",33.9917,35.7308,Lebanon,LB,LBN,Mont-Liban,Mont-Liban,LB-JL,governorate,,435.3,,,3,Asia/Beirut,FALSE,1422118573
"El Maanîyé","El Maaniye","Al Ma‘nīyah|Ma‘nīyah",33.6309,35.4483,Lebanon,LB,LBN,Mont-Liban,Mont-Liban,LB-JL,governorate,,88.3,,,4,Asia/Beirut,FALSE,1422055149
"El Bâloûaa","El Balouaa","Al Bālū‘",34.2558,36.1258,Lebanon,LB,LBN,Baalbek-Hermel,Baalbek-Hermel,LB-BH,governorate,,46.4,,,4,Asia/Beirut,FALSE,1422487953
Qsarnaba,Qsarnaba,"Qaşr Nabā",33.9144,35.9894,Lebanon,LB,LBN,Baalbek-Hermel,Baalbek-Hermel,LB-BH,governorate,,1101.1,,,3,Asia/Beirut,FALSE,1422319637
"Deïr Aïn ej Jaouzé","Deir Ain ej Jaouze","Deïr Aïn ej Jaouzé|Deir ‘Ain el-Janzah|Dayr ‘Ayn al Jawzah",33.5964,35.6908,Lebanon,LB,LBN,Béqaa,Beqaa,LB-BI,governorate,,17.2,,,4,Asia/Beirut,FALSE,1422071681
Zélhmaya,Zelhmaya,Zilḩmayyā|Zalḩamāyā|Zalḩamayyā,34.0787,35.6626,Lebanon,LB,LBN,Mont-Liban,Mont-Liban,LB-JL,governorate,,575.2,,,3,Asia/Beirut,FALSE,1422384753
"Haret esh Sharqiyé","Haret esh Sharqiye",Sakākī,34.5789,36.2808,Lebanon,LB,LBN,Aakkâr,Aakkar,LB-AK,governorate,,163.1,,,4,Asia/Beirut,FALSE,1422076302
"Qasr el Loujoûj","Qasr el Loujouj","Qaşr al Lajūj",34.0250,36.2483,Lebanon,LB,LBN,Baalbek-Hermel,Baalbek-Hermel,LB-BH,governorate,,46.9,,,4,Asia/Beirut,FALSE,1422052482
Selaâta,Selaata,Sil‘ātā,34.2795,35.6636,Lebanon,LB,LBN,Liban-Nord,Liban-Nord,LB-AS,governorate,,800.5,,,3,Asia/Beirut,FALSE,1422524210
"Jall Bou Haïdar","Jall Bou Haidar","Jall Bū Ḩaydar",33.7097,35.4508,Lebanon,LB,LBN,Mont-Liban,Mont-Liban,LB-JL,governorate,,328.3,,,3,Asia/Beirut,FALSE,1422207739
"El Borj","El Borj","Al Burj",33.1203,35.1339,Lebanon,LB,LBN,Liban-Sud,Liban-Sud,LB-JA,governorate,,458.3,,,3,Asia/Beirut,FALSE,1422452243
"En Naqbé","En Naqbe","An Naqbah",33.8083,35.8369,Lebanon,LB,LBN,Béqaa,Beqaa,LB-BI,governorate,,1220.8,,,3,Asia/Beirut,FALSE,1422919063
"El Fâqaâ","El Faqaa","Al Fāqi‘ah",33.4572,35.8183,Lebanon,LB,LBN,Béqaa,Beqaa,LB-BI,governorate,,164.6,,,4,Asia/Beirut,FALSE,1422715287
Maasrîti,Maasriti,Ma‘şrītī|Ma‘şarītī,33.7483,35.6347,Lebanon,LB,LBN,Mont-Liban,Mont-Liban,LB-JL,governorate,,1043.9,,,3,Asia/Beirut,FALSE,1422569279
"El Borj","El Borj","Al Burj",33.9189,35.7389,Lebanon,LB,LBN,Mont-Liban,Mont-Liban,LB-JL,governorate,,1981.1,,,3,Asia/Beirut,FALSE,1422357419
"El Borj","El Borj","Al Burj",34.1406,35.8556,Lebanon,LB,LBN,Mont-Liban,Mont-Liban,LB-JL,governorate,,92.8,,,4,Asia/Beirut,TRUE,1422413026
"Er Raboué","Er Raboue","Ar Rābiyah|Er Râbié|Ar Rabwah",33.9144,35.6094,Lebanon,LB,LBN,Mont-Liban,Mont-Liban,LB-JL,governorate,,4131.8,,,2,Asia/Beirut,FALSE,1422124728
Mchîkha,Mchikha,Mshīkhā|Mashīkhā,33.8869,35.7461,Lebanon,LB,LBN,Mont-Liban,Mont-Liban,LB-JL,governorate,,315.9,,,3,Asia/Beirut,FALSE,1422070900
"Haret el Maabad","Haret el Maabad","Ḩārat al Ma‘bad",34.2239,35.6614,Lebanon,LB,LBN,Liban-Nord,Liban-Nord,LB-AS,governorate,,4685.2,,,2,Asia/Beirut,FALSE,1422723072
Aanqoûn,Aanqoun,"Ain Qoun|‘Ankūn|‘Anqūn",33.4989,35.4286,Lebanon,LB,LBN,Liban-Sud,Liban-Sud,LB-JA,governorate,,1221.3,,,3,Asia/Beirut,FALSE,1422288694
Malhoûn,Malhoun,Malḩūn,34.1436,35.7011,Lebanon,LB,LBN,Mont-Liban,Mont-Liban,LB-JL,governorate,,123.4,,,4,Asia/Beirut,FALSE,1422708590
Afqa,Afqa,Afka|Afqā,34.0692,35.8861,Lebanon,LB,LBN,Mont-Liban,Mont-Liban,LB-JL,governorate,,10.9,,,4,Asia/Beirut,FALSE,1422898910
"El Biâra","El Biara",Kharḩal|Karhel,34.1881,35.9050,Lebanon,LB,LBN,Liban-Nord,Liban-Nord,LB-AS,governorate,,467.2,,,3,Asia/Beirut,FALSE,1422860754
"El Mèghrâq","El Meghraq","El Mighraq|Al Mighrāq|El Moqrâq",34.6103,36.0183,Lebanon,LB,LBN,Aakkâr,Aakkar,LB-AK,governorate,,241.9,,,3,Asia/Beirut,FALSE,1422342315
Nahlé,Nahle,Naḩlah,34.0583,36.2994,Lebanon,LB,LBN,Baalbek-Hermel,Baalbek-Hermel,LB-BH,governorate,,44.8,,,4,Asia/Beirut,FALSE,1422696061
"El Qoussaïr","El Qoussair","El-Qseir|Al Quşayr",33.2928,35.4550,Lebanon,LB,LBN,Nabatîyé,Nabatiye,LB-NA,governorate,,55.2,,,4,Asia/Beirut,FALSE,1422190931
"Aarîd en Naas","Aarid en Naas","‘Arīḑ an Na‘ş",34.1011,35.8511,Lebanon,LB,LBN,Mont-Liban,Mont-Liban,LB-JL,governorate,,155.1,,,4,Asia/Beirut,FALSE,1422435817
"Bhamdoûn el Mhatta","Bhamdoun el Mhatta","Bhamdoûn|Bḩamdūn al Maḩaţţah",33.8086,35.6597,Lebanon,LB,LBN,Mont-Liban,Mont-Liban,LB-JL,governorate,,161.9,,,4,Asia/Beirut,FALSE,1422816671
"Kfar Hatna","Kfar Hatna","Aartez|Kafr Ḩatnā",34.2833,35.7500,Lebanon,LB,LBN,Liban-Nord,Liban-Nord,LB-AS,governorate,,1408.6,,,3,Asia/Beirut,FALSE,1422969637
"Deir Baba","Deir Baba","Deir Beba|Dayr Bābā",33.6969,35.5256,Lebanon,LB,LBN,Mont-Liban,Mont-Liban,LB-JL,governorate,,1777.5,,,3,Asia/Beirut,FALSE,1422491892
"Mazraat Aabboûdîyé","Mazraat Aabboudiye","Mazra‘at ‘Abbūdīyah",33.5066,35.3638,Lebanon,LB,LBN,Liban-Sud,Liban-Sud,LB-JA,governorate,,2821.2,,,2,Asia/Beirut,FALSE,1422593588
"El Mtollé","El Mtolle","El-Mtillah|Al Muţaylah|Al Mţullah|Al Muţillah",33.6108,35.5408,Lebanon,LB,LBN,Mont-Liban,Mont-Liban,LB-JL,governorate,,325.3,,,3,Asia/Beirut,FALSE,1422707384
"El Mtollé","El Mtolle","Al Mţullah",34.1089,35.7500,Lebanon,LB,LBN,Mont-Liban,Mont-Liban,LB-JL,governorate,,213.9,,,3,Asia/Beirut,TRUE,1422292913
Rmaïlé,Rmaile,"Ar Rumayl",33.8319,35.6186,Lebanon,LB,LBN,Mont-Liban,Mont-Liban,LB-JL,governorate,,1901.3,,,3,Asia/Beirut,FALSE,1422070609
"El Mghâr","El Mghar","Al Maghār",33.4064,35.3245,Lebanon,LB,LBN,Liban-Sud,Liban-Sud,LB-JA,governorate,,615.1,,,3,Asia/Beirut,FALSE,1422815419
Maachoûq,Maachouq,Ma‘shūq,33.2685,35.2241,Lebanon,LB,LBN,Liban-Sud,Liban-Sud,LB-JA,governorate,,15296.8,,,2,Asia/Beirut,FALSE,1422203416
Harf,Harf,"Al Ḩarf",34.0372,35.6602,Lebanon,LB,LBN,Mont-Liban,Mont-Liban,LB-JL,governorate,,596.4,,,3,Asia/Beirut,FALSE,1422466400
Qarhaïya,Qarhaiya,Qarḩayyā|Ar’Haiya,34.4428,36.0789,Lebanon,LB,LBN,Liban-Nord,Liban-Nord,LB-AS,governorate,,455.3,,,3,Asia/Beirut,FALSE,1422603494
"Ed Dnaïbé","Ed Dnaibe","Edh-Dhneibah|Dnaïbé|Adh Dhunaybah|Dnaybih|Ad Dunaybah",33.4656,35.7450,Lebanon,LB,LBN,Nabatîyé,Nabatiye,LB-NA,governorate,,134.5,,,4,Asia/Beirut,FALSE,1422926749
Kouaïkhât,Kouaikhat,Kuwaykhāt|El-Kweikhat,34.5750,36.0897,Lebanon,LB,LBN,Aakkâr,Aakkar,LB-AK,governorate,,605.2,,,3,Asia/Beirut,FALSE,1422311550
Korraïti,Korraiti,Qirrayţah,34.2939,36.3192,Lebanon,LB,LBN,Baalbek-Hermel,Baalbek-Hermel,LB-BH,governorate,,4.2,,,5,Asia/Beirut,FALSE,1422462915
Hidchêt,Hidchet,Ḩidshat|Ḩidshāt,34.0552,35.7379,Lebanon,LB,LBN,Mont-Liban,Mont-Liban,LB-JL,governorate,,124.7,,,4,Asia/Beirut,FALSE,1422335812
Thoûm,Thoum,Tuḩūm|Tḩūm,34.2118,35.6573,Lebanon,LB,LBN,Liban-Nord,Liban-Nord,LB-AS,governorate,,1082.2,,,3,Asia/Beirut,FALSE,1422241415
"Aïn es Sihha","Ain es Sihha","‘Ayn aş Şiḩḩah",33.8392,35.7519,Lebanon,LB,LBN,Mont-Liban,Mont-Liban,LB-JL,governorate,,534.4,,,3,Asia/Beirut,FALSE,1422418372
"Ez Zaaroûrîyé","Ez Zaarouriye","Ez Za‘rouriyah|El Zaarouiyé|Az Zu‘rūrīyah|Az Za‘rūrīyah",33.6147,35.5197,Lebanon,LB,LBN,Mont-Liban,Mont-Liban,LB-JL,governorate,,992.9,,,3,Asia/Beirut,FALSE,1422539566
"Mazraat es Safâri","Mazraat es Safari","Mazra‘at aş Şafārī",33.4767,35.4445,Lebanon,LB,LBN,Nabatîyé,Nabatiye,LB-NA,governorate,,1146.9,,,3,Asia/Beirut,FALSE,1422090923
"El Aïn","El Ain","Al ‘Ayn",34.2258,36.3781,Lebanon,LB,LBN,Baalbek-Hermel,Baalbek-Hermel,LB-BH,governorate,,1625.4,,,3,Asia/Beirut,FALSE,1422038550
"Tall Soûghâ","Tall Sougha","Bajjâjé|Tall Şūghā",34.2250,36.3361,Lebanon,LB,LBN,Baalbek-Hermel,Baalbek-Hermel,LB-BH,governorate,,170.1,,,4,Asia/Beirut,FALSE,1422657504
"Kfar Dajjâl","Kfar Dajjal","Kafr Dijjāl|Kafr Dajjāl",33.3445,35.4369,Lebanon,LB,LBN,Nabatîyé,Nabatiye,LB-NA,governorate,,482.6,,,3,Asia/Beirut,FALSE,1422197306
Chikhnaïya,Chikhnaiya,Shikhnayyā,34.1142,35.7675,Lebanon,LB,LBN,Mont-Liban,Mont-Liban,LB-JL,governorate,,132.5,,,4,Asia/Beirut,FALSE,1422264668
"Beït Lahia","Beit Lahia","Bayt Lahyā|Bayt Lahiyah",33.4833,35.8019,Lebanon,LB,LBN,Béqaa,Beqaa,LB-BI,governorate,,192.9,,,3,Asia/Beirut,FALSE,1422533589
Bhannîne,Bhannine,Bhanneen|Bahamine|Bḩannīn,33.5825,35.5978,Lebanon,LB,LBN,Liban-Sud,Liban-Sud,LB-JA,governorate,,266.0,,,3,Asia/Beirut,FALSE,1422508791
"El Baqsi","El Baqsi","Baqsah|Al Baqsī",33.6917,35.4443,Lebanon,LB,LBN,Mont-Liban,Mont-Liban,LB-JL,governorate,,82.0,,,4,Asia/Beirut,FALSE,1422879304
"Mrâh Hqâb en Najjâr","Mrah Hqab en Najjar","Marāḩ Ḩiqāb an Najjār",34.3358,36.3694,Lebanon,LB,LBN,Baalbek-Hermel,Baalbek-Hermel,LB-BH,governorate,,174.2,,,4,Asia/Beirut,FALSE,1422728155
"El Aammariyé","El Aammariye","Al ‘Amārīyah|El Asmmariyé|Aammârîye|Al ‘Ammārīyah",33.8847,35.5792,Lebanon,LB,LBN,Mont-Liban,Mont-Liban,LB-JL,governorate,,16332.4,,,2,Asia/Beirut,FALSE,1422017130
"Aïta ech Chaab","Aita ech Chaab","‘Aita esh-Sha‘b|Aïta Chaab|‘Aytā ash Sha‘b",33.0972,35.3344,Lebanon,LB,LBN,Nabatîyé,Nabatiye,LB-NA,governorate,,549.8,,,3,Asia/Beirut,FALSE,1422053670
"El Bardé","El Barde","El Bardah|Bardé|Al Bāridah|El Baride",34.5978,36.2583,Lebanon,LB,LBN,Aakkâr,Aakkar,LB-AK,governorate,,47.0,,,4,Asia/Beirut,FALSE,1422799483
Nasriyé,Nasriye,"En-Nasriyyé|An Nāşirīyah",34.6789,36.3325,Lebanon,LB,LBN,Aakkâr,Aakkar,LB-AK,governorate,,80.4,,,4,Asia/Beirut,FALSE,1422663644
Qachlaq,Qachlaq,Qushluq,34.6172,36.1550,Lebanon,LB,LBN,Aakkâr,Aakkar,LB-AK,governorate,,86.0,,,4,Asia/Beirut,FALSE,1422561679
"Deïr Siriane","Deir Siriane","Deïr Siriân|Dayr as Siryān|Dayr Siryān",33.2908,35.5064,Lebanon,LB,LBN,Nabatîyé,Nabatiye,LB-NA,governorate,,527.2,,,3,Asia/Beirut,FALSE,1422494423
"El Hrazmîne","El Hrazmine","Al Ḩrāzmīn",34.1253,35.7950,Lebanon,LB,LBN,Mont-Liban,Mont-Liban,LB-JL,governorate,,72.2,,,4,Asia/Beirut,FALSE,1422675972
"Haql Hassan","Haql Hassan","Ḩaql Ḩasan",33.8631,35.6414,Lebanon,LB,LBN,Mont-Liban,Mont-Liban,LB-JL,governorate,,618.1,,,3,Asia/Beirut,FALSE,1422497938
Mrousti,Mrousti,Mristī,33.6225,35.6461,Lebanon,LB,LBN,Mont-Liban,Mont-Liban,LB-JL,governorate,,498.9,,,3,Asia/Beirut,FALSE,1422575204
"Es Sayed","Es Sayed","As Sayyid|Aïn Nouna",34.5064,36.0911,Lebanon,LB,LBN,Aakkâr,Aakkar,LB-AK,governorate,,269.5,,,3,Asia/Beirut,FALSE,1422444041
Hammâra,Hammara,Ḩammārah,33.6486,35.8864,Lebanon,LB,LBN,Béqaa,Beqaa,LB-BI,governorate,,242.6,,,3,Asia/Beirut,FALSE,1422393718
"Ed Dabché","Ed Dabche","Ad Dabshah",33.6580,35.4505,Lebanon,LB,LBN,Mont-Liban,Mont-Liban,LB-JL,governorate,,2095.8,,,2,Asia/Beirut,FALSE,1422667050
"Mrâh el Byâra","Mrah el Byara","Marâh el Biara|Marāḩ al Bi’ārah|Marāḩ al Bayārah",33.1789,35.2991,Lebanon,LB,LBN,Liban-Sud,Liban-Sud,LB-JA,governorate,,287.1,,,3,Asia/Beirut,FALSE,1422113387
Seraaïl,Seraail,Sir‘il,34.2900,35.9117,Lebanon,LB,LBN,Liban-Nord,Liban-Nord,LB-AS,governorate,,342.1,,,3,Asia/Beirut,FALSE,1422812565
"El Masloûkh","El Masloukh","Al Maslūkh",34.2067,35.6453,Lebanon,LB,LBN,Mont-Liban,Mont-Liban,LB-JL,governorate,,127.1,,,4,Asia/Beirut,FALSE,1422302898
Kounine,Kounine,Kūnīn,33.1489,35.4381,Lebanon,LB,LBN,Nabatîyé,Nabatiye,LB-NA,governorate,,35.0,,,4,Asia/Beirut,FALSE,1422535440
"El Majdal","El Majdal",,34.6292,36.3956,Lebanon,LB,LBN,Aakkâr,Aakkar,LB-AK,governorate,,243.6,,,3,Asia/Beirut,FALSE,1422284665
"Dahr el Blâyet","Dahr el Blayet","Ḑahr al Balāyiţ|Dahr el Blait|Ḑahr al Ballīţ|Dahr el Bleet",33.8269,35.8475,Lebanon,LB,LBN,Béqaa,Beqaa,LB-BI,governorate,,989.7,,,3,Asia/Beirut,FALSE,1422566706
"El Qabaa","El Qabaa","Al Qub‘ā|Al Qub‘ah",34.2286,35.7242,Lebanon,LB,LBN,Liban-Nord,Liban-Nord,LB-AS,governorate,,813.8,,,3,Asia/Beirut,FALSE,1422992339
"Ej Jaouz","Ej Jaouz","Al Jawz",34.4617,36.2772,Lebanon,LB,LBN,Baalbek-Hermel,Baalbek-Hermel,LB-BH,governorate,,46.0,,,4,Asia/Beirut,FALSE,1422286182
"El Méaaoul","El Meaaoul","Al Ma‘āwil|Al Mā‘awl",34.1828,35.7297,Lebanon,LB,LBN,Mont-Liban,Mont-Liban,LB-JL,governorate,,104.5,,,4,Asia/Beirut,FALSE,1422355685
"Aïn Ourâj","Ain Ouraj",,34.0219,35.8325,Lebanon,LB,LBN,Mont-Liban,Mont-Liban,LB-JL,governorate,,536.6,,,3,Asia/Beirut,FALSE,1422289243
"Mazraat el Hamra","Mazraat el Hamra","Mazra‘at al Ḩamrā’|El-Hamra|Mazra‘at al Ḩamrā",33.3246,35.4935,Lebanon,LB,LBN,Nabatîyé,Nabatiye,LB-NA,governorate,,118.5,,,4,Asia/Beirut,FALSE,1422700644
"Aaïta ez Zott","Aaita ez Zott","Aïta Zott|Aïta ez Zoutt|‘Ayţazūţ|‘Aytah az Zuţ|‘Aita ez-Zutt|‘Aytā az Zuţţ",33.1747,35.4069,Lebanon,LB,LBN,Nabatîyé,Nabatiye,LB-NA,governorate,,275.0,,,3,Asia/Beirut,FALSE,1422826593
"Aaz el Arab","Aaz el Arab","‘Izz al ‘Arab",33.5200,35.8022,Lebanon,LB,LBN,Béqaa,Beqaa,LB-BI,governorate,,309.2,,,3,Asia/Beirut,FALSE,1422189228
"Bqâq ed Dîne","Bqaq ed Dine","Bqaq ed-Deen|Ed Dîne|Bkak ed Dine|Bqāq ad Dīn|Baqāq ad Dīn",34.0550,35.6572,Lebanon,LB,LBN,Mont-Liban,Mont-Liban,LB-JL,governorate,,2840.6,,,2,Asia/Beirut,FALSE,1422044165
Kafra,Kafra,"Aïn Kafra|‘Ayn Kafrā|Kafrā",33.8600,35.5911,Lebanon,LB,LBN,Mont-Liban,Mont-Liban,LB-JL,governorate,,1886.6,,,3,Asia/Beirut,FALSE,1422184379
Baaloûl,Baaloul,Ba‘loul|Ba‘lūl,33.5897,35.7506,Lebanon,LB,LBN,Béqaa,Beqaa,LB-BI,governorate,,101.3,,,4,Asia/Beirut,FALSE,1422648543
Btâter,Btater,Btātir|Bteiter|Butatir|Batātir,33.7683,35.6319,Lebanon,LB,LBN,Mont-Liban,Mont-Liban,LB-JL,governorate,,444.3,,,3,Asia/Beirut,FALSE,1422690260
Sannoûr,Sannour,"Hmaïré|Sannūr|El-Hmeirih|El Houmeïré",34.0792,35.7314,Lebanon,LB,LBN,Mont-Liban,Mont-Liban,LB-JL,governorate,,269.7,,,3,Asia/Beirut,FALSE,1422617778
Jennâta,Jennata,Jinnātā,33.2861,35.3194,Lebanon,LB,LBN,Liban-Sud,Liban-Sud,LB-JA,governorate,,553.9,,,3,Asia/Beirut,FALSE,1422498699
"Ed Douaïr","Ed Douair","Ad Duwayr|Ed-Dweir|Douaïr|Ad Duwāyir",33.3903,35.4177,Lebanon,LB,LBN,Nabatîyé,Nabatiye,LB-NA,governorate,,2412.4,,,2,Asia/Beirut,FALSE,1422219855
"Tallet ez Zefîr","Tallet ez Zefir","Tallat az Zafīr",34.5756,36.0833,Lebanon,LB,LBN,Aakkâr,Aakkar,LB-AK,governorate,,318.1,,,3,Asia/Beirut,FALSE,1422089350
"Temnîne el Faouqa","Temnine el Faouqa","Timnīn al Fawqā",33.9000,35.9833,Lebanon,LB,LBN,Baalbek-Hermel,Baalbek-Hermel,LB-BH,governorate,,900.8,,,3,Asia/Beirut,FALSE,1422264952
Tarouel,Tarouel,"Al Burj|Tarwil",34.1522,35.6314,Lebanon,LB,LBN,Mont-Liban,Mont-Liban,LB-JL,governorate,,2286.5,,,2,Asia/Beirut,FALSE,1422271467
"El Ghmâq","El Ghmaq","Al Ghimāq",34.1403,35.6364,Lebanon,LB,LBN,Mont-Liban,Mont-Liban,LB-JL,governorate,,2300.9,,,2,Asia/Beirut,FALSE,1422018423
"Es Souâqi","Es Souaqi","As Sawāqī",34.3297,36.0103,Lebanon,LB,LBN,Liban-Nord,Liban-Nord,LB-AS,governorate,,177.9,,,4,Asia/Beirut,FALSE,1422625494
"Es Sâboûnîyé","Es Sabouniye","Aş Şābūnīyah",33.5985,35.4236,Lebanon,LB,LBN,Mont-Liban,Mont-Liban,LB-JL,governorate,,258.6,,,3,Asia/Beirut,FALSE,1422312482
"El Hâzmîyé","El Hazmiye","Al Ḩāzimīyah",34.3906,36.0431,Lebanon,LB,LBN,Liban-Nord,Liban-Nord,LB-AS,governorate,,2586.1,,,2,Asia/Beirut,FALSE,1422385860
Brîssât,Brissat,"El Frîte|El Frit|Braysāt|Buraysāt|Bayt Ra‘d",34.2411,35.9403,Lebanon,LB,LBN,Liban-Nord,Liban-Nord,LB-AS,governorate,,175.0,,,4,Asia/Beirut,FALSE,1422538283
"Jâmeaa Ouâdi Zighrîne","Jameaa Ouadi Zighrine","Jāmi‘ Wādī Zighrīn",34.4228,36.3472,Lebanon,LB,LBN,Baalbek-Hermel,Baalbek-Hermel,LB-BH,governorate,,26.8,,,4,Asia/Beirut,FALSE,1422473198
Zighrîne,Zighrine,Zighrīn,34.4261,36.3528,Lebanon,LB,LBN,Baalbek-Hermel,Baalbek-Hermel,LB-BH,governorate,,26.8,,,4,Asia/Beirut,FALSE,1422893485
"Souâq es Safsâf","Souaq es Safsaf","Aswāq aş Şafşāf",33.8767,35.8200,Lebanon,LB,LBN,Mont-Liban,Mont-Liban,LB-JL,governorate,,10.5,,,4,Asia/Beirut,FALSE,1422849795
Msalla,Msalla,"El Moussaïlha|Al Muşallá",34.5917,36.1597,Lebanon,LB,LBN,Aakkâr,Aakkar,LB-AK,governorate,,14.1,,,4,Asia/Beirut,FALSE,1422840964
"Mrâh en Naouâs","Mrah en Naouas","Marāḩ an Ni‘wās",34.3378,36.3042,Lebanon,LB,LBN,Baalbek-Hermel,Baalbek-Hermel,LB-BH,governorate,,26.8,,,4,Asia/Beirut,FALSE,1422855605
"Serraaïn et Tahta","Serraain et Tahta","Sir‘īn at Taḩtā",33.8861,36.0678,Lebanon,LB,LBN,Baalbek-Hermel,Baalbek-Hermel,LB-BH,governorate,,566.2,,,3,Asia/Beirut,FALSE,1422047318
"Nahr Bennedi","Nahr Bennedi",,34.0653,35.8439,Lebanon,LB,LBN,Mont-Liban,Mont-Liban,LB-JL,governorate,,21.4,,,4,Asia/Beirut,FALSE,1422452537
"Biâder Rachaaïne","Biader Rachaaine","Bayādir Rish‘īn|Bayādir Rash‘īn",34.3925,35.9197,Lebanon,LB,LBN,Liban-Nord,Liban-Nord,LB-AS,governorate,,2725.8,,,2,Asia/Beirut,FALSE,1422903674
"Kfar Hâta","Kfar Hata","Kafr Ḩātā",34.3828,35.8994,Lebanon,LB,LBN,Liban-Nord,Liban-Nord,LB-AS,governorate,,1062.1,,,3,Asia/Beirut,FALSE,1422357590
"Kfar Hâtâ","Kfar Hata","Kafr Ḩātā",34.2847,35.7461,Lebanon,LB,LBN,Liban-Nord,Liban-Nord,LB-AS,governorate,,353.4,,,3,Asia/Beirut,TRUE,1422823872
"Taḩwīţat an Nahr","Tahwitat an Nahr",,33.8667,35.5167,Lebanon,LB,LBN,Mont-Liban,Mont-Liban,LB-JL,governorate,,80402.1,,,2,Asia/Beirut,FALSE,1422618008
"El Hourîyi","El Houriyi","Al Ḩūrīyah",34.2006,35.7119,Lebanon,LB,LBN,Liban-Nord,Liban-Nord,LB-AS,governorate,,586.6,,,3,Asia/Beirut,FALSE,1422630961
"Hâret Sakhr","Haret Sakhr","Ḩārat aş Şakhr|Haret es-Sakhr|Haret Sukhr|Ḩārat Şakhr",33.9883,35.6433,Lebanon,LB,LBN,Mont-Liban,Mont-Liban,LB-JL,governorate,,9802.6,,,2,Asia/Beirut,FALSE,1422279867
Btermâz,Btermaz,Bţurmāz|Btormâz,34.4214,36.0347,Lebanon,LB,LBN,Liban-Nord,Liban-Nord,LB-AS,governorate,,792.8,,,3,Asia/Beirut,FALSE,1422263395
"Mrâh Beït Aassâf","Mrah Beit Aassaf","Marāḩ Bayt ‘Assāf",34.0636,36.0203,Lebanon,LB,LBN,Baalbek-Hermel,Baalbek-Hermel,LB-BH,governorate,,248.8,,,3,Asia/Beirut,FALSE,1422749737
"Maroûs el Barranîyé","Marous el Barraniye","Mārūs al Barrānīyah|Mārūs at Taḩtānīyah|Marūs al Barrānīyah",33.5519,35.4811,Lebanon,LB,LBN,Liban-Sud,Liban-Sud,LB-JA,governorate,,128.3,,,4,Asia/Beirut,FALSE,1422323294
"Haret es Saïdé","Haret es Saide",,33.8214,35.5872,Lebanon,LB,LBN,Mont-Liban,Mont-Liban,LB-JL,governorate,,2815.8,,,2,Asia/Beirut,FALSE,1422368967
"Toût Remmâne","Tout Remmane","Tūt Rummān",34.0836,36.0481,Lebanon,LB,LBN,Baalbek-Hermel,Baalbek-Hermel,LB-BH,governorate,,248.8,,,3,Asia/Beirut,FALSE,1422439113
"El Houaîr","El Houair","Al Ḩuwayr",33.8097,35.5625,Lebanon,LB,LBN,Mont-Liban,Mont-Liban,LB-JL,governorate,,5796.7,,,2,Asia/Beirut,FALSE,1422270872
"Ech Chaouâlîq","Ech Chaoualiq","Ash Shawālīq",33.6903,35.5419,Lebanon,LB,LBN,Mont-Liban,Mont-Liban,LB-JL,governorate,,902.8,,,3,Asia/Beirut,FALSE,1422569793
"Es Slaïyeb","Es Slaiyeb","Aş Şulayyib",33.2914,35.6396,Lebanon,LB,LBN,Nabatîyé,Nabatiye,LB-NA,governorate,,9.4,,,5,Asia/Beirut,FALSE,1422335649
"Ouâdi Bnît","Ouadi Bnit","Wādī Bunayt|Daoura",34.3292,36.3164,Lebanon,LB,LBN,Baalbek-Hermel,Baalbek-Hermel,LB-BH,governorate,,4.3,,,5,Asia/Beirut,FALSE,1422469507
"Haret et Tahta","Haret et Tahta","Ḩārat at Taḩtā",33.8323,35.5880,Lebanon,LB,LBN,Mont-Liban,Mont-Liban,LB-JL,governorate,,2933.9,,,2,Asia/Beirut,FALSE,1422312610
"Mrah Ghanem","Mrah Ghanem","Marāḩ Ghānim",33.8753,35.6175,Lebanon,LB,LBN,Mont-Liban,Mont-Liban,LB-JL,governorate,,4547.5,,,2,Asia/Beirut,FALSE,1422789915
Ghbâlé,Ghbale,Ghbalah|Ghebale|Ghibālah,34.0547,35.7222,Lebanon,LB,LBN,Mont-Liban,Mont-Liban,LB-JL,governorate,,745.9,,,3,Asia/Beirut,FALSE,1422693898
Râmât,Ramat,Rāmāt,34.2183,35.7164,Lebanon,LB,LBN,Liban-Nord,Liban-Nord,LB-AS,governorate,,519.6,,,3,Asia/Beirut,FALSE,1422731890
"Côte d’Azar","Cote d'Azar",,33.8636,35.4842,Lebanon,LB,LBN,Mont-Liban,Mont-Liban,LB-JL,governorate,,100375.0,,,2,Asia/Beirut,FALSE,1422146439
"Beït Midlij","Beit Midlij","Bayt Mudlij",34.2158,36.2461,Lebanon,LB,LBN,Baalbek-Hermel,Baalbek-Hermel,LB-BH,governorate,,49.4,,,4,Asia/Beirut,FALSE,1422972336
"Kharâyeb el Aaqabé","Kharayeb el Aaqabe","Kharā’ib al ‘Aqabah",34.2200,36.2775,Lebanon,LB,LBN,Baalbek-Hermel,Baalbek-Hermel,LB-BH,governorate,,99.5,,,4,Asia/Beirut,FALSE,1422112045
"Smâr Jbaïl","Smar Jbail","Smār Jubayl|Samār Jubayl",34.2197,35.6917,Lebanon,LB,LBN,Liban-Nord,Liban-Nord,LB-AS,governorate,,627.8,,,3,Asia/Beirut,FALSE,1422401295
"Khirbet el Aadess","Khirbet el Aadess","El Aayoûn|Khirbat al ‘Adas",33.8806,35.6481,Lebanon,LB,LBN,Mont-Liban,Mont-Liban,LB-JL,governorate,,1483.1,,,3,Asia/Beirut,FALSE,1422192023
"Deïr el Ghazaal","Deir el Ghazaal","Deïr er Razel|Deir el Ghazal|Deïr el Rhazal|Dayr al Ghazāl",33.8264,36.0361,Lebanon,LB,LBN,Béqaa,Beqaa,LB-BI,governorate,,179.9,,,3,Asia/Beirut,FALSE,1422009393
Saïdnâyâ,Saidnaya,Şaydnāyā,34.5897,36.1239,Lebanon,LB,LBN,Aakkâr,Aakkar,LB-AK,governorate,,197.9,,,4,Asia/Beirut,FALSE,1422892278
Hadtoûn,Hadtoun,Hatoun|Ḩadtūn,34.1942,35.7978,Lebanon,LB,LBN,Liban-Nord,Liban-Nord,LB-AS,governorate,,610.8,,,3,Asia/Beirut,FALSE,1422228915
"Ksâret Dahr ech Chîr","Ksaret Dahr ech Chir","Ksārat Ḑahr ash Shīr",34.2464,35.7739,Lebanon,LB,LBN,Liban-Nord,Liban-Nord,LB-AS,governorate,,529.9,,,3,Asia/Beirut,FALSE,1422245452
"Es Safrâ","Es Safra","Aş Şafrah|Aş Şafrā’|Es-Safra|Aş Şafrā",34.0375,35.6378,Lebanon,LB,LBN,Mont-Liban,Mont-Liban,LB-JL,governorate,,1989.0,,,3,Asia/Beirut,FALSE,1422993078
"Kfar Zabad","Kfar Zabad","‘Ayn Kafr Zabad|‘Ain Kfarzabad|Aïn Kafer Zabad|Kafr Zabad",33.7583,35.9672,Lebanon,LB,LBN,Béqaa,Beqaa,LB-BI,governorate,,406.3,,,3,Asia/Beirut,FALSE,1422880630
"Ech Chahar","Ech Chahar",,33.8225,35.5847,Lebanon,LB,LBN,Mont-Liban,Mont-Liban,LB-JL,governorate,,2815.8,,,2,Asia/Beirut,FALSE,1422922163
"El Mghaïssel","El Mghaissel","Al Mughaysil",34.0242,35.7600,Lebanon,LB,LBN,Mont-Liban,Mont-Liban,LB-JL,governorate,,185.8,,,4,Asia/Beirut,FALSE,1422324338
"El Majzoub","El Majzoub","Al Majdhūb|Majdūb",33.9011,35.5967,Lebanon,LB,LBN,Mont-Liban,Mont-Liban,LB-JL,governorate,,4453.9,,,2,Asia/Beirut,FALSE,1422398013
"Jall Nachi","Jall Nachi","Jall Nāshī",33.5781,35.5742,Lebanon,LB,LBN,Liban-Sud,Liban-Sud,LB-JA,governorate,,1483.1,,,3,Asia/Beirut,FALSE,1422449360
"Hokr el Koûssé","Hokr el Kousse","Hikr el Khouss‘e|Hekr el Koussa|Ḩukr al Kūsá",34.5922,36.0281,Lebanon,LB,LBN,Aakkâr,Aakkar,LB-AK,governorate,,188.0,,,4,Asia/Beirut,FALSE,1422447171
"El Qrâqef","El Qraqef","Al Qarāqif",34.1575,35.7589,Lebanon,LB,LBN,Mont-Liban,Mont-Liban,LB-JL,governorate,,126.8,,,4,Asia/Beirut,FALSE,1422247441
"Nabi Qâssem","Nabi Qassem","Mazra‘at an Nabī Qāsim|Nabī Qāsim",33.3281,35.2525,Lebanon,LB,LBN,Liban-Sud,Liban-Sud,LB-JA,governorate,,860.5,,,3,Asia/Beirut,FALSE,1422632855
"Mazraat Aarab Soukkar","Mazraat Aarab Soukkar","Mazra‘at ‘Arab Sukkar|Mazra‘at ‘Arab Sukar",33.4852,35.4468,Lebanon,LB,LBN,Liban-Sud,Liban-Sud,LB-JA,governorate,,1516.3,,,3,Asia/Beirut,FALSE,1422722702
"Mazraat ej Joûdîyé","Mazraat ej Joudiye","Mazra‘at al Juwwānīyah|Mazra‘at al Jūdīyah",33.3541,35.2582,Lebanon,LB,LBN,Liban-Sud,Liban-Sud,LB-JA,governorate,,595.8,,,3,Asia/Beirut,FALSE,1422589988
Dmalsâ,Dmalsa,"Damalsâ|El Molsa|Damalşā",34.1503,35.6817,Lebanon,LB,LBN,Mont-Liban,Mont-Liban,LB-JL,governorate,,208.0,,,3,Asia/Beirut,FALSE,1422068433
Aïlout,Ailout,Aïtout|Ailoûte|‘Aylūt,33.8611,35.5783,Lebanon,LB,LBN,Mont-Liban,Mont-Liban,LB-JL,governorate,,4277.8,,,2,Asia/Beirut,FALSE,1422439361
"Maroun er Ras","Maroun er Ras","Mārūn ar Ra’s|Mārūn ar Rās",33.1075,35.4447,Lebanon,LB,LBN,Nabatîyé,Nabatiye,LB-NA,governorate,,59.8,,,4,Asia/Beirut,FALSE,1422424504
Aartez,Aartez,‘Artiz|‘Artez,34.2344,35.7510,Lebanon,LB,LBN,Liban-Nord,Liban-Nord,LB-AS,governorate,,715.8,,,3,Asia/Beirut,FALSE,1422807973
Dâal,Daal,Dā‘il,34.2372,35.7987,Lebanon,LB,LBN,Liban-Nord,Liban-Nord,LB-AS,governorate,,152.5,,,4,Asia/Beirut,FALSE,1422352530
"El Hadet","El Hadet","Hadeth Baalbek|Hadeth|Ḩadath Ba‘albakk|Hadet|Al Ḩadath",33.9994,36.0250,Lebanon,LB,LBN,Baalbek-Hermel,Baalbek-Hermel,LB-BH,governorate,,145.5,,,4,Asia/Beirut,FALSE,1422560057
"Mazraat Dmoûl","Mazraat Dmoul","Mazra‘at Dmūl|Mazra‘at Dumūl|Mazra‘at Damūl",33.3722,35.3661,Lebanon,LB,LBN,Nabatîyé,Nabatiye,LB-NA,governorate,,1272.7,,,3,Asia/Beirut,FALSE,1422359661
"Ouâdi Baanqoûdaïn","Ouadi Baanqoudain","Wādī B‘anqūdīn|Wādī Ba‘anqūdīn|Wādī Ba‘anqūdayn",33.5456,35.4403,Lebanon,LB,LBN,Liban-Sud,Liban-Sud,LB-JA,governorate,,2189.6,,,2,Asia/Beirut,FALSE,1422976712
Blaïqa,Blaiqa,Bulayqah,34.1500,36.1000,Lebanon,LB,LBN,Baalbek-Hermel,Baalbek-Hermel,LB-BH,governorate,,130.0,,,4,Asia/Beirut,FALSE,1422456527
Hâbîl,Habil,Hābīl,34.1494,35.7397,Lebanon,LB,LBN,Mont-Liban,Mont-Liban,LB-JL,governorate,,51.9,,,4,Asia/Beirut,FALSE,1422955752
"Aïn ed Deïr","Ain ed Deir","Ar Rumaylah|‘Ayn ad Dayr",34.1189,35.7833,Lebanon,LB,LBN,Mont-Liban,Mont-Liban,LB-JL,governorate,,72.2,,,4,Asia/Beirut,FALSE,1422880307
"Mazraat ez Zaïnâti","Mazraat ez Zainati","Mazra‘at az Zaynātī",34.3442,35.8711,Lebanon,LB,LBN,Liban-Nord,Liban-Nord,LB-AS,governorate,,317.2,,,3,Asia/Beirut,FALSE,1422517855
"Ez Zîré","Ez Zire","Az Zīrah",34.2389,36.3483,Lebanon,LB,LBN,Baalbek-Hermel,Baalbek-Hermel,LB-BH,governorate,,196.5,,,4,Asia/Beirut,FALSE,1422771930
Touaïté,Touaite,"Et-Tweitah|At Tuwaytah",33.8597,35.8522,Lebanon,LB,LBN,Béqaa,Beqaa,LB-BI,governorate,,50.9,,,4,Asia/Beirut,FALSE,1422944243
Aakfor,Aakfor,‘Ukfur,34.1992,35.8419,Lebanon,LB,LBN,Liban-Nord,Liban-Nord,LB-AS,governorate,,460.2,,,3,Asia/Beirut,FALSE,1422284923
"Ez Zoûq","Ez Zouq","Az Zūq",34.5469,36.0828,Lebanon,LB,LBN,Aakkâr,Aakkar,LB-AK,governorate,,1009.8,,,3,Asia/Beirut,FALSE,1422695899
"El Mrayjé","El Mrayje","Murayjah|Al Murayjah",33.8280,35.5195,Lebanon,LB,LBN,Mont-Liban,Mont-Liban,LB-JL,governorate,,21329.5,,,2,Asia/Beirut,FALSE,1422076748
Rimât,Rimat,Rīmāt,33.5283,35.5094,Lebanon,LB,LBN,Liban-Sud,Liban-Sud,LB-JA,governorate,,193.7,,,4,Asia/Beirut,FALSE,1422734919
"Jouâr el Bouâcheq","Jouar el Bouacheq","Jiwār al Bawāshiq",34.0003,35.7017,Lebanon,LB,LBN,Mont-Liban,Mont-Liban,LB-JL,governorate,,510.0,,,3,Asia/Beirut,FALSE,1422127086
"El Qlaïlé","El Qlaile","Al Qulaylah|Al Qalīlah",33.1981,35.2286,Lebanon,LB,LBN,Liban-Sud,Liban-Sud,LB-JA,governorate,,921.7,,,3,Asia/Beirut,FALSE,1422498946
"Mrah el Habchi","Mrah el Habchi","Marāḩ al Ḩabashī",34.2927,35.7577,Lebanon,LB,LBN,Liban-Nord,Liban-Nord,LB-AS,governorate,,283.9,,,3,Asia/Beirut,FALSE,1422004113
"Mrâh Najîb","Mrah Najib","Marāḩ Najīb",34.0933,36.0681,Lebanon,LB,LBN,Baalbek-Hermel,Baalbek-Hermel,LB-BH,governorate,,145.5,,,4,Asia/Beirut,FALSE,1422867417
"Maqial el Qalaa","Maqial el Qalaa","Miqyal al Qal‘ah",34.2175,36.0917,Lebanon,LB,LBN,Baalbek-Hermel,Baalbek-Hermel,LB-BH,governorate,,50.9,,,4,Asia/Beirut,FALSE,1422905439
"Deïr el Harf","Deir el Harf","Dayr al Ḩarf",33.8481,35.6883,Lebanon,LB,LBN,Mont-Liban,Mont-Liban,LB-JL,governorate,,934.0,,,3,Asia/Beirut,FALSE,1422537726
"Morh el Mnaïtra","Morh el Mnaitra","Murḩ al Munayţirah",34.0769,35.8892,Lebanon,LB,LBN,Mont-Liban,Mont-Liban,LB-JL,governorate,,29.5,,,4,Asia/Beirut,FALSE,1422855185
"Ed Daoussé","Ed Daousse","Ed Dawsah|Ed Daoussé et Barhdâdi|Dawsah|Daousse|Ad Dawsah",34.6000,36.1911,Lebanon,LB,LBN,Aakkâr,Aakkar,LB-AK,governorate,,198.9,,,4,Asia/Beirut,FALSE,1422613219
Bmariam,Bmariam,Bimaryam|Bmaryam,33.8286,35.7236,Lebanon,LB,LBN,Mont-Liban,Mont-Liban,LB-JL,governorate,,1803.0,,,3,Asia/Beirut,FALSE,1422247009
Qattîne,Qattine,Qaţţīn,34.3914,36.0286,Lebanon,LB,LBN,Liban-Nord,Liban-Nord,LB-AS,governorate,,3470.5,,,2,Asia/Beirut,FALSE,1422046802
Harbata,Harbata,,34.2067,36.2647,Lebanon,LB,LBN,Baalbek-Hermel,Baalbek-Hermel,LB-BH,governorate,,49.4,,,3,Asia/Beirut,FALSE,1422657837
"El Fethâné","El Fethane","Al Fatḩān",34.0961,35.7725,Lebanon,LB,LBN,Mont-Liban,Mont-Liban,LB-JL,governorate,,50.7,,,4,Asia/Beirut,FALSE,1422072964
Qorqraïya,Qorqraiya,Qirqrayyā|Qurqurayyā,34.0736,35.8175,Lebanon,LB,LBN,Mont-Liban,Mont-Liban,LB-JL,governorate,,53.5,,,4,Asia/Beirut,FALSE,1422870262
"Haret el Mjadlé","Haret el Mjadle","Ḩārat al Mujādalah",33.8608,35.5278,Lebanon,LB,LBN,Mont-Liban,Mont-Liban,LB-JL,governorate,,36013.9,,,2,Asia/Beirut,FALSE,1422857041
"Haï Mâr Doumît","Hai Mar Doumit","Ḩayy Mār Ḑūmiţ",34.0542,35.6378,Lebanon,LB,LBN,Mont-Liban,Mont-Liban,LB-JL,governorate,,1191.2,,,3,Asia/Beirut,FALSE,1422010645
"El Bqaïaa","El Bqaiaa","Al Buqay‘ah",34.1933,35.7319,Lebanon,LB,LBN,Liban-Nord,Liban-Nord,LB-AS,governorate,,503.4,,,3,Asia/Beirut,FALSE,1422712413
Deddé,Dedde,Diddih|Didde|Diddah,34.3808,35.8009,Lebanon,LB,LBN,Liban-Nord,Liban-Nord,LB-AS,governorate,,929.9,,,3,Asia/Beirut,FALSE,1422770450
"Hrîq el Kfoûr","Hriq el Kfour","Al Kufūr|Ḩarīq al Kufūr",34.0336,35.6956,Lebanon,LB,LBN,Mont-Liban,Mont-Liban,LB-JL,governorate,,856.5,,,3,Asia/Beirut,FALSE,1422229616
"Aïn ed Delbé","Ain ed Delbe","‘Ayn ad Dulbah",34.0294,35.7678,Lebanon,LB,LBN,Mont-Liban,Mont-Liban,LB-JL,governorate,,291.7,,,3,Asia/Beirut,FALSE,1422237256
"Huwwat as Sawḩ","Huwwat as Sawh",,34.3418,36.2403,Lebanon,LB,LBN,Baalbek-Hermel,Baalbek-Hermel,LB-BH,governorate,,18.5,,,4,Asia/Beirut,FALSE,1422999872
"El Qâmoûaa","El Qamouaa","Ar Ruways|Al Qāmū‘",34.1089,35.9036,Lebanon,LB,LBN,Mont-Liban,Mont-Liban,LB-JL,governorate,,7.0,,,5,Asia/Beirut,FALSE,1422588579
"Nâamet el Faouqa","Naamet el Faouqa","Enn Nâamé|An Nā‘imah|En Nâamé|El Naâme|Nā‘imat al Fawqā",33.7472,35.4653,Lebanon,LB,LBN,Mont-Liban,Mont-Liban,LB-JL,governorate,,3483.7,,,2,Asia/Beirut,FALSE,1422372078
"Haouch Beït Ismaïl","Haouch Beit Ismail",,34.4558,36.4844,Lebanon,LB,LBN,Baalbek-Hermel,Baalbek-Hermel,LB-BH,governorate,,348.6,,,3,Asia/Beirut,FALSE,1422760232
Aarîda,Aarida,,34.6672,36.3042,Lebanon,LB,LBN,Aakkâr,Aakkar,LB-AK,governorate,,432.9,,,3,Asia/Beirut,FALSE,1422184777
Mlîkh,Mlikh,Mlīkh,33.4672,35.5536,Lebanon,LB,LBN,Liban-Sud,Liban-Sud,LB-JA,governorate,,0.6,,,3,Asia/Beirut,FALSE,1422732355
"Beit Habchi","Beit Habchi","Bayt Ḩabashī|El Rhâr",34.1536,36.0986,Lebanon,LB,LBN,Baalbek-Hermel,Baalbek-Hermel,LB-BH,governorate,,143.6,,,4,Asia/Beirut,FALSE,1422101571
Ghâboun,Ghaboun,"Ghābūn|El Rhâboûn|Al Ghābūn",33.7822,35.5931,Lebanon,LB,LBN,Mont-Liban,Mont-Liban,LB-JL,governorate,,932.3,,,3,Asia/Beirut,FALSE,1422996400
Silaâ,Silaa,Sil‘ā,33.2542,35.3806,Lebanon,LB,LBN,Liban-Sud,Liban-Sud,LB-JA,governorate,,2131.7,,,2,Asia/Beirut,FALSE,1422494993
Bzaïta,Bzaita,Bzaytā,34.4475,36.0800,Lebanon,LB,LBN,Aakkâr,Aakkar,LB-AK,governorate,,455.3,,,3,Asia/Beirut,FALSE,1422669103
"Noûra el Faouqâ","Noura el Faouqa","Nūrat al Fawqā",34.6206,36.1844,Lebanon,LB,LBN,Aakkâr,Aakkar,LB-AK,governorate,,82.0,,,4,Asia/Beirut,FALSE,1422326985
"Kfar Toun","Kfar Toun","Kafr Tūn",34.5583,36.3592,Lebanon,LB,LBN,Aakkâr,Aakkar,LB-AK,governorate,,46.4,,,4,Asia/Beirut,FALSE,1422925168
"El Machnaqa","El Machnaqa","El Machnaka|Al Mashnaqah",34.0911,35.7728,Lebanon,LB,LBN,Mont-Liban,Mont-Liban,LB-JL,governorate,,90.8,,,4,Asia/Beirut,FALSE,1422678551
Aaïmâr,Aaimar,‘Ammār|‘Aymār,34.3497,35.9683,Lebanon,LB,LBN,Liban-Nord,Liban-Nord,LB-AS,governorate,,254.2,,,3,Asia/Beirut,FALSE,1422163511
"Kfar Roummâne","Kfar Roummane","Kafr Rummān",33.3894,35.5017,Lebanon,LB,LBN,Nabatîyé,Nabatiye,LB-NA,governorate,,867.7,,,3,Asia/Beirut,FALSE,1422217645
"Ed Douâouîr","Ed Douaouir","Ad Dawāwīr",34.2003,35.7303,Lebanon,LB,LBN,Liban-Nord,Liban-Nord,LB-AS,governorate,,553.0,,,3,Asia/Beirut,FALSE,1422409834
Bâdîne,Badine,Bādīn,33.9617,35.7728,Lebanon,LB,LBN,Mont-Liban,Mont-Liban,LB-JL,governorate,,247.1,,,3,Asia/Beirut,FALSE,1422328960
Ketrâne,Ketrane,Qaţrān,34.3836,36.0028,Lebanon,LB,LBN,Liban-Nord,Liban-Nord,LB-AS,governorate,,1157.3,,,3,Asia/Beirut,FALSE,1422044995
"El Aabri","El Aabri","El Lebri|El Aabra|Al ‘Abrah",34.0761,35.7842,Lebanon,LB,LBN,Mont-Liban,Mont-Liban,LB-JL,governorate,,66.2,,,4,Asia/Beirut,FALSE,1422926393
"El Mazraah","El Mazraah","Mazra‘at an Nahrīyah|El Mazraâ",34.5583,36.1503,Lebanon,LB,LBN,Aakkâr,Aakkar,LB-AK,governorate,,253.5,,,3,Asia/Beirut,FALSE,1422437915
"Er Raouda","Er Raouda","Ar Rawḑah",34.4473,35.9794,Lebanon,LB,LBN,Aakkâr,Aakkar,LB-AK,governorate,,305.3,,,3,Asia/Beirut,FALSE,1422141867
"Baïdar er Raml","Baidar er Raml","Beït er Râmel|Beidar er-Raml|Baydar ar Raml|Baydr ar Raml",33.6858,35.5103,Lebanon,LB,LBN,Mont-Liban,Mont-Liban,LB-JL,governorate,,1771.2,,,3,Asia/Beirut,FALSE,1422064009
"Kfar Nabrakh","Kfar Nabrakh","Kafr Nabrakh",33.6983,35.6339,Lebanon,LB,LBN,Mont-Liban,Mont-Liban,LB-JL,governorate,,1050.8,,,3,Asia/Beirut,FALSE,1422039253
Jiblayé,Jiblaye,Jiblay|Jabalī,33.6133,35.6097,Lebanon,LB,LBN,Mont-Liban,Mont-Liban,LB-JL,governorate,,478.4,,,3,Asia/Beirut,FALSE,1422933071
Sarghoûn,Sarghoun,,34.2956,35.8119,Lebanon,LB,LBN,Liban-Nord,Liban-Nord,LB-AS,governorate,,713.3,,,3,Asia/Beirut,FALSE,1422961995
"Haï es Sindiâné","Hai es Sindiane","Ḩayy as Sindiyānah",33.9917,35.7728,Lebanon,LB,LBN,Mont-Liban,Mont-Liban,LB-JL,governorate,,520.7,,,3,Asia/Beirut,FALSE,1422191535
"Mathanet ej Jaaïdîyé","Mathanet ej Jaaidiye","Maţḩanat al Ju‘aydīyah",34.5686,36.0883,Lebanon,LB,LBN,Aakkâr,Aakkar,LB-AK,governorate,,599.4,,,3,Asia/Beirut,FALSE,1422266456
Nîha,Niha,Nīḩā,34.2308,35.8847,Lebanon,LB,LBN,Liban-Nord,Liban-Nord,LB-AS,governorate,,153.0,,,4,Asia/Beirut,FALSE,1422956217
Dfoûn,Dfoun,Dafūn|Dfūn,33.7475,35.5600,Lebanon,LB,LBN,Mont-Liban,Mont-Liban,LB-JL,governorate,,483.7,,,3,Asia/Beirut,FALSE,1422349002
Rmaïla,Rmaila,"Er Rmaïle|Er-Rmeilah|Ar Rumaylah|Rumaylah",34.4117,35.9139,Lebanon,LB,LBN,Liban-Nord,Liban-Nord,LB-AS,governorate,,1460.1,,,3,Asia/Beirut,FALSE,1422825063
"El Breïj","El Breij",,34.4564,36.3853,Lebanon,LB,LBN,Baalbek-Hermel,Baalbek-Hermel,LB-BH,governorate,,353.3,,,3,Asia/Beirut,FALSE,1422022808
"El Harf","El Harf","Al Ḩarf",34.2178,35.6675,Lebanon,LB,LBN,Liban-Nord,Liban-Nord,LB-AS,governorate,,2740.6,,,2,Asia/Beirut,FALSE,1422258505
"El Mansouriyet","El Mansouriyet","El Mansouryet|El Mannsoûrîye|Al Manşūrīyah",33.8581,35.5686,Lebanon,LB,LBN,Mont-Liban,Mont-Liban,LB-JL,governorate,,10205.4,,,2,Asia/Beirut,FALSE,1422888994
Yâtar,Yatar,Yātar|Yāţar,33.1542,35.3303,Lebanon,LB,LBN,Nabatîyé,Nabatiye,LB-NA,governorate,,219.7,,,3,Asia/Beirut,FALSE,1422237787
"Wādī Shuḩrūr as Suflá","Wadi Shuhrur as Sufla",,33.8167,35.5667,Lebanon,LB,LBN,Mont-Liban,Mont-Liban,LB-JL,governorate,,4843.1,,,2,Asia/Beirut,FALSE,1422092765
Nabay,Nabay,Nābayh,33.9000,35.6206,Lebanon,LB,LBN,Mont-Liban,Mont-Liban,LB-JL,governorate,,1572.9,,,3,Asia/Beirut,FALSE,1422586811
"El Ghâbé","El Ghabe","Al Ghābah",33.8828,35.6408,Lebanon,LB,LBN,Mont-Liban,Mont-Liban,LB-JL,governorate,,1725.7,,,3,Asia/Beirut,FALSE,1422348674
"El Ghâbé","El Ghabe","Al Ghābah",33.9458,35.7919,Lebanon,LB,LBN,Mont-Liban,Mont-Liban,LB-JL,governorate,,319.7,,,3,Asia/Beirut,TRUE,1422775222
"Hâret ej Jdîdé","Haret ej Jdide","Hâret ej Jdaïde|Hâret el Jdaïdé|Harat el-Jdeedah|Ḩārat al Jadīdah",34.4142,35.8786,Lebanon,LB,LBN,Liban-Nord,Liban-Nord,LB-AS,governorate,,1592.0,,,3,Asia/Beirut,FALSE,1422108670
"El Hlâlîyé","El Hlaliye","Al Hilālīyah",33.8336,35.6367,Lebanon,LB,LBN,Mont-Liban,Mont-Liban,LB-JL,governorate,,1737.4,,,3,Asia/Beirut,FALSE,1422260202
"El Hsaïne","El Hsaine","Houssaïne|El Hsein|El Hassine|Al Ḩuşayn",34.0503,35.7119,Lebanon,LB,LBN,Mont-Liban,Mont-Liban,LB-JL,governorate,,621.0,,,3,Asia/Beirut,FALSE,1422516620
Qarnaoûn,Qarnaoun,Qarna‘ūn,34.2710,35.6930,Lebanon,LB,LBN,Liban-Nord,Liban-Nord,LB-AS,governorate,,401.2,,,3,Asia/Beirut,FALSE,1422086780
"Râs el Mroûj","Ras el Mrouj","Ra’s al Murūj",33.9108,35.7542,Lebanon,LB,LBN,Mont-Liban,Mont-Liban,LB-JL,governorate,,1995.6,,,3,Asia/Beirut,FALSE,1422560551
"Saqi Rechmaïya","Saqi Rechmaiya","Saqy Rishmayyā|Saqī Rishmayyā",34.1600,35.7975,Lebanon,LB,LBN,Mont-Liban,Mont-Liban,LB-JL,governorate,,15.9,,,4,Asia/Beirut,FALSE,1422093764
"Mazraat el Khraïbé","Mazraat el Khraibe","El-Khreibah|Mazra‘at al Khuraybah",33.4728,35.4575,Lebanon,LB,LBN,Nabatîyé,Nabatiye,LB-NA,governorate,,252.5,,,3,Asia/Beirut,FALSE,1422906800
"Qornet el Marj","Qornet el Marj","Nīḩā|Qurnat al Marj",34.2133,35.8064,Lebanon,LB,LBN,Liban-Nord,Liban-Nord,LB-AS,governorate,,322.3,,,3,Asia/Beirut,FALSE,1422290095
Khaab,Khaab,Kha‘b,34.1272,35.7558,Lebanon,LB,LBN,Mont-Liban,Mont-Liban,LB-JL,governorate,,52.8,,,4,Asia/Beirut,FALSE,1422856381
Bouaydrât,Bouaydrat,"Al Buwaydirāt",33.7625,35.5028,Lebanon,LB,LBN,Mont-Liban,Mont-Liban,LB-JL,governorate,,1013.5,,,3,Asia/Beirut,FALSE,1422194896
"El Hlâlîyé","El Hlaliye","El Aâlié|El Aalyé|Al Hilālīyah",33.5654,35.3947,Lebanon,LB,LBN,Liban-Sud,Liban-Sud,LB-JA,governorate,,16499.1,,,2,Asia/Beirut,FALSE,1422228945
"Aabadiyé ej Jdidé","Aabadiye ej Jdide","‘Abādīyah al Jadīdah",33.8211,35.6136,Lebanon,LB,LBN,Mont-Liban,Mont-Liban,LB-JL,governorate,,2449.2,,,2,Asia/Beirut,FALSE,1422640298
"Oum et Toût","Oum et Tout","Umm Tūtah|Umm at Tūt",33.1128,35.2553,Lebanon,LB,LBN,Liban-Sud,Liban-Sud,LB-JA,governorate,,342.7,,,3,Asia/Beirut,FALSE,1422121345
Hemlâya,Hemlaya,Hamlâya|Ḩimlāyā,33.9389,35.7083,Lebanon,LB,LBN,Mont-Liban,Mont-Liban,LB-JL,governorate,,2226.0,,,2,Asia/Beirut,FALSE,1422997676
"Hâret ej Jdîdé","Haret ej Jdide","Ḩārat al Jadīdah",34.5764,36.0192,Lebanon,LB,LBN,Aakkâr,Aakkar,LB-AK,governorate,,197.0,,,4,Asia/Beirut,FALSE,1422876330
"Ed Dinnaïbé","Ed Dinnaibe",,34.2100,36.3272,Lebanon,LB,LBN,Baalbek-Hermel,Baalbek-Hermel,LB-BH,governorate,,641.1,,,3,Asia/Beirut,FALSE,1422121488
"El Khalel","El Khalel","Al Khalal",34.0644,35.6936,Lebanon,LB,LBN,Mont-Liban,Mont-Liban,LB-JL,governorate,,552.2,,,3,Asia/Beirut,FALSE,1422387041
"Er Rsîf","Er Rsif","Ar Raşīf",34.0211,35.6364,Lebanon,LB,LBN,Mont-Liban,Mont-Liban,LB-JL,governorate,,1998.2,,,3,Asia/Beirut,FALSE,1422465142
"Mrah el Aallayq","Mrah el Aallayq","Marāḩ al ‘Ullayq",34.5533,36.3642,Lebanon,LB,LBN,Aakkâr,Aakkar,LB-AK,governorate,,46.4,,,4,Asia/Beirut,FALSE,1422875536
Ḩsaymā,Hsayma,Hsaïma|Hasaïma,33.8500,35.5500,Lebanon,LB,LBN,Mont-Liban,Mont-Liban,LB-JL,governorate,,10230.0,,,2,Asia/Beirut,FALSE,1422291240
"Deïr ez Zahrâni","Deir ez Zahrani","Dayr az Zahrānī",33.4311,35.4594,Lebanon,LB,LBN,Nabatîyé,Nabatiye,LB-NA,governorate,,1401.6,,,3,Asia/Beirut,FALSE,1422989835
Taliâ,Talia,Ţalyā,33.9361,36.0972,Lebanon,LB,LBN,Baalbek-Hermel,Baalbek-Hermel,LB-BH,governorate,,429.9,,,3,Asia/Beirut,FALSE,1422274996
"El Bayâda","El Bayada",,34.5169,35.9903,Lebanon,LB,LBN,Aakkâr,Aakkar,LB-AK,governorate,,1381.6,,,3,Asia/Beirut,FALSE,1422904521
Aammîq,Aammiq,‘Ammīq|Amnik|‘Amīq,33.7314,35.7890,Lebanon,LB,LBN,Béqaa,Beqaa,LB-BI,governorate,,28.3,,,3,Asia/Beirut,FALSE,1422133687
Aammâtour,Aammatour,Aamâtour|‘Ammatour|Amatur|Ammathur|‘Ammāţūr,33.6425,35.6086,Lebanon,LB,LBN,Mont-Liban,Mont-Liban,LB-JL,governorate,,718.3,,,3,Asia/Beirut,FALSE,1422781318
"Mazraat ez Zaaroûrîyé","Mazraat ez Zaarouriye","Mazra‘at az Zu‘rūrīyah|Mazra‘at al Barghūtīyah|Mazra‘at az Za‘rūrīyah",33.5881,35.4183,Lebanon,LB,LBN,Mont-Liban,Mont-Liban,LB-JL,governorate,,493.0,,,3,Asia/Beirut,FALSE,1422374908
Kfarchima,Kfarchima,"Kafr Shīmā",33.8172,35.5357,Lebanon,LB,LBN,Mont-Liban,Mont-Liban,LB-JL,governorate,,11747.4,,,2,Asia/Beirut,FALSE,1422649802
"Kfar Hatta","Kfar Hatta","Kafr Ḩattay|Kafr Ḩatá|Kafr Ḩattá",33.5025,35.4522,Lebanon,LB,LBN,Liban-Sud,Liban-Sud,LB-JA,governorate,,1980.9,,,3,Asia/Beirut,FALSE,1422689509
Nasrîyé,Nasriye,,34.4469,36.4250,Lebanon,LB,LBN,Baalbek-Hermel,Baalbek-Hermel,LB-BH,governorate,,353.3,,,3,Asia/Beirut,FALSE,1422047423
Nâsrîyé,Nasriye,"En Nasriyah|An Nāşirīyah|Enn Nasrîyé",33.8631,36.0611,Lebanon,LB,LBN,Béqaa,Beqaa,LB-BI,governorate,,290.7,,,3,Asia/Beirut,FALSE,1422576216
"Kaab el Massâr","Kaab el Massar","Ka‘b al Maşşār",33.8047,35.6697,Lebanon,LB,LBN,Mont-Liban,Mont-Liban,LB-JL,governorate,,1409.4,,,3,Asia/Beirut,FALSE,1422230449
"Rasm el Hadeth","Rasm el Hadeth","Rasm al Ḩadath",34.1414,36.2756,Lebanon,LB,LBN,Baalbek-Hermel,Baalbek-Hermel,LB-BH,governorate,,237.2,,,3,Asia/Beirut,FALSE,1422339614
"Aïn ez Zaïtoûné","Ain ez Zaitoune","Aïn Zaitouné|‘Ayn az Zaytūnah",33.9050,35.7436,Lebanon,LB,LBN,Mont-Liban,Mont-Liban,LB-JL,governorate,,611.6,,,3,Asia/Beirut,FALSE,1422919909
"Kfar Haï","Kfar Hai","Kafr Ḩayy",33.7475,35.6383,Lebanon,LB,LBN,Mont-Liban,Mont-Liban,LB-JL,governorate,,1043.9,,,3,Asia/Beirut,FALSE,1422767587
Merjîyât,Merjiyat,Marjiyāt,33.6389,35.4818,Lebanon,LB,LBN,Mont-Liban,Mont-Liban,LB-JL,governorate,,4732.5,,,2,Asia/Beirut,FALSE,1422644818
"Sahret el Qach","Sahret el Qach","Şaḩrat al Qashsh",33.7872,35.8169,Lebanon,LB,LBN,Béqaa,Beqaa,LB-BI,governorate,,1916.5,,,3,Asia/Beirut,FALSE,1422548481
Bouâbiyé,Bouabiye,"Al Bawābīyah",33.8056,35.5017,Lebanon,LB,LBN,Mont-Liban,Mont-Liban,LB-JL,governorate,,3644.1,,,2,Asia/Beirut,FALSE,1422684596
"Es Smâïyé","Es Smaiye","Es-Sma‘iyah|Es Samaqîyé|As Samā‘īyah|As Sammā‘īyah",33.2205,35.2362,Lebanon,LB,LBN,Liban-Sud,Liban-Sud,LB-JA,governorate,,1369.3,,,3,Asia/Beirut,FALSE,1422578575
Haïlâne,Hailane,Heelan|Ḩaylān,34.4292,35.9608,Lebanon,LB,LBN,Liban-Nord,Liban-Nord,LB-AS,governorate,,257.8,,,3,Asia/Beirut,FALSE,1422914908
"Mazraat Sabrïn","Mazraat Sabrin","Mazra‘at Şabrīn",34.0394,35.7305,Lebanon,LB,LBN,Mont-Liban,Mont-Liban,LB-JL,governorate,,337.5,,,3,Asia/Beirut,FALSE,1422009867
Aarnâba,Aarnaba,‘Irnābā|‘Irnabā|‘Arnābah,33.5060,35.4026,Lebanon,LB,LBN,Liban-Sud,Liban-Sud,LB-JA,governorate,,1192.4,,,3,Asia/Beirut,FALSE,1422395586
Harboûna,Harbouna,Herbouna|Harbounah|Ḩarbūnah,34.2406,35.7461,Lebanon,LB,LBN,Liban-Nord,Liban-Nord,LB-AS,governorate,,680.7,,,3,Asia/Beirut,FALSE,1422780553
Khaabîya,Khaabiya,Kha‘bīyā|Kha‘biyā,34.1397,35.7686,Lebanon,LB,LBN,Mont-Liban,Mont-Liban,LB-JL,governorate,,93.1,,,4,Asia/Beirut,FALSE,1422541662
"Haï el Bayâder","Hai el Bayader","Ḩayy al Bayādir",33.8783,35.7992,Lebanon,LB,LBN,Mont-Liban,Mont-Liban,LB-JL,governorate,,10.5,,,4,Asia/Beirut,FALSE,1422214732
"Bois de Boulogne","Bois de Boulogne","Ghābat Būlūnyā",33.9131,35.7369,Lebanon,LB,LBN,Mont-Liban,Mont-Liban,LB-JL,governorate,,2520.7,,,2,Asia/Beirut,FALSE,1422726903
"Haqlet el Baïda",HaqletelBaida,"Ḩaqlat al Bayḑah",34.3875,35.9647,Lebanon,LB,LBN,Liban-Nord,Liban-Nord,LB-AS,governorate,,443.5,,,3,Asia/Beirut,FALSE,1422163206
Aalmâne,Aalmane,‘Ilman|‘Almān,33.3025,35.4711,Lebanon,LB,LBN,Nabatîyé,Nabatiye,LB-NA,governorate,,58.8,,,4,Asia/Beirut,FALSE,1422978191
"Qâteaa el Baaïnîyé","Qateaa el Baainiye","Qāţi‘ al Bu‘aynīyah",34.0311,35.7619,Lebanon,LB,LBN,Mont-Liban,Mont-Liban,LB-JL,governorate,,372.2,,,3,Asia/Beirut,FALSE,1422962983
"Es Siyâr","Es Siyar","Es Seyâne|As Sīyār|As Siyār",33.6913,35.4394,Lebanon,LB,LBN,Mont-Liban,Mont-Liban,LB-JL,governorate,,534.2,,,3,Asia/Beirut,FALSE,1422915762
"El Mazraâ","El Mazraa","Al Mazra‘ah",33.9369,35.6989,Lebanon,LB,LBN,Mont-Liban,Mont-Liban,LB-JL,governorate,,2076.1,,,2,Asia/Beirut,FALSE,1422169172
"El Mazraa","El Mazraa","Al Mazra‘ah",34.0642,35.8489,Lebanon,LB,LBN,Mont-Liban,Mont-Liban,LB-JL,governorate,,21.4,,,4,Asia/Beirut,TRUE,1422398238
Badbhoûn,Badbhoun,Badbahūn|Badayhūn,34.3366,35.7560,Lebanon,LB,LBN,Liban-Nord,Liban-Nord,LB-AS,governorate,,100.8,,,4,Asia/Beirut,FALSE,1422799686
"En Naas","En Naas","An Na‘ş",33.9125,35.6792,Lebanon,LB,LBN,Mont-Liban,Mont-Liban,LB-JL,governorate,,1748.1,,,3,Asia/Beirut,FALSE,1422095887
"Mrâh Aali Mehdi Aallaou","Mrah Aali Mehdi Aallaou","Marāḩ ‘Alī Mahdī ‘Allū",34.3678,36.2772,Lebanon,LB,LBN,Baalbek-Hermel,Baalbek-Hermel,LB-BH,governorate,,24.6,,,4,Asia/Beirut,FALSE,1422113029
"Mrâh el Khaoukh","Mrah el Khaoukh","Marāḩ al Khawkh",34.1903,36.2000,Lebanon,LB,LBN,Baalbek-Hermel,Baalbek-Hermel,LB-BH,governorate,,46.4,,,4,Asia/Beirut,FALSE,1422602769
Shaïlé,Shaile,"As Suhaylah|Suhaylah",33.9561,35.6561,Lebanon,LB,LBN,Mont-Liban,Mont-Liban,LB-JL,governorate,,2348.5,,,2,Asia/Beirut,FALSE,1422678336
"Er Râmoût","Er Ramout","Er Frâmoûte|Ar Rāmūţ",34.1672,35.7119,Lebanon,LB,LBN,Mont-Liban,Mont-Liban,LB-JL,governorate,,244.4,,,3,Asia/Beirut,FALSE,1422464923
"Aïn el Qabou","Ain el Qabou","Aïn el Kabou|‘Ayn al Qabū|‘Ayn al Qabw",33.9392,35.7608,Lebanon,LB,LBN,Mont-Liban,Mont-Liban,LB-JL,governorate,,380.2,,,3,Asia/Beirut,FALSE,1422755622
"El Ghaïda","El Ghaida","Al Ghayḑah",33.8733,35.8197,Lebanon,LB,LBN,Mont-Liban,Mont-Liban,LB-JL,governorate,,10.9,,,4,Asia/Beirut,FALSE,1422567520
Jbâa,Jbaa,Jbā‘|Djebaa|Jabā‘,33.4833,35.5167,Lebanon,LB,LBN,Nabatîyé,Nabatiye,LB-NA,governorate,,660.2,,,3,Asia/Beirut,FALSE,1422273936
"Haï er Rouaïss","Hai er Rouaiss","Ḩayy ar Ru’ays",34.0133,35.7228,Lebanon,LB,LBN,Mont-Liban,Mont-Liban,LB-JL,governorate,,416.3,,,3,Asia/Beirut,FALSE,1422118373
"Jdaïdet Barqâcha","Jdaidet Barqacha","Judaydat Barqāshā",34.3908,35.8442,Lebanon,LB,LBN,Liban-Nord,Liban-Nord,LB-AS,governorate,,974.8,,,3,Asia/Beirut,FALSE,1422606899
Qarsâ,Qarsa,"El Karsa|El Qarsa|Al Qarşā|Qarşā",34.0509,35.6856,Lebanon,LB,LBN,Mont-Liban,Mont-Liban,LB-JL,governorate,,374.9,,,3,Asia/Beirut,FALSE,1422338778
Beaachta,Beaachta,B‘ishtā,34.1578,35.6333,Lebanon,LB,LBN,Mont-Liban,Mont-Liban,LB-JL,governorate,,2286.5,,,2,Asia/Beirut,FALSE,1422637440
"Zighrîne et Tahte","Zighrine et Tahte","Zighrīn at Taḩtā",34.4253,36.3600,Lebanon,LB,LBN,Baalbek-Hermel,Baalbek-Hermel,LB-BH,governorate,,26.8,,,4,Asia/Beirut,FALSE,1422586034
"Joûret Bedrâne","Jouret Bedrane","Jūrat Badrān",34.0617,35.7125,Lebanon,LB,LBN,Mont-Liban,Mont-Liban,LB-JL,governorate,,821.6,,,3,Asia/Beirut,FALSE,1422823529
"Ed Daoura","Ed Daoura","Doura|Dawrā|Dora|Ed Dawrah|Ad Dawrah",33.9000,35.5667,Lebanon,LB,LBN,Mont-Liban,Mont-Liban,LB-JL,governorate,,38073.5,,,2,Asia/Beirut,FALSE,1422297936
"Ed Daoura","Ed Daoura","Ad Dawrah",33.9611,35.6622,Lebanon,LB,LBN,Mont-Liban,Mont-Liban,LB-JL,governorate,,2946.2,,,2,Asia/Beirut,TRUE,1422893176
"Ed Daoura","Ed Daoura","Jesred Djaj|Jeser Djeje|Ad Dawwārah",34.1336,35.6506,Lebanon,LB,LBN,Mont-Liban,Mont-Liban,LB-JL,governorate,,721.5,,,3,Asia/Beirut,TRUE,1422490319
"Aanj en Nahlé","Aanj en Nahle","‘Anj an Naḩlah",33.6775,35.5683,Lebanon,LB,LBN,Mont-Liban,Mont-Liban,LB-JL,governorate,,1774.0,,,3,Asia/Beirut,FALSE,1422207743
Zaaïber,Zaaiber,Z‘aybir|Zu‘aybir,34.1628,35.7031,Lebanon,LB,LBN,Mont-Liban,Mont-Liban,LB-JL,governorate,,196.6,,,4,Asia/Beirut,FALSE,1422939201
"Ez Zarâyeb","Ez Zarayeb","Az Zarā’ib",34.0942,36.0464,Lebanon,LB,LBN,Baalbek-Hermel,Baalbek-Hermel,LB-BH,governorate,,238.0,,,3,Asia/Beirut,FALSE,1422073120
Aanjar,Aanjar,"Haouch Moussa|Hansh Mousa|Ḩawsh Musá|‘Anjar",33.7258,35.9297,Lebanon,LB,LBN,Béqaa,Beqaa,LB-BI,governorate,,957.6,,,3,Asia/Beirut,FALSE,1422125592
"Tannoûrîne el Faouqa","Tannourine el Faouqa","Tannūrīn al Fawqā",34.1825,35.9019,Lebanon,LB,LBN,Liban-Nord,Liban-Nord,LB-AS,governorate,,98.3,,,4,Asia/Beirut,FALSE,1422770972
Fghâl,Fghal,Ferhal|Farel|Fghāl,34.2072,35.6778,Lebanon,LB,LBN,Mont-Liban,Mont-Liban,LB-JL,governorate,,217.8,,,3,Asia/Beirut,FALSE,1422710855
"Hâret Hamzé","Haret Hamze","Ḩārat Ḩamzah",33.8219,35.6661,Lebanon,LB,LBN,Mont-Liban,Mont-Liban,LB-JL,governorate,,31.7,,,4,Asia/Beirut,FALSE,1422086298
"Mrâh el Ahmar","Mrah el Ahmar","Marāḩ al Aḩmar",34.0428,36.0122,Lebanon,LB,LBN,Baalbek-Hermel,Baalbek-Hermel,LB-BH,governorate,,248.7,,,3,Asia/Beirut,FALSE,1422504855
"El Bahsa","El Bahsa","Al Baḩşah",34.0775,35.6467,Lebanon,LB,LBN,Mont-Liban,Mont-Liban,LB-JL,governorate,,572.6,,,3,Asia/Beirut,FALSE,1422396166
"Ez Ziré","Ez Zire","Az Zīrah",33.8408,35.5747,Lebanon,LB,LBN,Mont-Liban,Mont-Liban,LB-JL,governorate,,4578.8,,,2,Asia/Beirut,FALSE,1422591491
"Ez Zîré","Ez Zire","Az Zīrah",33.6992,35.5953,Lebanon,LB,LBN,Mont-Liban,Mont-Liban,LB-JL,governorate,,817.3,,,3,Asia/Beirut,TRUE,1422067326
"Ez Zîré","Ez Zire","Az Zīrah",33.9842,35.7800,Lebanon,LB,LBN,Mont-Liban,Mont-Liban,LB-JL,governorate,,520.7,,,3,Asia/Beirut,TRUE,1422657213
Koubba,Koubba,Kubbā,34.2711,35.6622,Lebanon,LB,LBN,Liban-Nord,Liban-Nord,LB-AS,governorate,,2258.8,,,2,Asia/Beirut,FALSE,1422794926
"Es Snaoubar","Es Snaoubar","Şanawbar|Aş Şanawbar",34.0694,35.7494,Lebanon,LB,LBN,Mont-Liban,Mont-Liban,LB-JL,governorate,,402.0,,,3,Asia/Beirut,FALSE,1422857089
"Ouata el Hrâjlîyé","Ouata el Hrajliye","Waţā’ al Ḩarājilīyah",34.0539,35.7961,Lebanon,LB,LBN,Mont-Liban,Mont-Liban,LB-JL,governorate,,72.6,,,4,Asia/Beirut,FALSE,1422871293
"Mrâh ech Chnaïn","Mrah ech Chnain","Marāḩ ash Shunayn",34.4000,36.3450,Lebanon,LB,LBN,Baalbek-Hermel,Baalbek-Hermel,LB-BH,governorate,,26.8,,,4,Asia/Beirut,FALSE,1422303418
"Hasroûn ej Jdîdé","Hasroun ej Jdide","Hasroun el-Jdeedah|Ḩaşrūn al Jadīdah|Hasroun ej Jdaïdé",34.3932,35.8732,Lebanon,LB,LBN,Liban-Nord,Liban-Nord,LB-AS,governorate,,493.2,,,3,Asia/Beirut,FALSE,1422331264
"Bqâa Kafra","Bqaa Kafra","Bka Kafra|Bqā‘ Kafrā|Biqā‘ Kafrā",34.2369,36.0047,Lebanon,LB,LBN,Liban-Nord,Liban-Nord,LB-AS,governorate,,165.1,,,4,Asia/Beirut,FALSE,1422365755
"Moghr el Ahoual","Moghr el Ahoual","El Mughr el Ahwal|Mughr al Aḩwāl",34.2892,35.8742,Lebanon,LB,LBN,Liban-Nord,Liban-Nord,LB-AS,governorate,,402.8,,,3,Asia/Beirut,FALSE,1422619252
"Es Sfarjlé","Es Sfarjle","As Safarjalah",33.9350,35.6722,Lebanon,LB,LBN,Mont-Liban,Mont-Liban,LB-JL,governorate,,3269.0,,,2,Asia/Beirut,FALSE,1422357263
Bekhaaz,Bekhaaz,Bakhass|Bukh‘as|Bakhas|Bikh‘āz,34.1878,35.6669,Lebanon,LB,LBN,Mont-Liban,Mont-Liban,LB-JL,governorate,,80.7,,,4,Asia/Beirut,FALSE,1422262967
"El Majidiyé","El Majidiye","El Majidyé|Al Khurway‘ah|El-Majeediyah|Al Majīdīyah",33.2842,35.6564,Lebanon,LB,LBN,Nabatîyé,Nabatiye,LB-NA,governorate,,0.7,,,4,Asia/Beirut,FALSE,1422567550
"Ed Daqar","Ed Daqar",,34.4411,35.8797,Lebanon,LB,LBN,Liban-Nord,Liban-Nord,LB-AS,governorate,,1365.1,,,3,Asia/Beirut,FALSE,1422649258
Zardeq,Zardeq,Zardah|Zardaq|Zardāq,34.1160,35.7125,Lebanon,LB,LBN,Mont-Liban,Mont-Liban,LB-JL,governorate,,52.4,,,4,Asia/Beirut,FALSE,1422506754
Nahlé,Nahle,"Aakb el Bellene|Aaqb el Ballâne|Naḩlah",34.2183,35.8056,Lebanon,LB,LBN,Liban-Nord,Liban-Nord,LB-AS,governorate,,322.7,,,3,Asia/Beirut,FALSE,1422391298
"Hâret Aarîda","Haret Aarida","Ḩārat ‘Arīḑā",34.2400,35.9986,Lebanon,LB,LBN,Liban-Nord,Liban-Nord,LB-AS,governorate,,431.6,,,3,Asia/Beirut,FALSE,1422454954
"Haï ed Dahr","Hai ed Dahr","Khirbat aḑ Ḑahr",33.8114,35.5558,Lebanon,LB,LBN,Mont-Liban,Mont-Liban,LB-JL,governorate,,3518.4,,,2,Asia/Beirut,FALSE,1422714579
"Haï ed Dahr","Hai ed Dahr","Ḩayy aḑ Ḑahr|Ḩayy ad Ḑahr",34.1600,35.6800,Lebanon,LB,LBN,Mont-Liban,Mont-Liban,LB-JL,governorate,,271.5,,,3,Asia/Beirut,TRUE,1422861259
"Bîr Qadîm","Bir Qadim","Bi’r Qadīm",34.2064,35.6633,Lebanon,LB,LBN,Mont-Liban,Mont-Liban,LB-JL,governorate,,168.6,,,4,Asia/Beirut,FALSE,1422722016
"Ḩārat ash Shaykh","Harat ash Shaykh","Hâret ech Cheïkh|Haret Sheikh el-Ghweisat",33.9572,35.6561,Lebanon,LB,LBN,Mont-Liban,Mont-Liban,LB-JL,governorate,,13767.3,,,2,Asia/Beirut,FALSE,1422256604
"Ech Charoui","Ech Charoui","Ash Sharwī",34.1508,35.6567,Lebanon,LB,LBN,Mont-Liban,Mont-Liban,LB-JL,governorate,,674.5,,,3,Asia/Beirut,FALSE,1422596904
Bechtoûdâr,Bechtoudar,Bachtoûdâr|Bashtūdār,34.2242,35.8194,Lebanon,LB,LBN,Liban-Nord,Liban-Nord,LB-AS,governorate,,284.9,,,3,Asia/Beirut,FALSE,1422678955
"Mrâh el Habâs","Mrah el Habas","Marāḩ al Aḩbās|Marāḩ al Ḩabbās",33.5492,35.4625,Lebanon,LB,LBN,Liban-Sud,Liban-Sud,LB-JA,governorate,,732.4,,,3,Asia/Beirut,FALSE,1422137971
"El Mroûj","El Mrouj","Al Murūj",33.2375,35.4506,Lebanon,LB,LBN,Nabatîyé,Nabatiye,LB-NA,governorate,,984.6,,,3,Asia/Beirut,FALSE,1422263372
Broqta,Broqta,Qamaz|Bragta|Bratté,34.0689,35.7900,Lebanon,LB,LBN,Mont-Liban,Mont-Liban,LB-JL,governorate,,76.2,,,4,Asia/Beirut,FALSE,1422259604
Qabaaït,Qabaait,Qab‘īt,34.4489,36.0969,Lebanon,LB,LBN,Aakkâr,Aakkar,LB-AK,governorate,,152.1,,,4,Asia/Beirut,FALSE,1422730069
"El Mghâr","El Mghar","El Mrâra|Al Maghār",33.7272,35.5831,Lebanon,LB,LBN,Mont-Liban,Mont-Liban,LB-JL,governorate,,54.8,,,4,Asia/Beirut,FALSE,1422772400
"Mazraat el Mahtaqra","Mazraat el Mahtaqra","El Mouhtaqarâ|Al Muḩtaqarah|El Mahtaqra|Mazra‘at al Maḩtaqrah|Mazra‘at al Muḩtaqarah",33.5778,35.4847,Lebanon,LB,LBN,Mont-Liban,Mont-Liban,LB-JL,governorate,,47.0,,,4,Asia/Beirut,FALSE,1422323544
"El Bhaïra","El Bhaira","El Bharïra|Bouhaïra|Buḩayrat Tūlā|Al Buḩayrah",34.3233,35.9703,Lebanon,LB,LBN,Liban-Nord,Liban-Nord,LB-AS,governorate,,239.0,,,3,Asia/Beirut,FALSE,1422061939
"Kfar Qaouâss","Kfar Qaouass","Kafr Qūwāş|Kafr Qawwāş",34.1236,35.7000,Lebanon,LB,LBN,Mont-Liban,Mont-Liban,LB-JL,governorate,,247.8,,,3,Asia/Beirut,FALSE,1422507269
"El Mghaïri","El Mghairi","Al Mughayyirī|Al Mughayrī",34.1811,35.7133,Lebanon,LB,LBN,Mont-Liban,Mont-Liban,LB-JL,governorate,,108.8,,,4,Asia/Beirut,FALSE,1422894768
"El Meri","El Meri","Al Mārī|El-Mari|Al Marī",33.3204,35.6423,Lebanon,LB,LBN,Nabatîyé,Nabatiye,LB-NA,governorate,,288.3,,,3,Asia/Beirut,FALSE,1422618839
"Mazraat Toûl","Mazraat Toul","Mazra‘at Tūl",33.3851,35.4458,Lebanon,LB,LBN,Nabatîyé,Nabatiye,LB-NA,governorate,,1634.3,,,3,Asia/Beirut,FALSE,1422115165
"Haï ej Jâmia","Hai ej Jamia","Ḩayy al Jāmi‘",33.8194,35.8717,Lebanon,LB,LBN,Béqaa,Beqaa,LB-BI,governorate,,5605.2,,,2,Asia/Beirut,FALSE,1422730809
"Chaabiyet et Tahta","Chaabiyet et Tahta","Shi‘bīyat at Taḩtā",34.0903,35.6614,Lebanon,LB,LBN,Mont-Liban,Mont-Liban,LB-JL,governorate,,572.6,,,3,Asia/Beirut,FALSE,1422067214
"El Qarn","El Qarn","Al Qarn|El Qraïne",34.4408,36.1186,Lebanon,LB,LBN,Liban-Nord,Liban-Nord,LB-AS,governorate,,43.0,,,4,Asia/Beirut,FALSE,1422305808
"Joûret Qamar","Jouret Qamar",,33.9836,35.7547,Lebanon,LB,LBN,Mont-Liban,Mont-Liban,LB-JL,governorate,,515.3,,,3,Asia/Beirut,FALSE,1422938856
Zâhrîyé,Zahriye,Bsifrîne|Bsèfrine|Zāhirīyah,33.8850,35.7075,Lebanon,LB,LBN,Mont-Liban,Mont-Liban,LB-JL,governorate,,776.1,,,3,Asia/Beirut,FALSE,1422051006
"Kfar Zboûna","Kfar Zbouna","Kafr Zabūnā|Kafr Zbūnā",34.1217,35.6675,Lebanon,LB,LBN,Mont-Liban,Mont-Liban,LB-JL,governorate,,747.6,,,3,Asia/Beirut,FALSE,1422794279
"Biout es Sayed","Biout es Sayed","Biyud es Seid|Biout es-Seiyed|Mazra‘at Buyūt as Sayād|Buyūt as Sayyid",33.1681,35.1925,Lebanon,LB,LBN,Liban-Sud,Liban-Sud,LB-JA,governorate,,842.1,,,3,Asia/Beirut,FALSE,1422772778
Bedghâne,Bedghane,Badghān|Bedrhâne|Bidghān,33.7675,35.6714,Lebanon,LB,LBN,Mont-Liban,Mont-Liban,LB-JL,governorate,,801.1,,,3,Asia/Beirut,FALSE,1422427403
"Mazraat el Qnaïtra","Mazraat el Qnaitra","Mazra‘at al Qunayţirah|El-Qneitrah",33.4805,35.4006,Lebanon,LB,LBN,Liban-Sud,Liban-Sud,LB-JA,governorate,,1081.9,,,3,Asia/Beirut,FALSE,1422794222
Bâtoulây,Batoulay,Bātūlayh|Bâtoûlîyé|El-Batouliyah|Bātūlīyah,33.2256,35.2558,Lebanon,LB,LBN,Liban-Sud,Liban-Sud,LB-JA,governorate,,1810.1,,,3,Asia/Beirut,FALSE,1422085100
"Mrâh es Saïyed","Mrah es Saiyed","Marāḩ as Sayyid",34.1017,36.0867,Lebanon,LB,LBN,Baalbek-Hermel,Baalbek-Hermel,LB-BH,governorate,,145.2,,,4,Asia/Beirut,FALSE,1422685871
"En Nâqoûra","En Naqoura","En Nāqūra|En-Naqourah|En Nakura|Naqoura|Enn Nâqoura|An Nāqūrah",33.1183,35.1400,Lebanon,LB,LBN,Liban-Sud,Liban-Sud,LB-JA,governorate,,458.3,,,3,Asia/Beirut,FALSE,1422152391
"El Qornah","El Qornah","Al Qurnah",34.4772,36.1700,Lebanon,LB,LBN,Aakkâr,Aakkar,LB-AK,governorate,,649.0,,,3,Asia/Beirut,FALSE,1422143325
"Qanât Bakîsh","Qanat Bakish","Qanāt Bakīsh",33.9639,35.8139,Lebanon,LB,LBN,Mont-Liban,Mont-Liban,LB-JL,governorate,,319.7,,,3,Asia/Beirut,FALSE,1422636434
Maaraboûn,Maaraboun,Ma‘rabūn,33.8506,36.1892,Lebanon,LB,LBN,Baalbek-Hermel,Baalbek-Hermel,LB-BH,governorate,,223.0,,,3,Asia/Beirut,FALSE,1422921833
"Tell Bîbî","Tell Bibi","Tall Bībī",34.6172,36.0067,Lebanon,LB,LBN,Aakkâr,Aakkar,LB-AK,governorate,,88.9,,,4,Asia/Beirut,FALSE,1422731351
Zeïtoûn,Zeitoun,Zaytūn,34.0622,35.6853,Lebanon,LB,LBN,Mont-Liban,Mont-Liban,LB-JL,governorate,,320.6,,,3,Asia/Beirut,FALSE,1422091566
Sarba,Sarba,Şarbā,33.9774,35.6184,Lebanon,LB,LBN,Mont-Liban,Mont-Liban,LB-JL,governorate,,14323.9,,,2,Asia/Beirut,FALSE,1422478640
"Er Rmaïlîyé","Er Rmailiye","Ar Rumaylīyah",34.0603,35.8222,Lebanon,LB,LBN,Mont-Liban,Mont-Liban,LB-JL,governorate,,72.6,,,4,Asia/Beirut,FALSE,1422010610
"Hâret et Tahta","Haret et Tahta","Ḩārat at Taḩtā",34.1847,35.9000,Lebanon,LB,LBN,Liban-Nord,Liban-Nord,LB-AS,governorate,,467.2,,,3,Asia/Beirut,FALSE,1422479698
"Ebel es Saqi","Ebel es Saqi","Ibil as Saqy|Ibel es Saqi|Ibil es-saqi|Ibil as Saqī",33.3567,35.6264,Lebanon,LB,LBN,Nabatîyé,Nabatiye,LB-NA,governorate,,628.4,,,3,Asia/Beirut,FALSE,1422389656
Blaïbel,Blaibel,Blaïhel|Bulaybil,33.8089,35.5553,Lebanon,LB,LBN,Mont-Liban,Mont-Liban,LB-JL,governorate,,3518.4,,,2,Asia/Beirut,FALSE,1422406454
"El Ammîne","El Ammine","Al Ammīn",33.9003,35.7833,Lebanon,LB,LBN,Mont-Liban,Mont-Liban,LB-JL,governorate,,80.1,,,4,Asia/Beirut,FALSE,1422269551
"Mrâh ed Dahr","Mrah ed Dahr","Marāḩ aḑ Ḑahr",34.3281,36.3647,Lebanon,LB,LBN,Baalbek-Hermel,Baalbek-Hermel,LB-BH,governorate,,81.3,,,4,Asia/Beirut,FALSE,1422672277
"Mrah Chdîd","Mrah Chdid","Marāḩ Shadīd",34.2250,35.6872,Lebanon,LB,LBN,Liban-Nord,Liban-Nord,LB-AS,governorate,,711.2,,,3,Asia/Beirut,FALSE,1422891437
"Beït ech Chaar","Beit ech Chaar","Beit esh-Sh‘ar|Bayt ash Sha‘‘ār",33.9278,35.6208,Lebanon,LB,LBN,Mont-Liban,Mont-Liban,LB-JL,governorate,,10352.7,,,2,Asia/Beirut,FALSE,1422771699
Merdaché,Merdache,"Boutchaï Mourdachi|Betchay Merdaché|Al Mirdāshah|El Merdach|Mirdāshah",33.8225,35.5439,Lebanon,LB,LBN,Mont-Liban,Mont-Liban,LB-JL,governorate,,5111.9,,,2,Asia/Beirut,FALSE,1422264900
Izâl,Izal,Eezal|Īzāl|Iīzāl,34.3811,35.9828,Lebanon,LB,LBN,Liban-Nord,Liban-Nord,LB-AS,governorate,,443.5,,,3,Asia/Beirut,FALSE,1422211908
Bouar,Bouar,Buwār,34.1649,35.6639,Lebanon,LB,LBN,Liban-Nord,Liban-Nord,LB-AS,governorate,,274.3,,,3,Asia/Beirut,FALSE,1422415559
"El Hoûrânîyé","El Houraniye","Al Ḩūrānīyah",33.5886,35.5636,Lebanon,LB,LBN,Liban-Sud,Liban-Sud,LB-JA,governorate,,301.3,,,3,Asia/Beirut,FALSE,1422133491
Sertoûka,Sertouka,Sarqūtā,34.3900,36.0200,Lebanon,LB,LBN,Liban-Nord,Liban-Nord,LB-AS,governorate,,3452.1,,,2,Asia/Beirut,FALSE,1422366488
"El Hâra","El Hara","Al Ḩārah",33.1972,35.4111,Lebanon,LB,LBN,Nabatîyé,Nabatiye,LB-NA,governorate,,537.7,,,3,Asia/Beirut,FALSE,1422925958
"Mazraat ed Dallîl","Mazraat ed Dallil","Mazra‘at az̧ Z̧alīl",34.0408,36.0511,Lebanon,LB,LBN,Baalbek-Hermel,Baalbek-Hermel,LB-BH,governorate,,249.0,,,3,Asia/Beirut,FALSE,1422883545
"Haï Mâr Yaaqoûb","Hai Mar Yaaqoub","Ḩayy Mār Ya‘qūb",34.0447,35.6378,Lebanon,LB,LBN,Mont-Liban,Mont-Liban,LB-JL,governorate,,2448.9,,,2,Asia/Beirut,FALSE,1422487565
"Kfar Noun","Kfar Noun","Kafr Nūn",34.6250,36.2531,Lebanon,LB,LBN,Aakkâr,Aakkar,LB-AK,governorate,,51.8,,,4,Asia/Beirut,FALSE,1422056324
"Mazraat es Slâfni","Mazraat es Slafni","Mazra‘at as Salāfinī",34.2361,35.8081,Lebanon,LB,LBN,Liban-Nord,Liban-Nord,LB-AS,governorate,,222.5,,,3,Asia/Beirut,FALSE,1422995408
"Ej Joura","Ej Joura","Al Jūrah",33.9014,35.6233,Lebanon,LB,LBN,Mont-Liban,Mont-Liban,LB-JL,governorate,,1572.9,,,3,Asia/Beirut,FALSE,1422513918
"Ej Joura","Ej Joura","Al Jūrah",33.7826,35.5411,Lebanon,LB,LBN,Mont-Liban,Mont-Liban,LB-JL,governorate,,1453.2,,,3,Asia/Beirut,TRUE,1422000032
"Jdaïdet Ghazîr","Jdaidet Ghazir","Judaydat Ghazīr",34.0197,35.6933,Lebanon,LB,LBN,Mont-Liban,Mont-Liban,LB-JL,governorate,,1200.1,,,3,Asia/Beirut,FALSE,1422428375
"Aïn el Kharroûbé","Ain el Kharroube","Aïn el-Kharoubé|‘Ain el-Kharoubah|‘Ayn al Kharrūbah",33.9344,35.6997,Lebanon,LB,LBN,Mont-Liban,Mont-Liban,LB-JL,governorate,,2076.1,,,2,Asia/Beirut,FALSE,1422693108
"Faouq el Bîr","Faouq el Bir","Fawq al Bīr",33.6731,35.8289,Lebanon,LB,LBN,Béqaa,Beqaa,LB-BI,governorate,,606.5,,,3,Asia/Beirut,FALSE,1422820446
Aaqtanît,Aaqtanit,Aaqtanîte|‘Aqtanīt,33.4886,35.3800,Lebanon,LB,LBN,Liban-Sud,Liban-Sud,LB-JA,governorate,,501.0,,,3,Asia/Beirut,FALSE,1422589776
"Corail Beach","Corail Beach",,33.8653,35.4822,Lebanon,LB,LBN,Mont-Liban,Mont-Liban,LB-JL,governorate,,100375.0,,,2,Asia/Beirut,FALSE,1422700132
"El Qhâf","El Qhaf","Al Aḩqāf",34.1642,35.8897,Lebanon,LB,LBN,Mont-Liban,Mont-Liban,LB-JL,governorate,,98.3,,,4,Asia/Beirut,FALSE,1422858730
"Ech Chalqa","Ech Chalqa","Ash Shalqah",34.0922,35.8906,Lebanon,LB,LBN,Mont-Liban,Mont-Liban,LB-JL,governorate,,20.6,,,4,Asia/Beirut,FALSE,1422479679
"Al ‘Ullayqah","Al `Ullayqah","El Allaïqa|El Aallaïqa",34.4667,36.1500,Lebanon,LB,LBN,Aakkâr,Aakkar,LB-AK,governorate,,559.0,,,3,Asia/Beirut,FALSE,1422618774
"Es Salaa","Es Salaa","El Aadra|Aş Şala‘ah",34.0125,35.7331,Lebanon,LB,LBN,Mont-Liban,Mont-Liban,LB-JL,governorate,,468.3,,,3,Asia/Beirut,FALSE,1422219910
Maaraké,Maarake,Ma‘rakī|Ma‘rakah,33.2728,35.3097,Lebanon,LB,LBN,Liban-Sud,Liban-Sud,LB-JA,governorate,,1943.4,,,3,Asia/Beirut,FALSE,1422287418
"Mazraat Jinjlâya","Mazraat Jinjlaya","Mazra‘at Jinjalāyā",33.4852,35.3989,Lebanon,LB,LBN,Liban-Sud,Liban-Sud,LB-JA,governorate,,486.7,,,3,Asia/Beirut,FALSE,1422969352
Kfarfou,Kfarfou,"Kfarhou|Kafr Fū",34.3181,35.8800,Lebanon,LB,LBN,Liban-Nord,Liban-Nord,LB-AS,governorate,,632.2,,,3,Asia/Beirut,FALSE,1422718238
"Rabb et Talatine","Rabb et Talatine","Rabb at Talātīn|Rabb ath Thalāthīn",33.2489,35.5189,Lebanon,LB,LBN,Nabatîyé,Nabatiye,LB-NA,governorate,,302.4,,,3,Asia/Beirut,FALSE,1422496172
Dalhoûn,Dalhoun,Dalhūm|Dalhoum|Dalhūn,33.6267,35.4675,Lebanon,LB,LBN,Mont-Liban,Mont-Liban,LB-JL,governorate,,3131.7,,,2,Asia/Beirut,FALSE,1422776002
Aâzoûr,Aazour,‘Azour|‘Āzūr,33.5597,35.5344,Lebanon,LB,LBN,Liban-Sud,Liban-Sud,LB-JA,governorate,,523.7,,,3,Asia/Beirut,FALSE,1422060409
"El Qerrâmi","El Qerrami","Al Qarrāmī",34.1419,36.1022,Lebanon,LB,LBN,Baalbek-Hermel,Baalbek-Hermel,LB-BH,governorate,,193.3,,,4,Asia/Beirut,FALSE,1422090498
"Mazraat ed Daoudîyé","Mazraat ed Daoudiye","Ed-Dawoudiyah|Mazra‘at ad Dāwūdīyah",33.4617,35.3658,Lebanon,LB,LBN,Liban-Sud,Liban-Sud,LB-JA,governorate,,668.4,,,3,Asia/Beirut,FALSE,1422669441
Tfaïl,Tfail,Ţfayl|Et-Tfeil|Ţufayl,33.8500,36.3667,Lebanon,LB,LBN,Baalbek-Hermel,Baalbek-Hermel,LB-BH,governorate,,13.3,,,3,Asia/Beirut,FALSE,1422493074
"El Hrâyeq","El Hrayeq","Al Ḩarā’iq",34.2072,35.8542,Lebanon,LB,LBN,Liban-Nord,Liban-Nord,LB-AS,governorate,,460.2,,,3,Asia/Beirut,FALSE,1422942804
"Mazraat ech Chamîssé","Mazraat ech Chamisse","Mazra‘at ash Shumayyisah|Mazra‘at ash Shamīsah",33.5158,35.7275,Lebanon,LB,LBN,Béqaa,Beqaa,LB-BI,governorate,,69.6,,,4,Asia/Beirut,FALSE,1422635891
"Kawkabā Bū ‘Arab","Kawkaba Bu `Arab",,33.5333,35.7833,Lebanon,LB,LBN,Béqaa,Beqaa,LB-BI,governorate,,270.3,,,3,Asia/Beirut,FALSE,1422110763
"Beït Bakkour","Beit Bakkour","Bafḩūm|Bayt Bakkūr|Bafhoûn",34.3931,35.9608,Lebanon,LB,LBN,Liban-Nord,Liban-Nord,LB-AS,governorate,,490.1,,,3,Asia/Beirut,FALSE,1422730099
"Kfar Fâqoûd","Kfar Faqoud","Kafr Fāqūd",33.7000,35.5342,Lebanon,LB,LBN,Mont-Liban,Mont-Liban,LB-JL,governorate,,2329.8,,,2,Asia/Beirut,FALSE,1422583594
"Sahm et Taoubé","Sahm et Taoube","Sahm at Tawbah",33.8583,36.0247,Lebanon,LB,LBN,Béqaa,Beqaa,LB-BI,governorate,,2787.5,,,2,Asia/Beirut,FALSE,1422715127
Majdalâ,Majdala,,34.4989,36.0369,Lebanon,LB,LBN,Aakkâr,Aakkar,LB-AK,governorate,,411.9,,,3,Asia/Beirut,FALSE,1422746750
Boutchaï,Boutchai,"Boutchey|Beit Shāy|Biţshay|Buţshīyah",33.8261,35.5439,Lebanon,LB,LBN,Mont-Liban,Mont-Liban,LB-JL,governorate,,12160.8,,,2,Asia/Beirut,FALSE,1422682489
"Al Ḩamrā’","Al Hamra'","Hmairat|El Hamra",34.6333,36.3833,Lebanon,LB,LBN,Aakkâr,Aakkar,LB-AK,governorate,,243.6,,,3,Asia/Damascus,FALSE,1422480421
Jadra,Jadra,Jadrā,33.6308,35.4080,Lebanon,LB,LBN,Mont-Liban,Mont-Liban,LB-JL,governorate,,774.7,,,3,Asia/Beirut,FALSE,1422178391
"El Hedd","El Hedd",,34.5589,36.1589,Lebanon,LB,LBN,Aakkâr,Aakkar,LB-AK,governorate,,104.9,,,4,Asia/Beirut,FALSE,1422986875
"Ed Dakoué","Ed Dakoue","Ed-Dakwah|Ad Dakwah",33.6917,35.8761,Lebanon,LB,LBN,Béqaa,Beqaa,LB-BI,governorate,,61.1,,,4,Asia/Beirut,FALSE,1422526333
Zhilta,Zhilta,Zḩaltā,33.5119,35.5492,Lebanon,LB,LBN,Liban-Sud,Liban-Sud,LB-JA,governorate,,343.5,,,3,Asia/Beirut,FALSE,1422187993
Chahtoûl,Chahtoul,Chamtoul|Shaḩtūl,34.0325,35.7206,Lebanon,LB,LBN,Mont-Liban,Mont-Liban,LB-JL,governorate,,337.5,,,3,Asia/Beirut,FALSE,1422822375
"Hâret el Boustâne","Haret el Boustane","Ḩārat al Bustān",33.7431,35.5675,Lebanon,LB,LBN,Mont-Liban,Mont-Liban,LB-JL,governorate,,425.0,,,3,Asia/Beirut,FALSE,1422383731
Châmât,Chamat,Shāmāt|Châmâte,34.1658,35.6980,Lebanon,LB,LBN,Mont-Liban,Mont-Liban,LB-JL,governorate,,338.5,,,3,Asia/Beirut,FALSE,1422132700
Anâne,Anane,Aanâne|Anān,33.5681,35.5089,Lebanon,LB,LBN,Liban-Sud,Liban-Sud,LB-JA,governorate,,668.7,,,3,Asia/Beirut,FALSE,1422593392
"El Aaqaïdé","El Aaqaide","Al ‘Uqaydah|Al ‘Aqīdah",33.3676,35.5000,Lebanon,LB,LBN,Nabatîyé,Nabatiye,LB-NA,governorate,,2155.4,,,2,Asia/Beirut,FALSE,1422988042
"Jdaïdet el Qaïtaa","Jdaidet el Qaitaa","Jdaidet el Qaiteaa|Judaydat al Qayţi‘|Jdeidat el-Qeite‘|Jdaïdé|El Jdaïdé",34.4647,36.0125,Lebanon,LB,LBN,Aakkâr,Aakkar,LB-AK,governorate,,261.2,,,3,Asia/Beirut,FALSE,1422216714
"Kfar Fâloûs","Kfar Falous","Kafr Fālūs",33.5436,35.4756,Lebanon,LB,LBN,Liban-Sud,Liban-Sud,LB-JA,governorate,,277.4,,,3,Asia/Beirut,FALSE,1422873006
"Mazraat Bsaffoûr","Mazraat Bsaffour","Mazra‘at Bşaffūr|Mazra‘at Başaffūr",33.3933,35.3778,Lebanon,LB,LBN,Nabatîyé,Nabatiye,LB-NA,governorate,,105.4,,,4,Asia/Beirut,FALSE,1422459790
"Jouâr es Souss","Jouar es Souss","Jiwār as Sūs|Juwar as Sūs",33.5486,35.5664,Lebanon,LB,LBN,Liban-Sud,Liban-Sud,LB-JA,governorate,,1158.4,,,3,Asia/Beirut,FALSE,1422712948
Haqlît,Haqlit,,34.4064,36.0194,Lebanon,LB,LBN,Liban-Nord,Liban-Nord,LB-AS,governorate,,3395.7,,,2,Asia/Beirut,FALSE,1422400124
"Er Rouaïss","Er Rouaiss","Ar Ru’ays",34.2236,35.8150,Lebanon,LB,LBN,Liban-Nord,Liban-Nord,LB-AS,governorate,,301.2,,,3,Asia/Beirut,FALSE,1422374370
"Morh el Ouaarât","Morh el Ouaarat","Murḩ al Wa‘rāt",33.6011,36.0208,Lebanon,LB,LBN,Béqaa,Beqaa,LB-BI,governorate,,6.1,,,5,Asia/Beirut,FALSE,1422537320
"El Khraïbé","El Khraibe","Al Khraybih|El-Khreibah|Al Khuraybah",33.3387,35.6439,Lebanon,LB,LBN,Nabatîyé,Nabatiye,LB-NA,governorate,,11.9,,,4,Asia/Beirut,FALSE,1422683329
"El Maadlé","El Maadle","Al Ma‘dilah",34.1547,35.8864,Lebanon,LB,LBN,Mont-Liban,Mont-Liban,LB-JL,governorate,,67.5,,,4,Asia/Beirut,FALSE,1422821998
Halbata,Halbata,Hulbta|Ḩarbatā,34.2553,36.2875,Lebanon,LB,LBN,Baalbek-Hermel,Baalbek-Hermel,LB-BH,governorate,,108.0,,,3,Asia/Beirut,FALSE,1422017471
Mqaïblé,Mqaible,"El-Mqayblé|Al Muqaybilah|El-Mqeiblah",34.6436,36.3528,Lebanon,LB,LBN,Aakkâr,Aakkar,LB-AK,governorate,,297.6,,,3,Asia/Beirut,FALSE,1422544170
Bentâael,Bentaael,Binta‘el|Binntail|Bentaël|Bintā‘il,34.1236,35.6628,Lebanon,LB,LBN,Mont-Liban,Mont-Liban,LB-JL,governorate,,114.9,,,4,Asia/Beirut,FALSE,1422561414
"El Laouzé","El Laouze","Al Lawzah",33.9028,35.9986,Lebanon,LB,LBN,Baalbek-Hermel,Baalbek-Hermel,LB-BH,governorate,,1107.8,,,3,Asia/Beirut,FALSE,1422440700
Harfoûch,Harfouch,"Marāḩ al Ḩarfūsh",34.2000,36.2450,Lebanon,LB,LBN,Baalbek-Hermel,Baalbek-Hermel,LB-BH,governorate,,48.3,,,4,Asia/Beirut,FALSE,1422888979
"Dmît el Berrânîyé","Dmit el Berraniye","Aïn Saâdé|Dmīt al Barrānīyah",33.6897,35.5133,Lebanon,LB,LBN,Mont-Liban,Mont-Liban,LB-JL,governorate,,1771.2,,,3,Asia/Beirut,FALSE,1422356316
"Haret et Tine","Haret et Tine","Ḩārat at Tīn",33.8141,35.5650,Lebanon,LB,LBN,Mont-Liban,Mont-Liban,LB-JL,governorate,,5796.7,,,2,Asia/Beirut,FALSE,1422000015
Lehfed,Lehfed,Liḩfid,34.1661,35.7817,Lebanon,LB,LBN,Mont-Liban,Mont-Liban,LB-JL,governorate,,142.5,,,4,Asia/Beirut,FALSE,1422682413
"Et Tallé","Et Talle","Ett Telle|At Tallah",34.3925,35.8775,Lebanon,LB,LBN,Liban-Nord,Liban-Nord,LB-AS,governorate,,5287.6,,,2,Asia/Beirut,FALSE,1422436057
"El Khâldîyé","El Khaldiye","Al Khālidīyah",34.3697,35.9097,Lebanon,LB,LBN,Liban-Nord,Liban-Nord,LB-AS,governorate,,274.2,,,3,Asia/Beirut,FALSE,1422084995
"El Ghaboun","El Ghaboun","Al Ghābūn",33.8300,35.5956,Lebanon,LB,LBN,Mont-Liban,Mont-Liban,LB-JL,governorate,,2970.7,,,2,Asia/Beirut,FALSE,1422177995
Aïnâta,Ainata,"‘Aynāt|‘Aynātā|‘Ain ‘Ata",34.1869,36.0811,Lebanon,LB,LBN,Baalbek-Hermel,Baalbek-Hermel,LB-BH,governorate,,51.8,,,4,Asia/Beirut,FALSE,1422031218
"Haï Sabra","Hai Sabra","Ḩayy Şabrā",34.3914,35.9139,Lebanon,LB,LBN,Liban-Nord,Liban-Nord,LB-AS,governorate,,941.9,,,3,Asia/Beirut,FALSE,1422742622
Sâlhîyé,Salhiye,"Es Sālihīye|Es Sâlhîyé|Aş Şāliḩīyah|Şāliḩīyah",33.5600,35.4233,Lebanon,LB,LBN,Liban-Sud,Liban-Sud,LB-JA,governorate,,2515.2,,,2,Asia/Beirut,FALSE,1422827306
Baloûh,Balouh,Bālū‘|Balwah|Beloua,33.8156,35.5369,Lebanon,LB,LBN,Mont-Liban,Mont-Liban,LB-JL,governorate,,9492.4,,,2,Asia/Beirut,FALSE,1422573255
"Kfar Yâssîne","Kfar Yassine","Kafr Yāsīn",34.0250,35.6336,Lebanon,LB,LBN,Mont-Liban,Mont-Liban,LB-JL,governorate,,1919.0,,,3,Asia/Beirut,FALSE,1422022758
"Er Râm","Er Ram","Er Rame|Ar Rām",34.1731,36.1814,Lebanon,LB,LBN,Baalbek-Hermel,Baalbek-Hermel,LB-BH,governorate,,133.8,,,4,Asia/Beirut,FALSE,1422160176
"Qouttaa er Rous","Qouttaa er Rous","Quţţā‘ ar Ru’ūs",33.9217,35.5922,Lebanon,LB,LBN,Mont-Liban,Mont-Liban,LB-JL,governorate,,11654.8,,,2,Asia/Beirut,FALSE,1422007804
"Ed Darjé","Ed Darje","Ad Darajah",34.1058,35.7117,Lebanon,LB,LBN,Mont-Liban,Mont-Liban,LB-JL,governorate,,194.2,,,4,Asia/Beirut,FALSE,1422783313
"Ed Darjé","Ed Darje","Ad Darajah",34.1022,35.8950,Lebanon,LB,LBN,Mont-Liban,Mont-Liban,LB-JL,governorate,,21.3,,,4,Asia/Beirut,TRUE,1422199900
Qorqâra,Qorqara,Qurqārah,34.0386,35.6678,Lebanon,LB,LBN,Mont-Liban,Mont-Liban,LB-JL,governorate,,596.4,,,3,Asia/Beirut,FALSE,1422160565
"El Mihti","El Mihti","Al Miḩtī",34.2550,35.6808,Lebanon,LB,LBN,Liban-Nord,Liban-Nord,LB-AS,governorate,,836.6,,,3,Asia/Beirut,FALSE,1422215019
Débel,Debel,Dibil,33.1208,35.3678,Lebanon,LB,LBN,Nabatîyé,Nabatiye,LB-NA,governorate,,299.5,,,3,Asia/Beirut,FALSE,1422116076
"Mar Doumit","Mar Doumit","Mār Ḑūmit",34.2059,35.8226,Lebanon,LB,LBN,Liban-Nord,Liban-Nord,LB-AS,governorate,,249.2,,,3,Asia/Beirut,FALSE,1422193116
"Mazraat es Saknoûniyé","Mazraat es Saknouniye","Mazra‘at as Saknūnīyah",33.4697,35.3525,Lebanon,LB,LBN,Liban-Sud,Liban-Sud,LB-JA,governorate,,1014.6,,,3,Asia/Beirut,FALSE,1422932565
"El Biyâda","El Biyada","Al Bayāḑah|Al Bayyāḑah",33.8175,35.8386,Lebanon,LB,LBN,Béqaa,Beqaa,LB-BI,governorate,,1934.8,,,3,Asia/Beirut,FALSE,1422122261
"El Mina","El Mina","Al Mīnā",34.3283,35.7253,Lebanon,LB,LBN,Liban-Nord,Liban-Nord,LB-AS,governorate,,4252.0,,,2,Asia/Beirut,FALSE,1422836992
"El Laqloûq","El Laqlouq","Al Laqlūq",34.1386,35.8722,Lebanon,LB,LBN,Mont-Liban,Mont-Liban,LB-JL,governorate,,33.0,,,4,Asia/Beirut,FALSE,1422638861
"Es Sfiné","Es Sfine","Es Safîné|As Safīnah",34.5722,36.1581,Lebanon,LB,LBN,Aakkâr,Aakkar,LB-AK,governorate,,128.3,,,4,Asia/Beirut,FALSE,1422656372
"Kfar Hilda","Kfar Hilda","Beit Chlélé|Beit Chléla|Beït Chelâla|Bayt Shilālā|Beït Chéla|Kafr Ḩildā|Kafr Ḩildah",34.2222,35.8369,Lebanon,LB,LBN,Liban-Nord,Liban-Nord,LB-AS,governorate,,617.0,,,3,Asia/Beirut,FALSE,1422401235
"El Mabrak","El Mabrak","Al Mabrak",33.9778,35.7475,Lebanon,LB,LBN,Mont-Liban,Mont-Liban,LB-JL,governorate,,518.8,,,3,Asia/Beirut,FALSE,1422696254
"Ard el Faouâr","Ard el Faouar","Arḑ al Fawwār",33.8958,35.8250,Lebanon,LB,LBN,Mont-Liban,Mont-Liban,LB-JL,governorate,,112.9,,,4,Asia/Beirut,FALSE,1422641600
"Buyūt ar Ruways","Buyut ar Ruways",,34.3623,36.2374,Lebanon,LB,LBN,Baalbek-Hermel,Baalbek-Hermel,LB-BH,governorate,,26.7,,,4,Asia/Beirut,FALSE,1422999873
"Haï es Snaoubar","Hai es Snaoubar","Ḩayy aş Şanawbar",34.0706,35.7106,Lebanon,LB,LBN,Mont-Liban,Mont-Liban,LB-JL,governorate,,531.4,,,3,Asia/Beirut,FALSE,1422808316
"El Haqlé","El Haqle","Al Ḩaqlah",33.9744,35.6578,Lebanon,LB,LBN,Mont-Liban,Mont-Liban,LB-JL,governorate,,1063.4,,,3,Asia/Beirut,FALSE,1422931035
