city,city_ascii,city_alt,lat,lng,country,iso2,iso3,admin_name,admin_name_ascii,admin_code,admin_type,capital,density,population,population_proper,ranking,timezone,same_name,id
Maseru,Maseru,,-29.3100,27.4800,Lesotho,LS,LSO,Maseru,Maseru,LS-A,district,primary,2489.4,343541,343541,1,Africa/Maseru,FALSE,1426977668
Teyateyaneng,Teyateyaneng,,-29.1511,27.7425,Lesotho,LS,LSO,Berea,Berea,LS-D,district,admin,328.7,75115,75115,2,Africa/Maseru,FALSE,1426159118
Mafeteng,Mafeteng,,-29.8167,27.2500,Lesotho,LS,LSO,Mafeteng,Mafeteng,LS-E,district,admin,340.3,57059,57059,2,Africa/Maseru,FALSE,1426506047
Leribe,Leribe,Hlotse,-28.8734,28.0416,Lesotho,LS,LSO,Leribe,Leribe,LS-C,district,admin,323.8,38558,38558,2,Africa/Maseru,FALSE,1426721246
Maputsoe,Maputsoe,,-28.8950,27.9070,Lesotho,LS,LSO,Leribe,Leribe,LS-C,district,,319.7,32117,32117,3,Africa/Maseru,FALSE,1426999579
Mazenod,Mazenod,,-29.4642,27.4969,Lesotho,LS,LSO,Maseru,Maseru,LS-A,district,,180.4,27553,27553,3,Africa/Maseru,FALSE,1426996323
Ratau,Ratau,Theko,-29.3828,27.7892,Lesotho,LS,LSO,Maseru,Maseru,LS-A,district,,126.4,26582,26582,3,Africa/Maseru,FALSE,1426355442
"Mohale’s Hoek","Mohale's Hoek",,-30.1500,27.4667,Lesotho,LS,LSO,"Mohale’s Hoek","Mohale's Hoek",LS-F,district,admin,227.3,24992,24992,2,Africa/Maseru,FALSE,1426343192
Qiloane,Qiloane,,-29.3625,27.6319,Lesotho,LS,LSO,Maseru,Maseru,LS-A,district,,176.7,24093,24093,3,Africa/Maseru,FALSE,1426291915
Mapoteng,Mapoteng,,-29.1097,27.9739,Lesotho,LS,LSO,Berea,Berea,LS-D,district,,169.3,23926,23926,3,Africa/Maseru,FALSE,1426371012
Senekane,Senekane,Senekals|Senekal,-29.2525,27.7433,Lesotho,LS,LSO,Berea,Berea,LS-D,district,,100.3,22262,22262,3,Africa/Maseru,FALSE,1426773784
Kueneng,Kueneng,,-29.0161,27.9981,Lesotho,LS,LSO,Berea,Berea,LS-D,district,,166.7,21887,21887,3,Africa/Maseru,FALSE,1426216569
Maghalleen,Maghalleen,Maghaleen,-30.0942,27.4189,Lesotho,LS,LSO,"Mohale’s Hoek","Mohale's Hoek",LS-F,district,,0.5,21869,21869,3,Africa/Johannesburg,FALSE,1426440371
Pitseng,Pitseng,,-29.0097,28.2575,Lesotho,LS,LSO,Leribe,Leribe,LS-C,district,,84.1,18948,18948,3,Africa/Maseru,FALSE,1426276649
Siloe,Siloe,,-29.9836,27.2792,Lesotho,LS,LSO,"Mohale’s Hoek","Mohale's Hoek",LS-F,district,,64.3,18261,18261,3,Africa/Maseru,FALSE,1426116869
Peka,Peka,,-28.9667,27.7667,Lesotho,LS,LSO,Leribe,Leribe,LS-C,district,,107.9,17161,17161,3,Africa/Maseru,FALSE,1426883047
Quthing,Quthing,Moyeni,-30.4001,27.7002,Lesotho,LS,LSO,Quthing,Quthing,LS-G,district,admin,91.1,15000,15000,2,Africa/Maseru,FALSE,1426618526
Nako,Nako,Naku|Makhalaneng,-29.6481,27.7336,Lesotho,LS,LSO,Maseru,Maseru,LS-A,district,,48.4,13146,13146,3,Africa/Maseru,FALSE,1426816465
Ramabitsa,Ramabitsa,Motanyane,-29.7625,27.6139,Lesotho,LS,LSO,Maseru,Maseru,LS-A,district,,48.4,12234,12234,3,Africa/Maseru,FALSE,1426883500
Nyakosoba,Nyakosoba,,-29.5047,27.8692,Lesotho,LS,LSO,Maseru,Maseru,LS-A,district,,24.4,10893,10893,3,Africa/Maseru,FALSE,1426143192
Rasebetsane,Rasebetsane,Rasebetsana,-29.8992,27.6628,Lesotho,LS,LSO,Mafeteng,Mafeteng,LS-E,district,,49.9,10519,10519,3,Africa/Maseru,FALSE,1426189375
Butha-Buthe,Butha-Buthe,,-28.7833,28.2333,Lesotho,LS,LSO,Butha-Buthe,Butha-Buthe,LS-B,district,admin,354.1,10000,10000,2,Africa/Maseru,FALSE,1426574356
Mohlanapeng,Mohlanapeng,,-29.6975,28.6947,Lesotho,LS,LSO,Thaba-Tseka,Thaba-Tseka,LS-K,district,,36.4,9882,9882,4,Africa/Maseru,FALSE,1426075936
Seforong,Seforong,,-30.1028,28.1864,Lesotho,LS,LSO,Quthing,Quthing,LS-G,district,,41.2,9720,9720,4,Africa/Maseru,FALSE,1426821523
Mokhotlong,Mokhotlong,,-29.2885,29.0656,Lesotho,LS,LSO,Mokhotlong,Mokhotlong,LS-J,district,admin,28.2,8809,8809,2,Africa/Maseru,FALSE,1426785819
Phamong,Phamong,Griffiths,-30.2042,27.7889,Lesotho,LS,LSO,"Mohale’s Hoek","Mohale's Hoek",LS-F,district,,36.7,8402,8402,4,Africa/Maseru,FALSE,1426330115
Rafolatsane,Rafolatsane,Rafolatsana,-29.3547,28.9108,Lesotho,LS,LSO,Mokhotlong,Mokhotlong,LS-J,district,,31.0,7713,7713,4,Africa/Maseru,FALSE,1426342410
Ribaneng,Ribaneng,Kojoa,-29.7556,27.7189,Lesotho,LS,LSO,Mafeteng,Mafeteng,LS-E,district,,48.4,7509,7509,4,Africa/Maseru,FALSE,1426935960
Qomoqomong,Qomoqomong,,-30.4544,27.8094,Lesotho,LS,LSO,Quthing,Quthing,LS-G,district,,91.1,6760,6760,4,Africa/Maseru,FALSE,1426642822
Ramatseliso,Ramatseliso,Ramatsediso,-30.0447,28.8636,Lesotho,LS,LSO,"Qacha’s Nek","Qacha's Nek",LS-H,district,,26.0,6189,6189,4,Africa/Maseru,FALSE,1426686917
Sehonghong,Sehonghong,Molao|Molaoa,-29.7439,28.8350,Lesotho,LS,LSO,Thaba-Tseka,Thaba-Tseka,LS-K,district,,19.9,5814,5814,4,Africa/Maseru,FALSE,1426056477
Tajane,Tajane,Molomo|Tayane,-29.6964,27.5239,Lesotho,LS,LSO,Mafeteng,Mafeteng,LS-E,district,,68.4,5809,5809,4,Africa/Maseru,FALSE,1426501597
Thaba-Tseka,Thaba-Tseka,,-29.5333,28.6000,Lesotho,LS,LSO,Thaba-Tseka,Thaba-Tseka,LS-K,district,admin,36.4,5423,5423,2,Africa/Maseru,FALSE,1426611266
Liphakoeng,Liphakoeng,,-29.5267,28.7808,Lesotho,LS,LSO,Butha-Buthe,Butha-Buthe,LS-B,district,,197.0,4347,4347,4,Africa/Maseru,FALSE,1426562190
"White Hill","White Hill",Seapa,-30.1025,28.4622,Lesotho,LS,LSO,"Qacha’s Nek","Qacha's Nek",LS-H,district,,23.2,3197,3197,4,Africa/Maseru,FALSE,1426652692
Teba,Teba,Theba|Qhoobeng,-29.9275,27.8433,Lesotho,LS,LSO,"Mohale’s Hoek","Mohale's Hoek",LS-F,district,,20.1,3083,3083,4,Africa/Maseru,FALSE,1426914050
Kepi,Kepi,,-29.1565,27.7720,Lesotho,LS,LSO,Berea,Berea,LS-D,district,,328.7,,,3,Africa/Maseru,FALSE,1426269882
Khukuhune,Khukuhune,Khukhune,-28.7167,28.4167,Lesotho,LS,LSO,Butha-Buthe,Butha-Buthe,LS-B,district,,197.0,,,4,Africa/Maseru,FALSE,1426051478
Kolo,Kolo,,-29.5932,27.3483,Lesotho,LS,LSO,Mafeteng,Mafeteng,LS-E,district,,73.1,,,4,Africa/Maseru,FALSE,1426034273
Qalaheng,Qalaheng,,-29.2130,27.6621,Lesotho,LS,LSO,Berea,Berea,LS-D,district,,102.7,,,4,Africa/Maseru,FALSE,1426607103
Kokolia,Kokolia,Kokodia,-29.3052,27.9083,Lesotho,LS,LSO,Berea,Berea,LS-D,district,,98.9,,,4,Africa/Maseru,FALSE,1426538877
"Mahlatsas Nek","Mahlatsas Nek",,-29.2167,27.9833,Lesotho,LS,LSO,Berea,Berea,LS-D,district,,103.5,,,4,Africa/Maseru,FALSE,1426904709
Tlhakanelo,Tlhakanelo,Hlakanelo,-29.7167,28.8000,Lesotho,LS,LSO,Thaba-Tseka,Thaba-Tseka,LS-K,district,,19.9,,,4,Africa/Maseru,FALSE,1426049619
Matsaba,Matsaba,"John Matsaba",-29.6597,27.7526,Lesotho,LS,LSO,Maseru,Maseru,LS-A,district,,48.4,,,4,Africa/Maseru,FALSE,1426466652
"Thabana Morena","Thabana Morena",,-29.9601,27.4204,Lesotho,LS,LSO,Mafeteng,Mafeteng,LS-E,district,,64.6,,,4,Africa/Maseru,FALSE,1426501468
Kelechane,Kelechane,Khalechane,-29.7448,27.8047,Lesotho,LS,LSO,Maseru,Maseru,LS-A,district,,46.6,,,4,Africa/Maseru,FALSE,1426507174
Schoolplaats,Schoolplaats,,-30.3000,27.5000,Lesotho,LS,LSO,"Mohale’s Hoek","Mohale's Hoek",LS-F,district,,69.7,,,4,Africa/Maseru,FALSE,1426807199
Fosi,Fosi,,-29.4333,27.8667,Lesotho,LS,LSO,Maseru,Maseru,LS-A,district,,24.4,,,4,Africa/Maseru,FALSE,1426985827
Motsie,Motsie,,-29.9201,28.2831,Lesotho,LS,LSO,Mafeteng,Mafeteng,LS-E,district,,23.8,,,4,Africa/Maseru,FALSE,1426294262
Malealea,Malealea,Kwepe,-29.8287,27.5996,Lesotho,LS,LSO,Mafeteng,Mafeteng,LS-E,district,,49.9,,,3,Africa/Maseru,FALSE,1426671595
Nthamaha,Nthamaha,Umtamana,-29.9833,27.9167,Lesotho,LS,LSO,"Mohale’s Hoek","Mohale's Hoek",LS-F,district,,20.1,,,4,Africa/Maseru,FALSE,1426457503
Masitise,Masitise,,-30.4040,27.6456,Lesotho,LS,LSO,Quthing,Quthing,LS-G,district,,67.0,,,4,Africa/Maseru,FALSE,1426948000
Berente,Berente,Rantolo,-29.8956,27.6541,Lesotho,LS,LSO,Mafeteng,Mafeteng,LS-E,district,,49.9,,,4,Africa/Maseru,FALSE,1426313250
Hendriks,Hendriks,Masilo,-28.6293,28.4045,Lesotho,LS,LSO,Butha-Buthe,Butha-Buthe,LS-B,district,,23.8,,,4,Africa/Maseru,FALSE,1426328122
Thulo,Thulo,Tholo,-29.5891,27.2601,Lesotho,LS,LSO,Mafeteng,Mafeteng,LS-E,district,,68.2,,,4,Africa/Maseru,FALSE,1426123170
Mokoroane,Mokoroane,,-29.9237,27.2148,Lesotho,LS,LSO,"Mohale’s Hoek","Mohale's Hoek",LS-F,district,,64.3,,,4,Africa/Maseru,FALSE,1426659222
Morunyaneng,Morunyaneng,"Matedile Store|Matelile",-29.8311,27.5333,Lesotho,LS,LSO,Mafeteng,Mafeteng,LS-E,district,,68.4,,,4,Africa/Maseru,FALSE,1426092828
Likhoele,Likhoele,,-29.8069,27.2949,Lesotho,LS,LSO,Mafeteng,Mafeteng,LS-E,district,,88.7,,,4,Africa/Maseru,FALSE,1426385471
Mateka,Mateka,Matekas,-29.2333,27.8833,Lesotho,LS,LSO,Berea,Berea,LS-D,district,,102.7,,,4,Africa/Maseru,FALSE,1426171502
"Van Rooyens Gate","Van Rooyens Gate","Van Roiyan’s Gate",-29.7555,27.1093,Lesotho,LS,LSO,Mafeteng,Mafeteng,LS-E,district,,0.8,,,5,Africa/Maseru,FALSE,1426885280
Theetsoa,Theetsoa,,-29.7167,27.9000,Lesotho,LS,LSO,Maseru,Maseru,LS-A,district,,24.4,,,4,Africa/Maseru,FALSE,1426239872
"Molomos Hoek","Molomos Hoek",,-29.7160,27.4841,Lesotho,LS,LSO,Mafeteng,Mafeteng,LS-E,district,,68.4,,,4,Africa/Maseru,FALSE,1426443047
"Thaba Putsoa","Thaba Putsoa",,-29.5937,28.0609,Lesotho,LS,LSO,Maseru,Maseru,LS-A,district,,24.4,,,4,Africa/Maseru,FALSE,1426267658
Rakotoane,Rakotoane,,-29.0274,28.5515,Lesotho,LS,LSO,Butha-Buthe,Butha-Buthe,LS-B,district,,24.2,,,4,Africa/Maseru,FALSE,1426906354
Cana,Cana,,-29.1091,27.8351,Lesotho,LS,LSO,Berea,Berea,LS-D,district,,149.6,,,4,Africa/Maseru,FALSE,1426659936
Litsilong,Litsilong,Majatla,-29.2226,27.7036,Lesotho,LS,LSO,Berea,Berea,LS-D,district,,100.3,,,4,Africa/Maseru,FALSE,1426550073
Laoti,Laoti,,-29.0333,28.5167,Lesotho,LS,LSO,Butha-Buthe,Butha-Buthe,LS-B,district,,24.2,,,4,Africa/Maseru,FALSE,1426873405
"Cutting Camp","Cutting Camp",,-30.2667,27.7500,Lesotho,LS,LSO,"Mohale’s Hoek","Mohale's Hoek",LS-F,district,,30.3,,,4,Africa/Maseru,FALSE,1426280408
Mokema,Mokema,"Mokemas Store",-29.4667,27.6500,Lesotho,LS,LSO,Maseru,Maseru,LS-A,district,,105.9,,,4,Africa/Maseru,FALSE,1426095452
Mokonyane,Mokonyane,Mokunyane,-29.2883,27.8587,Lesotho,LS,LSO,Berea,Berea,LS-D,district,,98.9,,,4,Africa/Maseru,FALSE,1426357103
Leutsoa,Leutsoa,Loutsa,-29.5369,27.5163,Lesotho,LS,LSO,Maseru,Maseru,LS-A,district,,105.6,,,4,Africa/Maseru,FALSE,1426644674
Mosala,Mosala,Mosalas,-29.7298,27.5571,Lesotho,LS,LSO,Mafeteng,Mafeteng,LS-E,district,,67.3,,,4,Africa/Maseru,FALSE,1426737982
Theko,Theko,Thekos,-29.4167,27.7667,Lesotho,LS,LSO,Maseru,Maseru,LS-A,district,,126.4,,,4,Africa/Maseru,FALSE,1426966137
Bolepeletsa,Bolepeletsa,Tapisi,-30.4418,27.6026,Lesotho,LS,LSO,Quthing,Quthing,LS-G,district,,33.5,,,4,Africa/Maseru,FALSE,1426734544
Tsikoane,Tsikoane,,-28.8938,27.9962,Lesotho,LS,LSO,Leribe,Leribe,LS-C,district,,194.3,,,4,Africa/Maseru,FALSE,1426745905
"Upper Qeme","Upper Qeme",Choatlella,-29.5090,27.5120,Lesotho,LS,LSO,Maseru,Maseru,LS-A,district,,180.4,,,4,Africa/Maseru,FALSE,1426520067
Mpite,Mpite,Mpiti,-30.0746,28.6208,Lesotho,LS,LSO,"Qacha’s Nek","Qacha's Nek",LS-H,district,,56.6,,,4,Africa/Maseru,FALSE,1426998773
Likupa,Likupa,Dikupa,-29.7649,27.2879,Lesotho,LS,LSO,Mafeteng,Mafeteng,LS-E,district,,88.7,,,4,Africa/Maseru,FALSE,1426748452
Roma,Roma,,-29.4467,27.7081,Lesotho,LS,LSO,Maseru,Maseru,LS-A,district,,199.0,,,4,Africa/Maseru,FALSE,1426161035
"Riet Vlei","Riet Vlei","Rietvlei Store",-30.0167,27.3333,Lesotho,LS,LSO,"Mohale’s Hoek","Mohale's Hoek",LS-F,district,,64.3,,,4,Africa/Maseru,FALSE,1426848629
Sefikeng,Sefikeng,,-29.2789,27.8078,Lesotho,LS,LSO,Berea,Berea,LS-D,district,,100.3,,,4,Africa/Maseru,FALSE,1426945570
Makhoathi,Makhoathi,Makhoate,-29.3499,27.5998,Lesotho,LS,LSO,Maseru,Maseru,LS-A,district,,195.8,,,4,Africa/Maseru,FALSE,1426097473
Foso,Foso,,-29.2667,27.5667,Lesotho,LS,LSO,Berea,Berea,LS-D,district,,322.5,,,3,Africa/Maseru,FALSE,1426467933
"Hlotse Camp","Hlotse Camp",,-28.8829,28.0751,Lesotho,LS,LSO,Leribe,Leribe,LS-C,district,,323.8,,,3,Africa/Maseru,FALSE,1426016414
Sehlabathebe,Sehlabathebe,,-29.8751,29.0519,Lesotho,LS,LSO,"Qacha’s Nek","Qacha's Nek",LS-H,district,,26.7,,,4,Africa/Maseru,FALSE,1426682947
Lekoatsa,Lekoatsa,Lekhoatsas,-29.9086,27.4276,Lesotho,LS,LSO,Mafeteng,Mafeteng,LS-E,district,,64.6,,,4,Africa/Maseru,FALSE,1426462612
Ntlamas,Ntlamas,Ntlama,-29.1744,27.8754,Lesotho,LS,LSO,Berea,Berea,LS-D,district,,103.5,,,4,Africa/Maseru,FALSE,1426678047
Liphateng,Liphateng,Mokibinyani,-30.0394,27.4335,Lesotho,LS,LSO,"Mohale’s Hoek","Mohale's Hoek",LS-F,district,,64.6,,,4,Africa/Maseru,FALSE,1426061274
Qaba,Qaba,Pitseng,-29.8590,27.5915,Lesotho,LS,LSO,Mafeteng,Mafeteng,LS-E,district,,49.9,,,4,Africa/Maseru,FALSE,1426415925
"Masite Nek","Masite Nek",Palama,-29.5884,27.4891,Lesotho,LS,LSO,Maseru,Maseru,LS-A,district,,98.8,,,4,Africa/Maseru,FALSE,1426213248
Nthodimonate,Nthodimonate,,-30.4833,27.7500,Lesotho,LS,LSO,Quthing,Quthing,LS-G,district,,72.4,,,4,Africa/Maseru,FALSE,1426634412
"Moyeni Camp","Moyeni Camp",,-30.4167,27.6833,Lesotho,LS,LSO,Quthing,Quthing,LS-G,district,,91.1,,,4,Africa/Maseru,FALSE,1426186042
Koeneng,Koeneng,,-29.0333,28.0000,Lesotho,LS,LSO,Berea,Berea,LS-D,district,,149.1,,,4,Africa/Maseru,FALSE,1426741547
Khetisas,Khetisas,,-28.9167,28.1667,Lesotho,LS,LSO,Leribe,Leribe,LS-C,district,,140.7,,,4,Africa/Maseru,FALSE,1426615836
Ramosoeu,Ramosoeu,Ramosueu,-29.9078,27.5245,Lesotho,LS,LSO,Mafeteng,Mafeteng,LS-E,district,,49.9,,,4,Africa/Maseru,FALSE,1426439971
Sekake,Sekake,Sekoke|Sikaki|Sekakes,-30.0000,28.3500,Lesotho,LS,LSO,"Mohale’s Hoek","Mohale's Hoek",LS-F,district,,23.8,,,4,Africa/Maseru,FALSE,1426816109
Mpharane,Mpharane,,-30.0167,27.5500,Lesotho,LS,LSO,"Mohale’s Hoek","Mohale's Hoek",LS-F,district,,55.2,,,4,Africa/Maseru,FALSE,1426792821
Mekaling,Mekaling,Nkeleng|Mekading,-30.2913,27.4878,Lesotho,LS,LSO,"Mohale’s Hoek","Mohale's Hoek",LS-F,district,,69.7,,,4,Africa/Maseru,FALSE,1426254252
Malibe,Malibe,Madibe,-30.2489,27.9358,Lesotho,LS,LSO,Quthing,Quthing,LS-G,district,,32.6,,,4,Africa/Maseru,FALSE,1426333412
Abele,Abele,Abebe|Setleketseng,-29.6398,27.6769,Lesotho,LS,LSO,Maseru,Maseru,LS-A,district,,48.4,,,4,Africa/Maseru,FALSE,1426192698
Patrick,Patrick,"Saint Patrick",-29.5261,27.7441,Lesotho,LS,LSO,Maseru,Maseru,LS-A,district,,198.4,,,4,Africa/Maseru,FALSE,1426014092
Botsabelo,Botsabelo,"Botsabelo Asylum",-29.2667,27.5167,Lesotho,LS,LSO,Berea,Berea,LS-D,district,,781.8,,,3,Africa/Johannesburg,FALSE,1426866591
Hlakametsas,Hlakametsas,Hlakametas|Hlakametsa,-28.7123,28.4368,Lesotho,LS,LSO,Butha-Buthe,Butha-Buthe,LS-B,district,,197.0,,,4,Africa/Maseru,FALSE,1426783886
Ntsi,Ntsi,,-29.4002,27.7637,Lesotho,LS,LSO,Maseru,Maseru,LS-A,district,,126.4,,,4,Africa/Maseru,FALSE,1426630563
"Fort Hartley","Fort Hartley",,-30.3333,27.7500,Lesotho,LS,LSO,Quthing,Quthing,LS-G,district,,22.3,,,4,Africa/Maseru,FALSE,1426328791
Mahatlanes,Mahatlanes,Mahatlane|Mahatlames,-29.2085,27.8418,Lesotho,LS,LSO,Berea,Berea,LS-D,district,,102.6,,,4,Africa/Maseru,FALSE,1426773316
"Sephapos Gate","Sephapos Gate","Sepapus Gate|Sepapo’s",-29.9541,27.2131,Lesotho,LS,LSO,"Mohale’s Hoek","Mohale's Hoek",LS-F,district,,23.7,,,4,Africa/Maseru,FALSE,1426481548
Monaheng,Monaheng,,-29.8667,27.7167,Lesotho,LS,LSO,Mafeteng,Mafeteng,LS-E,district,,49.9,,,4,Africa/Maseru,FALSE,1426140180
Mantsa,Mantsa,,-29.6558,27.8380,Lesotho,LS,LSO,Maseru,Maseru,LS-A,district,,24.4,,,4,Africa/Maseru,FALSE,1426167333
Mankimane,Mankimane,,-29.8500,27.3500,Lesotho,LS,LSO,Mafeteng,Mafeteng,LS-E,district,,80.4,,,4,Africa/Maseru,FALSE,1426084176
"Old Mohales Hoek","Old Mohales Hoek","Old Mohales Hoek Store",-30.1073,27.4755,Lesotho,LS,LSO,"Mohale’s Hoek","Mohale's Hoek",LS-F,district,,133.8,,,4,Africa/Maseru,FALSE,1426976193
"Ha Nohana","Ha Nohana","Na Nohama",-30.0537,27.8538,Lesotho,LS,LSO,"Mohale’s Hoek","Mohale's Hoek",LS-F,district,,20.1,,,4,Africa/Maseru,FALSE,1426630849
Nyane,Nyane,"Saint Anne of Auray",-29.5810,28.2399,Lesotho,LS,LSO,Thaba-Tseka,Thaba-Tseka,LS-K,district,,24.8,,,4,Africa/Maseru,FALSE,1426677623
Thabaneng,Thabaneng,,-29.8167,27.5000,Lesotho,LS,LSO,Mafeteng,Mafeteng,LS-E,district,,68.4,,,4,Africa/Maseru,FALSE,1426518622
Letsie,Letsie,,-29.8333,27.3167,Lesotho,LS,LSO,Mafeteng,Mafeteng,LS-E,district,,88.7,,,4,Africa/Maseru,FALSE,1426543830
Sepechele,Sepechele,,-29.7963,27.3653,Lesotho,LS,LSO,Mafeteng,Mafeteng,LS-E,district,,88.7,,,4,Africa/Maseru,FALSE,1426174747
Matsieng,Matsieng,,-29.6172,27.5664,Lesotho,LS,LSO,Maseru,Maseru,LS-A,district,,105.6,,,4,Africa/Maseru,FALSE,1426134082
Maphutseng,Maphutseng,"Maputseng Store",-30.2167,27.5167,Lesotho,LS,LSO,"Mohale’s Hoek","Mohale's Hoek",LS-F,district,,69.7,,,4,Africa/Maseru,FALSE,1426613955
Kena,Kena,,-29.7667,27.6500,Lesotho,LS,LSO,Mafeteng,Mafeteng,LS-E,district,,67.3,,,4,Africa/Maseru,FALSE,1426123982
Massabiella,Massabiella,Tsius|Tsiu,-29.5307,27.5772,Lesotho,LS,LSO,Maseru,Maseru,LS-A,district,,105.9,,,4,Africa/Maseru,FALSE,1426295324
Monantsa,Monantsa,,-28.5667,28.6333,Lesotho,LS,LSO,Butha-Buthe,Butha-Buthe,LS-B,district,,1.0,,,5,Africa/Johannesburg,FALSE,1426622773
Matsaile,Matsaile,,-29.8187,28.7758,Lesotho,LS,LSO,Thaba-Tseka,Thaba-Tseka,LS-K,district,,34.8,,,4,Africa/Maseru,FALSE,1426319926
Lekhooa,Lekhooa,Lekhoa,-29.9000,27.9167,Lesotho,LS,LSO,"Mohale’s Hoek","Mohale's Hoek",LS-F,district,,20.1,,,4,Africa/Maseru,FALSE,1426409568
Makhaketsa,Makhaketsa,Makakaitsa,-29.0018,27.7574,Lesotho,LS,LSO,Leribe,Leribe,LS-C,district,,118.9,,,4,Africa/Maseru,FALSE,1426503580
Makhaleng,Makhaleng,,-29.5167,27.9000,Lesotho,LS,LSO,Maseru,Maseru,LS-A,district,,24.4,,,4,Africa/Maseru,FALSE,1426759264
Tsoelike,Tsoelike,,-30.0326,28.6972,Lesotho,LS,LSO,"Qacha’s Nek","Qacha's Nek",LS-H,district,,26.7,,,4,Africa/Maseru,FALSE,1426471221
Hermon,Hermon,,-29.7253,27.1119,Lesotho,LS,LSO,Mafeteng,Mafeteng,LS-E,district,,67.3,,,4,Africa/Maseru,FALSE,1426135186
Mathokoane,Mathokoane,"Peete Molapo",-28.9725,28.0278,Lesotho,LS,LSO,Berea,Berea,LS-D,district,,149.9,,,4,Africa/Maseru,FALSE,1426915968
Matela,Matela,Matelas|Khotsa,-29.3750,27.7676,Lesotho,LS,LSO,Maseru,Maseru,LS-A,district,,126.4,,,4,Africa/Maseru,FALSE,1426062209
Seshophe,Seshophe,Sishupi|Likolojane,-29.0333,27.9667,Lesotho,LS,LSO,Berea,Berea,LS-D,district,,149.1,,,4,Africa/Maseru,FALSE,1426097785
Tsehlo,Tsehlo,Sehlo|Tsehlos,-29.3167,27.7833,Lesotho,LS,LSO,Maseru,Maseru,LS-A,district,,126.4,,,4,Africa/Maseru,FALSE,1426000010
Kaphe,Kaphe,Kapi,-29.9557,27.6409,Lesotho,LS,LSO,"Mohale’s Hoek","Mohale's Hoek",LS-F,district,,55.2,,,4,Africa/Maseru,FALSE,1426779480
"Blue Gums","Blue Gums","Blue Gums Store",-30.3395,27.5288,Lesotho,LS,LSO,"Mohale’s Hoek","Mohale's Hoek",LS-F,district,,69.7,,,4,Africa/Maseru,FALSE,1426212647
Joel,Joel,Joels,-28.6833,28.2833,Lesotho,LS,LSO,Butha-Buthe,Butha-Buthe,LS-B,district,,3.3,,,5,Africa/Johannesburg,FALSE,1426108011
Phoofolo,Phoofolo,Phoofolo’s|Pufulo,-29.0623,27.8110,Lesotho,LS,LSO,Berea,Berea,LS-D,district,,149.6,,,4,Africa/Maseru,FALSE,1426095769
Malaleng,Malaleng,,-29.6525,27.3358,Lesotho,LS,LSO,Mafeteng,Mafeteng,LS-E,district,,73.1,,,4,Africa/Maseru,FALSE,1426367832
"Thakabannas Cattle Post","Thakabannas Cattle Post",,-28.7500,28.6500,Lesotho,LS,LSO,Butha-Buthe,Butha-Buthe,LS-B,district,,24.2,,,4,Africa/Maseru,FALSE,1426011181
"Alwyns Kop","Alwyns Kop",,-30.3944,27.6207,Lesotho,LS,LSO,Quthing,Quthing,LS-G,district,,67.0,,,4,Africa/Maseru,FALSE,1426418249
Mokhathis,Mokhathis,Makati,-29.1167,27.9500,Lesotho,LS,LSO,Berea,Berea,LS-D,district,,156.9,,,4,Africa/Maseru,FALSE,1426202803
Machekoaneng,Machekoaneng,Nkata,-29.4353,27.5450,Lesotho,LS,LSO,Maseru,Maseru,LS-A,district,,180.4,,,4,Africa/Maseru,FALSE,1426723913
Mamathes,Mamathes,Masupha|Mamathe|Mamati,-29.1264,27.8336,Lesotho,LS,LSO,Berea,Berea,LS-D,district,,149.6,,,4,Africa/Maseru,FALSE,1426196464
Mofokas,Mofokas,Mofoka,-29.5060,27.5968,Lesotho,LS,LSO,Maseru,Maseru,LS-A,district,,105.9,,,4,Africa/Maseru,FALSE,1426928730
Mokhalinyane,Mokhalinyane,Makadinyane,-29.4833,27.3667,Lesotho,LS,LSO,Maseru,Maseru,LS-A,district,,89.8,,,4,Africa/Maseru,FALSE,1426437899
Mokomane,Mokomane,,-28.9964,28.5451,Lesotho,LS,LSO,Butha-Buthe,Butha-Buthe,LS-B,district,,24.2,,,4,Africa/Maseru,FALSE,1426133685
Seetsas,Seetsas,,-28.9003,28.1752,Lesotho,LS,LSO,Leribe,Leribe,LS-C,district,,158.5,,,4,Africa/Maseru,FALSE,1426355195
Mabotse,Mabotse,Mabotsi,-29.6435,27.0672,Lesotho,LS,LSO,Mafeteng,Mafeteng,LS-E,district,,68.2,,,4,Africa/Maseru,FALSE,1426380645
Ramahleas,Ramahleas,"Ramoihloe Store|Ramahleos",-29.7500,27.1500,Lesotho,LS,LSO,Mafeteng,Mafeteng,LS-E,district,,67.3,,,4,Africa/Maseru,FALSE,1426630956
Mphoto,Mphoto,,-29.4454,27.5892,Lesotho,LS,LSO,Maseru,Maseru,LS-A,district,,105.9,,,4,Africa/Maseru,FALSE,1426631491
Moletsanes,Moletsanes,"Moletsani Store|Moletsane’s Store",-29.1667,28.0500,Lesotho,LS,LSO,Berea,Berea,LS-D,district,,54.8,,,4,Africa/Maseru,FALSE,1426118278
Selomas,Selomas,Selomos|Selomo,-28.7755,28.3433,Lesotho,LS,LSO,Butha-Buthe,Butha-Buthe,LS-B,district,,185.3,,,4,Africa/Maseru,FALSE,1426399934
Richard,Richard,,-29.8833,27.6167,Lesotho,LS,LSO,Mafeteng,Mafeteng,LS-E,district,,49.9,,,4,Africa/Maseru,FALSE,1426644408
Mpobong,Mpobong,,-29.7782,27.8034,Lesotho,LS,LSO,Maseru,Maseru,LS-A,district,,48.4,,,4,Africa/Maseru,FALSE,1426041169
Chere,Chere,Cheri,-29.6023,27.1700,Lesotho,LS,LSO,Mafeteng,Mafeteng,LS-E,district,,68.2,,,4,Africa/Maseru,FALSE,1426823075
Mohlafateng,Mohlafateng,,-29.0333,27.8667,Lesotho,LS,LSO,Leribe,Leribe,LS-C,district,,107.9,,,4,Africa/Maseru,FALSE,1426603391
Makhinas,Makhinas,,-30.1500,27.3500,Lesotho,LS,LSO,"Mohale’s Hoek","Mohale's Hoek",LS-F,district,,130.5,,,4,Africa/Johannesburg,FALSE,1426448429
Morija,Morija,,-29.6297,27.5133,Lesotho,LS,LSO,Maseru,Maseru,LS-A,district,,105.6,,,4,Africa/Maseru,FALSE,1426057293
"Hill Top","Hill Top",,-30.0536,28.8062,Lesotho,LS,LSO,"Qacha’s Nek","Qacha's Nek",LS-H,district,,26.7,,,4,Africa/Maseru,FALSE,1426614055
Likhakeng,Likhakeng,Petlane,-29.6214,27.3195,Lesotho,LS,LSO,Mafeteng,Mafeteng,LS-E,district,,73.1,,,4,Africa/Maseru,FALSE,1426620186
Jaele,Jaele,Jael,-29.4569,27.8739,Lesotho,LS,LSO,Maseru,Maseru,LS-A,district,,24.4,,,4,Africa/Maseru,FALSE,1426131237
Koali,Koali,Makoalis|Koadi,-29.2048,27.7667,Lesotho,LS,LSO,Berea,Berea,LS-D,district,,98.9,,,4,Africa/Maseru,FALSE,1426685910
Mapotu,Mapotu,Mopoto,-29.6397,27.2251,Lesotho,LS,LSO,Mafeteng,Mafeteng,LS-E,district,,68.2,,,4,Africa/Maseru,FALSE,1426971226
"Joels Drift","Joels Drift",,-28.7000,28.2833,Lesotho,LS,LSO,Butha-Buthe,Butha-Buthe,LS-B,district,,3.3,,,5,Africa/Johannesburg,FALSE,1426591174
Tosing,Tosing,,-30.3358,27.9147,Lesotho,LS,LSO,Quthing,Quthing,LS-G,district,,22.3,,,4,Africa/Maseru,FALSE,1426911467
Ntsane,Ntsane,Chete,-29.5142,27.8082,Lesotho,LS,LSO,Maseru,Maseru,LS-A,district,,68.8,,,4,Africa/Maseru,FALSE,1426553376
Serutle,Serutle,"Serutli Store",-28.7291,28.2994,Lesotho,LS,LSO,Butha-Buthe,Butha-Buthe,LS-B,district,,185.3,,,4,Africa/Maseru,FALSE,1426814295
Metolong,Metolong,Mokotoko,-29.3438,27.7834,Lesotho,LS,LSO,Maseru,Maseru,LS-A,district,,126.4,,,4,Africa/Maseru,FALSE,1426556695
Emmaus,Emmaus,Moklepu,-29.7667,27.5500,Lesotho,LS,LSO,Mafeteng,Mafeteng,LS-E,district,,67.3,,,4,Africa/Maseru,FALSE,1426560866
Tau,Tau,,-29.0167,28.1833,Lesotho,LS,LSO,Leribe,Leribe,LS-C,district,,102.5,,,4,Africa/Maseru,FALSE,1426518676
Phafoli,Phafoli,Phafudi,-29.8058,27.6775,Lesotho,LS,LSO,Maseru,Maseru,LS-A,district,,67.3,,,4,Africa/Maseru,FALSE,1426278336
Mokoeng,Mokoeng,Tlokoeng,-29.2408,28.9012,Lesotho,LS,LSO,Mokhotlong,Mokhotlong,LS-J,district,,25.8,,,4,Africa/Maseru,FALSE,1426489300
Tabola,Tabola,,-28.9619,27.8193,Lesotho,LS,LSO,Leribe,Leribe,LS-C,district,,107.9,,,4,Africa/Maseru,FALSE,1426665675
"Qacha’s Nek","Qacha's Nek","Qacha’s Nek Residency|Qachas Nek Camp|Qachasnek Camp|Qacha’s Neck",-30.1167,28.6833,Lesotho,LS,LSO,"Qacha’s Nek","Qacha's Nek",LS-H,district,admin,60.7,,,2,Africa/Maseru,FALSE,1426361264
Letsikas,Letsikas,Letsika,-28.6650,28.4229,Lesotho,LS,LSO,Butha-Buthe,Butha-Buthe,LS-B,district,,56.0,,,4,Africa/Maseru,FALSE,1426886676
Mahloenyeng,Mahloenyeng,Lehloenyas|Lehlonia,-29.5689,27.5513,Lesotho,LS,LSO,Maseru,Maseru,LS-A,district,,105.6,,,4,Africa/Maseru,FALSE,1426673005
Lekokoaneng,Lekokoaneng,Lehlohonolo,-29.1643,27.6900,Lesotho,LS,LSO,Berea,Berea,LS-D,district,,108.5,,,4,Africa/Maseru,FALSE,1426919170
Marakabeis,Marakabeis,"Marakabei|Saint John Baptist",-29.5333,28.1500,Lesotho,LS,LSO,Maseru,Maseru,LS-A,district,,24.4,,,4,Africa/Maseru,FALSE,1426997366
Rasekilas,Rasekilas,,-28.7500,28.3500,Lesotho,LS,LSO,Butha-Buthe,Butha-Buthe,LS-B,district,,185.9,,,4,Africa/Maseru,FALSE,1426705740
Moliboeas,Moliboeas,Modiboea,-28.9000,28.1000,Lesotho,LS,LSO,Leribe,Leribe,LS-C,district,,323.8,,,3,Africa/Maseru,FALSE,1426783154
"Corn Exchange","Corn Exchange",,-28.9833,27.9833,Lesotho,LS,LSO,Berea,Berea,LS-D,district,,149.1,,,4,Africa/Maseru,FALSE,1426263995
Moletsane,Moletsane,"Moletsane’s Store",-29.9274,27.3142,Lesotho,LS,LSO,"Mohale’s Hoek","Mohale's Hoek",LS-F,district,,64.3,,,4,Africa/Maseru,FALSE,1426883968
Brakfontein,Brakfontein,,-30.2418,27.4345,Lesotho,LS,LSO,"Mohale’s Hoek","Mohale's Hoek",LS-F,district,,125.7,,,4,Africa/Maseru,FALSE,1426568485
"Berea Hills","Berea Hills",,-29.2691,27.6103,Lesotho,LS,LSO,Berea,Berea,LS-D,district,,159.1,,,4,Africa/Maseru,FALSE,1426045526
Bokong,Bokong,,-29.3359,28.4609,Lesotho,LS,LSO,Thaba-Tseka,Thaba-Tseka,LS-K,district,,24.8,,,4,Africa/Maseru,FALSE,1426586307
Motsekuoa,Motsekuoa,"Mosekuwa’s Store|Motsekuoas",-29.7010,27.4344,Lesotho,LS,LSO,Mafeteng,Mafeteng,LS-E,district,,72.9,,,4,Africa/Maseru,FALSE,1426882678
Kubung,Kubung,,-30.0940,28.0198,Lesotho,LS,LSO,Quthing,Quthing,LS-G,district,,32.6,,,4,Africa/Maseru,FALSE,1426143071
Tikoe,Tikoe,Leklatsa,-29.3566,27.4623,Lesotho,LS,LSO,Maseru,Maseru,LS-A,district,,1927.2,,,3,Africa/Maseru,FALSE,1426187721
"Sibi Sibi","Sibi Sibi",,-29.8963,27.8201,Lesotho,LS,LSO,Mafeteng,Mafeteng,LS-E,district,,20.1,,,4,Africa/Maseru,FALSE,1426160958
Monyake,Monyake,Monyaki,-29.9772,27.3395,Lesotho,LS,LSO,"Mohale’s Hoek","Mohale's Hoek",LS-F,district,,64.3,,,4,Africa/Maseru,FALSE,1426266878
Tholo,Tholo,,-29.0419,28.5151,Lesotho,LS,LSO,Butha-Buthe,Butha-Buthe,LS-B,district,,24.2,,,4,Africa/Maseru,FALSE,1426682904
Tlalis,Tlalis,Tlali,-29.5880,27.7195,Lesotho,LS,LSO,Maseru,Maseru,LS-A,district,,48.4,,,4,Africa/Maseru,FALSE,1426920579
Tsime,Tsime,,-28.7883,28.4161,Lesotho,LS,LSO,Butha-Buthe,Butha-Buthe,LS-B,district,,197.0,,,4,Africa/Maseru,FALSE,1426921364
"Lebingwanas Cattle Post","Lebingwanas Cattle Post","Ledingwana’s Cattle Post",-28.9167,28.9000,Lesotho,LS,LSO,Mokhotlong,Mokhotlong,LS-J,district,,25.8,,,4,Africa/Maseru,FALSE,1426620447
Sekoala,Sekoala,Sekoalas|Sekwale,-29.4333,27.4667,Lesotho,LS,LSO,Maseru,Maseru,LS-A,district,,180.4,,,4,Africa/Maseru,FALSE,1426573554
Baroaneng,Baroaneng,,-29.7167,27.3500,Lesotho,LS,LSO,Mafeteng,Mafeteng,LS-E,district,,88.7,,,4,Africa/Maseru,FALSE,1426901766
Peka,Peka,Matsohani,-28.8291,28.2130,Lesotho,LS,LSO,Leribe,Leribe,LS-C,district,,185.6,,,4,Africa/Maseru,TRUE,1426690255
Mohlehli,Mohlehli,Bolumatau,-29.7388,27.2078,Lesotho,LS,LSO,Mafeteng,Mafeteng,LS-E,district,,67.3,,,4,Africa/Maseru,FALSE,1426345516
Reisi,Reisi,,-29.6320,27.4152,Lesotho,LS,LSO,Mafeteng,Mafeteng,LS-E,district,,73.6,,,4,Africa/Maseru,FALSE,1426568881
George,George,,-29.2500,27.9500,Lesotho,LS,LSO,Berea,Berea,LS-D,district,,103.5,,,4,Africa/Maseru,FALSE,1426161100
Raleqheka,Raleqheka,Raleqika,-29.6796,27.7002,Lesotho,LS,LSO,Maseru,Maseru,LS-A,district,,48.4,,,4,Africa/Maseru,FALSE,1426816733
Mantsebo,Mantsebo,,-29.4833,27.5167,Lesotho,LS,LSO,Maseru,Maseru,LS-A,district,,180.4,,,4,Africa/Maseru,FALSE,1426794383
Thokoa,Thokoa,,-29.0297,27.7731,Lesotho,LS,LSO,Leribe,Leribe,LS-C,district,,118.9,,,4,Africa/Maseru,FALSE,1426302435
Letseng-la-Terae,Letseng-la-Terae,Terae|Letseng-la-Draai,-28.9167,28.8167,Lesotho,LS,LSO,Mokhotlong,Mokhotlong,LS-J,district,,25.4,,,4,Africa/Maseru,FALSE,1426709246
Sinxondo,Sinxondo,Kalokuni,-30.5667,27.7333,Lesotho,LS,LSO,Quthing,Quthing,LS-G,district,,70.7,,,4,Africa/Maseru,FALSE,1426821009
Hobsons,Hobsons,,-29.1167,27.9667,Lesotho,LS,LSO,Berea,Berea,LS-D,district,,169.3,,,4,Africa/Maseru,FALSE,1426363612
Mashai,Mashai,,-29.6451,28.8092,Lesotho,LS,LSO,Thaba-Tseka,Thaba-Tseka,LS-K,district,,19.9,,,4,Africa/Maseru,FALSE,1426805254
Makuaes,Makuaes,,-30.2880,28.0576,Lesotho,LS,LSO,Quthing,Quthing,LS-G,district,,32.6,,,4,Africa/Maseru,FALSE,1426838799
Ramapepe,Ramapepe,,-28.9900,28.1491,Lesotho,LS,LSO,Leribe,Leribe,LS-C,district,,102.5,,,4,Africa/Maseru,FALSE,1426888009
Mantoetsi,Mantoetsi,,-29.1500,27.9000,Lesotho,LS,LSO,Berea,Berea,LS-D,district,,149.6,,,4,Africa/Maseru,FALSE,1426465131
Jonathans,Jonathans,Jonathan,-28.8016,28.1066,Lesotho,LS,LSO,Leribe,Leribe,LS-C,district,,141.2,,,4,Africa/Maseru,FALSE,1426426101
Morameng,Morameng,,-29.0800,27.7257,Lesotho,LS,LSO,Leribe,Leribe,LS-C,district,,118.9,,,4,Africa/Maseru,FALSE,1426783585
"Tsa Kholo","Tsa Kholo",,-29.6692,27.1516,Lesotho,LS,LSO,Mafeteng,Mafeteng,LS-E,district,,67.3,,,4,Africa/Maseru,FALSE,1426759144
Boqate,Boqate,"Bokatis Store",-29.3549,27.5885,Lesotho,LS,LSO,Maseru,Maseru,LS-A,district,,176.7,,,4,Africa/Maseru,FALSE,1426786678
Kolonyama,Kolonyama,Manama,-29.0626,27.7411,Lesotho,LS,LSO,Leribe,Leribe,LS-C,district,,118.9,,,4,Africa/Maseru,FALSE,1426129595
Tsiame,Tsiame,Likotsi|Lipolisa,-29.3885,27.4583,Lesotho,LS,LSO,Maseru,Maseru,LS-A,district,,1169.4,,,3,Africa/Maseru,FALSE,1426239139
Khabos,Khabos,,-28.8333,28.2333,Lesotho,LS,LSO,Leribe,Leribe,LS-C,district,,130.5,,,4,Africa/Maseru,FALSE,1426781855
Lejone,Lejone,,-29.1042,28.5000,Lesotho,LS,LSO,Leribe,Leribe,LS-C,district,,25.2,,,4,Africa/Maseru,FALSE,1426119803
Toloane,Toloane,Lekhoa,-29.6445,27.4681,Lesotho,LS,LSO,Maseru,Maseru,LS-A,district,,105.6,,,4,Africa/Maseru,FALSE,1426547905
Mohlakoanas,Mohlakoanas,Mahlakoanas|Mohlakwana,-30.2179,27.9394,Lesotho,LS,LSO,Quthing,Quthing,LS-G,district,,32.6,,,4,Africa/Maseru,FALSE,1426407494
Thakabannas,Thakabannas,Thakabanna,-28.6157,28.4644,Lesotho,LS,LSO,Butha-Buthe,Butha-Buthe,LS-B,district,,56.0,,,4,Africa/Maseru,FALSE,1426469806
Numolani,Numolani,,-29.0500,28.9667,Lesotho,LS,LSO,Mokhotlong,Mokhotlong,LS-J,district,,25.5,,,4,Africa/Maseru,FALSE,1426903154
"Lower Qeme","Lower Qeme",,-29.5324,27.4954,Lesotho,LS,LSO,Maseru,Maseru,LS-A,district,,133.1,,,4,Africa/Maseru,FALSE,1426606405
Kala,Kala,Kalo,-28.7167,28.3333,Lesotho,LS,LSO,Butha-Buthe,Butha-Buthe,LS-B,district,,185.3,,,4,Africa/Maseru,FALSE,1426863272
Motloang,Motloang,Matbang,-29.3224,27.6500,Lesotho,LS,LSO,Maseru,Maseru,LS-A,district,,322.5,,,3,Africa/Maseru,FALSE,1426790443
Libono,Libono,Libono’s|Dibuno’s,-28.6244,28.5710,Lesotho,LS,LSO,Butha-Buthe,Butha-Buthe,LS-B,district,,56.0,,,4,Africa/Maseru,FALSE,1426556410
Mosetlas,Mosetlas,Mosetle,-30.3333,27.7500,Lesotho,LS,LSO,Quthing,Quthing,LS-G,district,,22.3,,,4,Africa/Maseru,FALSE,1426507338
Qamako,Qamako,Thabatsoeu,-29.7847,27.4090,Lesotho,LS,LSO,Mafeteng,Mafeteng,LS-E,district,,68.4,,,4,Africa/Maseru,FALSE,1426869616
"Mount Moorosi","Mount Moorosi","Mount Moroosi|Masiribani",-30.2731,27.8708,Lesotho,LS,LSO,Quthing,Quthing,LS-G,district,,32.6,,,4,Africa/Maseru,FALSE,1426131358
Ntilane,Ntilane,,-29.9667,27.2833,Lesotho,LS,LSO,"Mohale’s Hoek","Mohale's Hoek",LS-F,district,,64.3,,,4,Africa/Maseru,FALSE,1426946763
Khotsi,Khotsi,Rakoto|Khotsis,-29.0611,27.9354,Lesotho,LS,LSO,Berea,Berea,LS-D,district,,149.1,,,4,Africa/Maseru,FALSE,1426588981
Molefis,Molefis,,-28.7667,28.2833,Lesotho,LS,LSO,Butha-Buthe,Butha-Buthe,LS-B,district,,307.0,,,3,Africa/Maseru,FALSE,1426497979
Setleketseng,Setleketseng,Nkesi,-29.6640,27.7875,Lesotho,LS,LSO,Maseru,Maseru,LS-A,district,,48.4,,,4,Africa/Maseru,FALSE,1426277640
Setleketseng,Setleketseng,Setleketsing,-29.6000,28.0000,Lesotho,LS,LSO,Maseru,Maseru,LS-A,district,,24.4,,,4,Africa/Maseru,TRUE,1426733386
Fako,Fako,"Fako Store|Fako’s",-29.2824,27.8060,Lesotho,LS,LSO,Berea,Berea,LS-D,district,,100.3,,,4,Africa/Maseru,FALSE,1426790825
Neni,Neni,,-30.2000,28.3500,Lesotho,LS,LSO,Quthing,Quthing,LS-G,district,,41.2,,,4,Africa/Maseru,FALSE,1426533115
Seutloali,Seutloali,Phatso|Masoeling,-29.1685,27.9517,Lesotho,LS,LSO,Berea,Berea,LS-D,district,,149.6,,,4,Africa/Maseru,FALSE,1426447038
Helspoort,Helspoort,"Hellspoort|Hellspoort Store",-29.8667,27.4000,Lesotho,LS,LSO,Mafeteng,Mafeteng,LS-E,district,,64.6,,,4,Africa/Maseru,FALSE,1426913500
Lirahalibonoe,Lirahalibonoe,,-29.4500,27.9333,Lesotho,LS,LSO,Maseru,Maseru,LS-A,district,,24.4,,,4,Africa/Maseru,FALSE,1426755063
Makhalanyane,Makhalanyane,Makhalanyanes,-29.4087,27.6174,Lesotho,LS,LSO,Maseru,Maseru,LS-A,district,,176.7,,,4,Africa/Maseru,FALSE,1426853496
Tsoloane,Tsoloane,Tsoloani,-30.0134,27.3599,Lesotho,LS,LSO,"Mohale’s Hoek","Mohale's Hoek",LS-F,district,,64.3,,,4,Africa/Maseru,FALSE,1426993506
Koro-Koro,Koro-Koro,"Saint Joseph’s",-29.5000,27.6333,Lesotho,LS,LSO,Maseru,Maseru,LS-A,district,,105.9,,,4,Africa/Maseru,FALSE,1426945741
"Dilli Dilli","Dilli Dilli",,-30.5270,27.6702,Lesotho,LS,LSO,Quthing,Quthing,LS-G,district,,154.5,,,4,Africa/Maseru,FALSE,1426583433
Lersuelas,Lersuelas,,-29.0333,28.1000,Lesotho,LS,LSO,Berea,Berea,LS-D,district,,102.5,,,4,Africa/Maseru,FALSE,1426909997
"Thaba Bosigo","Thaba Bosigo","Thaba Bosiu",-29.3451,27.6713,Lesotho,LS,LSO,Maseru,Maseru,LS-A,district,,176.7,,,4,Africa/Maseru,FALSE,1426602021
Moitsupelis,Moitsupelis,,-29.5833,27.7667,Lesotho,LS,LSO,Maseru,Maseru,LS-A,district,,47.9,,,4,Africa/Maseru,FALSE,1426516900
Khitsane,Khitsane,,-30.0921,27.4139,Lesotho,LS,LSO,"Mohale’s Hoek","Mohale's Hoek",LS-F,district,,133.8,,,4,Africa/Maseru,FALSE,1426589760
Mojela,Mojela,Lekhoa,-29.5487,27.8881,Lesotho,LS,LSO,Maseru,Maseru,LS-A,district,,24.4,,,4,Africa/Maseru,FALSE,1426679635
"Hangers Drift","Hangers Drift",,-29.2000,27.5667,Lesotho,LS,LSO,Berea,Berea,LS-D,district,,121.7,,,4,Africa/Maseru,FALSE,1426439142
"Tsupane Gate","Tsupane Gate","Tsupani Gate|Sepanies Gate",-29.7071,27.0985,Lesotho,LS,LSO,Mafeteng,Mafeteng,LS-E,district,,67.3,,,4,Africa/Maseru,FALSE,1426091989
Morifi,Morifi,"Morife Store|Morife",-30.3025,27.4038,Lesotho,LS,LSO,"Mohale’s Hoek","Mohale's Hoek",LS-F,district,,30.2,,,4,Africa/Maseru,FALSE,1426136670
Ranko,Ranko,Sekameng,-29.5671,27.2387,Lesotho,LS,LSO,Mafeteng,Mafeteng,LS-E,district,,68.2,,,4,Africa/Maseru,FALSE,1426538623
Tseka,Tseka,,-29.4123,27.5098,Lesotho,LS,LSO,Maseru,Maseru,LS-A,district,,180.4,,,4,Africa/Maseru,FALSE,1426528799
Helehehle,Helehehle,,-29.9833,27.5000,Lesotho,LS,LSO,Mafeteng,Mafeteng,LS-E,district,,64.2,,,4,Africa/Maseru,FALSE,1426111884
Khamolane,Khamolane,,-29.3500,27.7333,Lesotho,LS,LSO,Maseru,Maseru,LS-A,district,,116.5,,,4,Africa/Maseru,FALSE,1426296130
Mutlanyane,Mutlanyane,,-28.8167,28.4500,Lesotho,LS,LSO,Butha-Buthe,Butha-Buthe,LS-B,district,,24.2,,,4,Africa/Maseru,FALSE,1426550440
Makhoas,Makhoas,,-28.9639,28.1335,Lesotho,LS,LSO,Leribe,Leribe,LS-C,district,,102.5,,,4,Africa/Maseru,FALSE,1426778155
Molumong,Molumong,,-29.3255,28.9893,Lesotho,LS,LSO,Mokhotlong,Mokhotlong,LS-J,district,,31.0,,,4,Africa/Maseru,FALSE,1426561373
Makojang,Makojang,Makoyang,-29.9333,27.7333,Lesotho,LS,LSO,Mafeteng,Mafeteng,LS-E,district,,49.9,,,4,Africa/Maseru,FALSE,1426730666
Dinkung,Dinkung,Lepatsa,-28.6167,28.5167,Lesotho,LS,LSO,Butha-Buthe,Butha-Buthe,LS-B,district,,56.0,,,4,Africa/Maseru,FALSE,1426901633
