city,city_ascii,city_alt,lat,lng,country,iso2,iso3,admin_name,admin_name_ascii,admin_code,admin_type,capital,density,population,population_proper,ranking,timezone,same_name,id
Tripoli,Tripoli,"Tarabulus el Gharb|Ea|Ţarābulus al Gharb|Oea|Aea|Taràbles|Ţarābulus",32.8872,13.1914,Libya,LY,LBY,Ţarābulus,Tarabulus,LY-TB,popularate,primary,785.0,1183000,1183000,1,Africa/Tripoli,FALSE,1434201852
Benghazi,Benghazi,Bengasi|Benghasi|Berenice|Hesperides|Binghāzī|Bengazi|Banghāzī,32.1167,20.0667,Libya,LY,LBY,Banghāzī,Banghazi,LY-BA,popularate,admin,61.1,631555,631555,2,Africa/Tripoli,FALSE,1434915572
Ajdābiyā,Ajdabiya,Ajdābiyah|Adjadabia|Agedabia,30.7556,20.2253,Libya,LY,LBY,"Al Wāḩāt","Al Wahat",LY-WA,popularate,admin,1.1,416000,416000,2,Africa/Tripoli,FALSE,1434401280
Mişrātah,Misratah,"Misurata|Madīnat Mişrātah",32.3775,15.0920,Libya,LY,LBY,Mişrātah,Misratah,LY-MI,popularate,admin,22.8,259056,259056,2,Africa/Tripoli,FALSE,1434518407
"Al Bayḑā’","Al Bayda'","Beda|Al-Baida|Az Zāwiyah al Bayḑā’|Zauia el Beda|Zāwiyat el-Bēḑā’|Bayda|El Beida|White Monastery|Zāwiyat al Bayḑā’|Zawiat al-Baida|Balis|Balagrae|Baida|Beida",32.7664,21.7417,Libya,LY,LBY,"Al Jabal al Akhḑar","Al Jabal al Akhdar",LY-JA,popularate,admin,30.1,250000,250000,2,Africa/Tripoli,FALSE,1434263017
"Al Khums","Al Khums",Homs,32.6497,14.2644,Libya,LY,LBY,"Al Marqab","Al Marqab",LY-MB,popularate,,77.1,201943,201943,2,Africa/Tripoli,FALSE,1434172839
"Az Zāwīyah","Az Zawiyah","Ez Zauia|Az Zāwiyah al Gherbīyah|Zawia|Zavia|Zauia",32.7522,12.7278,Libya,LY,LBY,"Az Zāwiyah","Az Zawiyah",LY-ZA,popularate,admin,129.3,200000,200000,2,Africa/Tripoli,FALSE,1434421178
Gharyān,Gharyan,"Gasr Gariàn|Garian",32.1697,13.0167,Libya,LY,LBY,"Al Jabal al Gharbī","Al Jabal al Gharbi",LY-JG,popularate,admin,4.8,187854,187854,2,Africa/Tripoli,FALSE,1434507846
"Al Marj","Al Marj","El Merj",32.5005,20.8300,Libya,LY,LBY,"Al Marj","Al Marj",LY-MJ,popularate,admin,20.9,169540,169540,2,Africa/Tripoli,FALSE,1434742923
Tobruk,Tobruk,Ţubruq|Tobruck|Antipyrgos|Tóbruch|Antipyrgus,32.0761,23.9614,Libya,LY,LBY,"Al Buţnān","Al Butnan",LY-BU,popularate,admin,2.4,135832,135832,2,Africa/Tripoli,FALSE,1434068493
Şabrātah,Sabratah,"Sábra|Sabratha|Şabrah|Madīnat Şabrātah",32.7922,12.4842,Libya,LY,LBY,"An Nuqāţ al Khams","An Nuqat al Khams",LY-NQ,popularate,,59.1,102038,102038,2,Africa/Tripoli,FALSE,1434908655
"Al Jumayl","Al Jumayl","El-Gemìl|Al Jamīl",32.8528,12.0611,Libya,LY,LBY,"An Nuqāţ al Khams","An Nuqat al Khams",LY-NQ,popularate,,59.1,102000,102000,2,Africa/Tripoli,FALSE,1434494324
Darnah,Darnah,Darnis|Dérna,32.7636,22.6361,Libya,LY,LBY,Darnah,Darnah,LY-DR,popularate,admin,9.4,90000,90000,2,Africa/Tripoli,FALSE,1434920152
Janzūr,Janzur,Zanzūr,32.8172,13.0111,Libya,LY,LBY,"Al Jafārah","Al Jafarah",LY-JI,popularate,,207.3,88073,88073,3,Africa/Tripoli,FALSE,1434528890
Zuwārah,Zuwarah,Zuáva|Zuára,32.9333,12.0833,Libya,LY,LBY,"An Nuqāţ al Khams","An Nuqat al Khams",LY-NQ,popularate,admin,59.1,80310,80310,2,Africa/Tripoli,FALSE,1434206265
Masallātah,Masallatah,,32.5822,14.0400,Libya,LY,LBY,"Al Marqab","Al Marqab",LY-MB,popularate,,77.1,80000,80000,3,Africa/Tripoli,FALSE,1434116845
Surt,Surt,"Sirte|Macomades-Euphranta|Sert|Sirt|Qaşr Za‘farān|Gasr Zaafrán|Qaşr Sirt",31.2050,16.5886,Libya,LY,LBY,Surt,Surt,LY-SR,popularate,admin,2.3,76788,76788,2,Africa/Tripoli,FALSE,1434563640
Yafran,Yafran,"Gasr Iefren|Iefren|Jefren|Yafrin",32.0629,12.5267,Libya,LY,LBY,"Al Jabal al Gharbī","Al Jabal al Gharbi",LY-JG,popularate,,4.8,72662,72662,3,Africa/Tripoli,FALSE,1434967497
Nālūt,Nalut,Lalút,31.8685,10.9812,Libya,LY,LBY,Nālūt,Nalut,LY-NL,popularate,admin,1.8,66609,66609,2,Africa/Tripoli,FALSE,1434550258
"Banī Walīd","Bani Walid","Gasr Béni Ulíd|Beniulid|Qaşr Banī Walīd",31.7619,14.0139,Libya,LY,LBY,Mişrātah,Misratah,LY-MI,popularate,,22.8,50824,50824,3,Africa/Tripoli,FALSE,1434398590
Tājūrā’,Tajura',Tājūrāh|Tagiura,32.8818,13.3399,Libya,LY,LBY,Ţarābulus,Tarabulus,LY-TB,popularate,,1553.1,48836,48836,3,Africa/Tripoli,FALSE,1434120461
Birāk,Birak,Brach,27.5333,14.2834,Libya,LY,LBY,"Wādī ash Shāţi’","Wadi ash Shati'",LY-WS,popularate,,0.9,45421,45421,3,Africa/Tripoli,FALSE,1434095842
Shaḩḩāt,Shahhat,Gureine|Sciahhát|Grennah|Kyrene|Cyrene|Shahat|Cirene,32.8250,21.8581,Libya,LY,LBY,"Al Jabal al Akhḑar","Al Jabal al Akhdar",LY-JA,popularate,,30.1,45000,45000,3,Africa/Tripoli,FALSE,1434402597
Murzuq,Murzuq,Murzuch|Mourzouk|Marzūq,25.9000,13.9000,Libya,LY,LBY,Murzuq,Murzuq,LY-MQ,popularate,admin,0.3,43732,43732,2,Africa/Tripoli,FALSE,1434910333
Awbārī,Awbari,Ubari,26.5833,12.7667,Libya,LY,LBY,"Wādī al Ḩayāt","Wadi al Hayat",LY-WD,popularate,admin,2.9,35000,35000,2,Africa/Tripoli,FALSE,1434431378
"Qaşr al Qarabūllī","Qasr al Qarabulli","Gasr Garabúlli|Gasr el Gharabulli|Qarabūllī|Qarah Būllī|Gasr el-Garabùlli|Castelverde|Qaşr al Qarahbullī|Qaşr al Qarābūllī",32.7500,13.7167,Libya,LY,LBY,Ţarābulus,Tarabulus,LY-TB,popularate,,77.1,34584,34584,3,Africa/Tripoli,FALSE,1434342806
Waddān,Waddan,Uaddan,29.1611,16.1436,Libya,LY,LBY,"Al Jufrah","Al Jufrah",LY-JU,popularate,,0.6,27590,27590,3,Africa/Tripoli,FALSE,1434593649
"Al Qubbah","Al Qubbah","Berta|Al Gubbah|Gubba|Giovanni Berta|El-Gúbba",32.7667,22.2500,Libya,LY,LBY,Darnah,Darnah,LY-DR,popularate,,9.4,24631,24631,3,Africa/Tripoli,FALSE,1434167769
"Al ‘Azīzīyah","Al `Aziziyah","Azizia|El Azizia",32.5308,13.0211,Libya,LY,LBY,"Al Jafārah","Al Jafarah",LY-JI,popularate,admin,207.3,23399,23399,2,Africa/Tripoli,FALSE,1434450111
Mizdah,Mizdah,Mizda|Misdah,31.4450,12.9831,Libya,LY,LBY,"Al Jabal al Gharbī","Al Jabal al Gharbi",LY-JG,popularate,,4.8,23216,23216,3,Africa/Tripoli,FALSE,1434622990
Tūkrah,Tukrah,"Tokrah|Teuchira|Taukra|Al ‘Āqūrīyah|Tocra",32.5322,20.5722,Libya,LY,LBY,Banghāzī,Banghazi,LY-BA,popularate,,57.0,23164,23164,3,Africa/Tripoli,FALSE,1434350017
Ghāt,Ghat,Gat|Rhat,24.9644,10.1781,Libya,LY,LBY,Ghāt,Ghat,LY-GT,popularate,admin,0.6,22000,22000,2,Africa/Tripoli,FALSE,1434971028
"Az Zuwaytīnah","Az Zuwaytinah","Zuetina|Zueitina|Qaryat az Zuwaytīnah|Marsa Uasili|Ez Zuetína|Zweytinah",30.9522,20.1203,Libya,LY,LBY,Banghāzī,Banghazi,LY-BA,popularate,,1.1,21015,21015,3,Africa/Tripoli,FALSE,1434562634
Hūn,Hun,"Hon|Madīnat Hūn",29.1268,15.9477,Libya,LY,LBY,"Al Jufrah","Al Jufrah",LY-JU,popularate,admin,0.6,18878,18878,2,Africa/Tripoli,FALSE,1434396501
"Qaryat al Qī‘ān","Qaryat al Qi`an",Badr,32.0167,11.5000,Libya,LY,LBY,Nālūt,Nalut,LY-NL,popularate,,1.8,18693,18693,3,Africa/Tripoli,FALSE,1434845164
"Al Jawf","Al Jawf",Al-Jof|El-Gióf,24.2167,23.3000,Libya,LY,LBY,"Al Kufrah","Al Kufrah",LY-KF,popularate,admin,0.1,18587,18587,2,Africa/Tripoli,FALSE,1434996940
Zalţan,Zaltan,Zelten,32.9500,11.8658,Libya,LY,LBY,"An Nuqāţ al Khams","An Nuqat al Khams",LY-NQ,popularate,,59.1,17700,17700,3,Africa/Tripoli,FALSE,1434839248
"Az Zintān","Az Zintan","Az Zantām|Zintán|Ez-Zintán",31.9306,12.2483,Libya,LY,LBY,"Al Jabal al Gharbī","Al Jabal al Gharbi",LY-JG,popularate,,4.8,16024,16024,3,Africa/Tripoli,FALSE,1434009562
"Qaryat Sulūq","Qaryat Suluq","Solùgh|Soluch|Qaryat Salūq|Qaryat Salūg|Sulūq",31.6686,20.2503,Libya,LY,LBY,Banghāzī,Banghazi,LY-BA,popularate,,61.1,15543,15543,3,Africa/Tripoli,FALSE,1434000178
Tarhūnah,Tarhunah,"Gasr Tarhuna|Tarhuna|Qaşr Tarhūnah|El-Ubberát|El-Buerát",32.4339,13.6344,Libya,LY,LBY,Ţarābulus,Tarabulus,LY-TB,popularate,,77.1,13264,13264,3,Africa/Tripoli,FALSE,1434109178
"Umm ar Rizam","Umm ar Rizam","Zàuiet Umm er-Rzem|Zāwiyat Umm ar Rizam|Zauia Umm er-Rzem|Umm ar Razam",32.5325,23.0053,Libya,LY,LBY,Darnah,Darnah,LY-DR,popularate,,9.4,12098,12098,3,Africa/Tripoli,FALSE,1434030412
Qamīnis,Qaminis,Caminus|Ghemines,31.6572,20.0144,Libya,LY,LBY,Banghāzī,Banghazi,LY-BA,popularate,,61.1,10713,10713,3,Africa/Tripoli,FALSE,1434752325
Kiklah,Kiklah,Chicla,32.0683,12.6944,Libya,LY,LBY,"Al Jabal al Gharbī","Al Jabal al Gharbi",LY-JG,popularate,,4.8,10350,10350,3,Africa/Tripoli,FALSE,1434206473
Ghadāmis,Ghadamis,Rhadames|Gadames|Ghadames|Ghudāmis,30.1333,9.5000,Libya,LY,LBY,Nālūt,Nalut,LY-NL,popularate,,1.8,10000,10000,3,Africa/Tripoli,FALSE,1434013321
Sūknah,Suknah,Soknah|Socna|Sawknah|Sawkanah|Miani,29.0669,15.7847,Libya,LY,LBY,"Al Jufrah","Al Jufrah",LY-JU,popularate,,0.6,9887,9887,4,Africa/Tripoli,FALSE,1434785614
"As Sidrah","As Sidrah",,30.6294,18.3503,Libya,LY,LBY,Surt,Surt,LY-SR,popularate,,2.3,9186,9186,4,Africa/Tripoli,FALSE,1434673703
"Al Bardīyah","Al Bardiyah","Bardia|Petras Maior|Bórdi Slemán|Bardīyah",31.7600,25.0750,Libya,LY,LBY,"Al Buţnān","Al Butnan",LY-BU,popularate,,2.4,9149,9149,3,Africa/Tripoli,FALSE,1434335416
"Al Abraq","Al Abraq","Al Lazraq|Al Labraq|Al Labrag|El-Abràgh|Luigi di Savoia",32.7867,21.9978,Libya,LY,LBY,"Al Jabal al Akhḑar","Al Jabal al Akhdar",LY-JA,popularate,,9.4,8861,8861,4,Africa/Tripoli,FALSE,1434086011
"Bin Jawwād","Bin Jawwad","Qaryat Wādī Bin Quwwād|Bin Quwad",30.8008,18.0864,Libya,LY,LBY,Surt,Surt,LY-SR,popularate,,2.3,8488,8488,4,Africa/Tripoli,FALSE,1434891444
Sūsah,Susah,"Apollonie|Màrsa Sùsa|Susa|Marza-Souza|Marsá Sūsah|Appolonia|Apollonia|Abūlūniyā",32.8967,21.9631,Libya,LY,LBY,"Al Jabal al Akhḑar","Al Jabal al Akhdar",LY-JA,popularate,,30.1,7999,7999,3,Africa/Tripoli,FALSE,1434673222
Martūbah,Martubah,Martúba,32.5953,22.7639,Libya,LY,LBY,Darnah,Darnah,LY-DR,popularate,,9.4,7730,7730,4,Africa/Tripoli,FALSE,1434853737
"Al Qayqab","Al Qayqab","El-Ghégab|Minţaqat al Qayqab|Ghoigah",32.7256,22.0217,Libya,LY,LBY,"Al Jabal al Akhḑar","Al Jabal al Akhdar",LY-JA,popularate,,9.4,7297,7297,4,Africa/Tripoli,FALSE,1434270584
Musā‘id,Musa`id,,31.5758,25.0397,Libya,LY,LBY,"Al Buţnān","Al Butnan",LY-BU,popularate,,2.4,7139,7139,3,Africa/Tripoli,FALSE,1434216668
Tāknis,Taknis,"Técnis|Tácnis|Borgo Torelli",32.4803,21.1267,Libya,LY,LBY,"Al Marj","Al Marj",LY-MJ,popularate,,20.9,7038,7038,4,Africa/Tripoli,FALSE,1434306022
"Al Burayqah","Al Burayqah","El-Brega|Port Brega|Marsa el Brega|Marsa Bregha|Marsa Brega|Qasr al Buraygah|Marsá al Burayqah|Qaşr al Burayqah",30.4350,19.6669,Libya,LY,LBY,"Al Wāḩāt","Al Wahat",LY-WA,popularate,,1.1,7000,7000,4,Africa/Tripoli,FALSE,1434516624
Awjilah,Awjilah,Wajilah|Augila,29.1081,21.2869,Libya,LY,LBY,"Al Wāḩāt","Al Wahat",LY-WA,popularate,,1.1,6610,6610,3,Africa/Tripoli,FALSE,1434938770
Farzūghah,Farzughah,Farzughan|Baracca,32.5014,20.7036,Libya,LY,LBY,"Al Marj","Al Marj",LY-MJ,popularate,,20.9,6564,6564,4,Africa/Tripoli,FALSE,1434352222
"Qaryat ‘Umar al Mukhtār","Qaryat `Umar al Mukhtar","Mameli|‘Umar al Mukhtār",32.6303,21.6747,Libya,LY,LBY,"Al Jabal al Akhḑar","Al Jabal al Akhdar",LY-JA,popularate,,30.1,6521,6521,3,Africa/Tripoli,FALSE,1434914535
"Bi’r al Ashhab","Bi'r al Ashhab",,31.9167,24.7000,Libya,LY,LBY,"Al Buţnān","Al Butnan",LY-BU,popularate,,2.4,6399,6399,4,Africa/Tripoli,FALSE,1434655736
"Qaryat al Fā’idīyah","Qaryat al Fa'idiyah","Al Fā’idīyah|De Martino|Al Fāyidīyah|Zàuia el-Faidìa|El Faldia|El-Faidìa|Faidia|Az Zawiyah al Fā’idīyah",32.6906,21.9075,Libya,LY,LBY,"Al Jabal al Akhḑar","Al Jabal al Akhdar",LY-JA,popularate,,30.1,6273,6273,4,Africa/Tripoli,FALSE,1434717660
"Jardas al ‘Abīd","Jardas al `Abid","Gerdes el-Abíd|Jerdes el Abid",32.3047,20.9831,Libya,LY,LBY,"Al Marj","Al Marj",LY-MJ,popularate,,20.9,6051,6051,4,Africa/Tripoli,FALSE,1434692812
Qandūlah,Qandulah,,32.5378,21.5758,Libya,LY,LBY,"Al Jabal al Akhḑar","Al Jabal al Akhdar",LY-JA,popularate,,30.1,5583,5583,4,Africa/Tripoli,FALSE,1434160512
Kambūt,Kambut,"Gambut|Gasr Cambút|Qaşr Kunbūth|Gasr Gambut",31.9053,24.4814,Libya,LY,LBY,"Al Buţnān","Al Butnan",LY-BU,popularate,,2.4,5292,5292,4,Africa/Tripoli,FALSE,1434976240
Daryānah,Daryanah,"Záuiet Driana|Manţiqat Daryānah|Manţigat Daryānah|Hadrianopolis|Driyānah|Driána",32.3472,20.3089,Libya,LY,LBY,Banghāzī,Banghazi,LY-BA,popularate,,61.1,4532,4532,4,Africa/Tripoli,FALSE,1434109946
Marāwah,Marawah,Maráua,32.4831,21.4042,Libya,LY,LBY,"Al Jabal al Akhḑar","Al Jabal al Akhdar",LY-JA,popularate,,30.1,4510,4510,4,Africa/Tripoli,FALSE,1434662739
Jikharrah,Jikharrah,Jikheira|Jiḩarrah|Gichérra,29.2833,21.6333,Libya,LY,LBY,"Al Wāḩāt","Al Wahat",LY-WA,popularate,,1.1,4117,4117,4,Africa/Tripoli,FALSE,1434225430
Zawīlah,Zawilah,Zuila,26.1667,15.1167,Libya,LY,LBY,Murzuq,Murzuq,LY-MQ,popularate,,0.3,4018,4018,4,Africa/Tripoli,FALSE,1434968162
Wāzin,Wazin,Wazzān|Uazzen,31.9422,10.6625,Libya,LY,LBY,Nālūt,Nalut,LY-NL,popularate,,1.8,3792,3792,3,Africa/Tripoli,FALSE,1434374160
Qirnādah,Qirnadah,"Qaryat Qirnādah|Qaryat Qimādah",32.7300,21.9061,Libya,LY,LBY,"Al Jabal al Akhḑar","Al Jabal al Akhdar",LY-JA,popularate,,30.1,3415,3415,4,Africa/Tripoli,FALSE,1434629088
"Bi’r al Ghanam","Bi'r al Ghanam","Bir el-Ghnem|Bir Ghnem",32.3125,12.5697,Libya,LY,LBY,"Az Zāwiyah","Az Zawiyah",LY-ZA,popularate,,129.3,3375,3375,4,Africa/Tripoli,FALSE,1434381106
"Ar Rajmah","Ar Rajmah","Er Regema|Regima|Er Rejima|Er-Régima",32.0717,20.3406,Libya,LY,LBY,Banghāzī,Banghazi,LY-BA,popularate,,61.1,3220,3220,4,Africa/Tripoli,FALSE,1434345135
"Al Jaghbūb","Al Jaghbub",El-Giagbúb|Giarabub|Jaghbūb,29.7425,24.5169,Libya,LY,LBY,"Al Buţnān","Al Butnan",LY-BU,popularate,,2.4,2960,2960,4,Africa/Tripoli,FALSE,1434128425
Sulunţah,Suluntah,Slonţah|Slónta|Salanţah|Slonta,32.5903,21.7158,Libya,LY,LBY,"Al Jabal al Akhḑar","Al Jabal al Akhdar",LY-JA,popularate,,30.1,2674,2674,4,Africa/Tripoli,FALSE,1434311524
Marādah,Maradah,Marada,29.2333,19.2167,Libya,LY,LBY,"Al Wāḩāt","Al Wahat",LY-WA,popularate,,1.1,2229,2229,4,Africa/Tripoli,FALSE,1434000794
Tajarhī,Tajarhi,Tegerhi,24.2622,14.5603,Libya,LY,LBY,Murzuq,Murzuq,LY-MQ,popularate,,0.3,1496,1496,3,Africa/Tripoli,FALSE,1434443909
Daraj,Daraj,"Derg|Berdj|Baldat Daraj|Derj|Dirj",30.1500,10.4500,Libya,LY,LBY,Nālūt,Nalut,LY-NL,popularate,,1.8,931,931,4,Africa/Tripoli,FALSE,1434822177
Tmassah,Tmassah,Tmessa,26.3667,15.8000,Libya,LY,LBY,Murzuq,Murzuq,LY-MQ,popularate,,0.3,500,500,4,Africa/Tripoli,FALSE,1434333715
"Al Wīgh","Al Wigh","Al Wyg",24.2451,14.5661,Libya,LY,LBY,Murzuq,Murzuq,LY-MQ,popularate,,0.3,300,300,4,Africa/Tripoli,FALSE,1434786020
"Umm al ‘Abīd","Umm al `Abid","Umm el Abid",27.5170,15.0333,Libya,LY,LBY,"Wādī ash Shāţi’","Wadi ash Shati'",LY-WS,popularate,,9.5,300,300,4,Africa/Tripoli,FALSE,1434373121
Zlīţan,Zlitan,Zliten|Islīten|Subgoli|Izlīten|Ziliten,32.4667,14.5667,Libya,LY,LBY,"Al Marqab","Al Marqab",LY-MB,popularate,,22.8,200,200,3,Africa/Tripoli,FALSE,1434390638
"Al ‘Uqaylah","Al `Uqaylah","El Agheila|Aghéila|Anabucis",30.2558,19.1994,Libya,LY,LBY,"Al Wāḩāt","Al Wahat",LY-WA,popularate,,1.1,100,100,3,Africa/Tripoli,FALSE,1434822941
Zillah,Zillah,Zella,28.5489,17.5511,Libya,LY,LBY,"Al Jufrah","Al Jufrah",LY-JU,popularate,,0.6,10,10,5,Africa/Tripoli,FALSE,1434245699
Sabhā,Sabha,"Sebha|Fort Leclerc|El-Gedíd|Sebhah|Sabhah",27.0389,14.4264,Libya,LY,LBY,Sabhā,Sabha,LY-SB,popularate,admin,9.5,2,2,2,Africa/Tripoli,FALSE,1434044820
"Qaryat al Fayāşilah","Qaryat al Fayasilah","Al Fayāşilah|Gótros|El-Fiásla",31.8519,11.7674,Libya,LY,LBY,"Al Jabal al Gharbī","Al Jabal al Gharbi",LY-JG,popularate,,4.8,,,4,Africa/Tripoli,FALSE,1434534988
Tāghmah,Taghmah,Taghimah|Tagma,32.0971,12.5499,Libya,LY,LBY,"Al Jabal al Gharbī","Al Jabal al Gharbi",LY-JG,popularate,,4.8,,,5,Africa/Tripoli,FALSE,1434024954
"Qaryat aş Şūwāk ‘Ayn Ghulū","Qaryat as Suwak `Ayn Ghulu","El-Asuách|Al Aswāq|Qaryat aş Şuwwāk ‘Ayn Ghuluww|El Asuágh",32.3473,15.1257,Libya,LY,LBY,Mişrātah,Misratah,LY-MI,popularate,,22.8,,,4,Africa/Tripoli,FALSE,1434784055
"Qabīlat Qubā‘","Qabilat Quba`",Ghebbáa|Qubā‘,32.0864,13.0117,Libya,LY,LBY,"Al Jabal al Gharbī","Al Jabal al Gharbi",LY-JG,popularate,,4.8,,,5,Africa/Tripoli,FALSE,1434607762
"Awlād Rayyān","Awlad Rayyan","Ulad Riàn",31.9833,12.3000,Libya,LY,LBY,"Al Jabal al Gharbī","Al Jabal al Gharbi",LY-JG,popularate,,4.8,,,5,Africa/Tripoli,FALSE,1434228069
"Al Khalā’ifah","Al Khala'ifah","Qaryat al Halāyifah|El-Chláifa",32.0110,12.4791,Libya,LY,LBY,"Al Jabal al Gharbī","Al Jabal al Gharbi",LY-JG,popularate,,4.8,,,5,Africa/Tripoli,FALSE,1434655518
"Qaryat Awlā Bin Shayyah","Qaryat Awla Bin Shayyah",,32.3788,15.1340,Libya,LY,LBY,Mişrātah,Misratah,LY-MI,popularate,,22.8,,,4,Africa/Tripoli,FALSE,1434184903
Karsah,Karsah,Kirissah|Chèrsa,32.8472,22.4199,Libya,LY,LBY,Darnah,Darnah,LY-DR,popularate,,9.4,,,5,Africa/Tripoli,FALSE,1434025839
"Al Milayţānīyah","Al Milaytaniyah",,32.3667,20.6333,Libya,LY,LBY,Banghāzī,Banghazi,LY-BA,popularate,,61.1,,,4,Africa/Tripoli,FALSE,1434187184
"Qaryat aş Şawādiq","Qaryat as Sawadiq","Qaryat aş Şawādaq",32.0219,15.1211,Libya,LY,LBY,Mişrātah,Misratah,LY-MI,popularate,,22.8,,,4,Africa/Tripoli,FALSE,1434939057
Mallūk,Malluk,,32.0163,15.0387,Libya,LY,LBY,Mişrātah,Misratah,LY-MI,popularate,,22.8,,,4,Africa/Tripoli,FALSE,1434000020
"Kamb al ‘Ajjāj","Kamb al `Ajjaj",Qartah,32.0973,20.2566,Libya,LY,LBY,Banghāzī,Banghazi,LY-BA,popularate,,61.1,,,4,Africa/Tripoli,FALSE,1434652790
"Qaşr Barrūrū","Qasr Barruru","Gasr Berruru",26.6667,13.7500,Libya,LY,LBY,"Wādī al Ḩayāt","Wadi al Hayat",LY-WD,popularate,,2.9,,,5,Africa/Tripoli,FALSE,1434170825
"Qaşbat Diyāb","Qasbat Diyab","Qaşbat Dhiyāb|Qaşabat Diyāb",30.1819,10.4502,Libya,LY,LBY,Nālūt,Nalut,LY-NL,popularate,,1.8,,,5,Africa/Tripoli,FALSE,1434875123
Māzūzah,Mazuzah,,31.2667,13.0500,Libya,LY,LBY,"Al Jabal al Gharbī","Al Jabal al Gharbi",LY-JG,popularate,,4.8,,,5,Africa/Tripoli,FALSE,1434473448
"Ash Sharshārah","Ash Sharsharah",,32.4667,13.6167,Libya,LY,LBY,Ţarābulus,Tarabulus,LY-TB,popularate,,77.1,,,4,Africa/Tripoli,FALSE,1434819172
Şayyād,Sayyad,,32.8167,12.9500,Libya,LY,LBY,"Al Jafārah","Al Jafarah",LY-JI,popularate,,207.3,,,3,Africa/Tripoli,FALSE,1434630447
"Awlād ‘Alī Bū al Qāsim","Awlad `Ali Bu al Qasim",,32.0463,12.5723,Libya,LY,LBY,"Al Jabal al Gharbī","Al Jabal al Gharbi",LY-JG,popularate,,4.8,,,5,Africa/Tripoli,FALSE,1434155874
Bishr,Bishr,,30.3000,19.2167,Libya,LY,LBY,,,,,,1.1,,,5,Africa/Tripoli,FALSE,1434266169
Asbī‘ah,Asbi`ah,,32.5167,13.1667,Libya,LY,LBY,Ţarābulus,Tarabulus,LY-TB,popularate,,207.3,,,3,Africa/Tripoli,FALSE,1434644187
"Al Khazūr","Al Khazur","El-Chzur|El Gsir",32.0924,12.6266,Libya,LY,LBY,"Al Jabal al Gharbī","Al Jabal al Gharbi",LY-JG,popularate,,4.8,,,5,Africa/Tripoli,FALSE,1434723276
"Qaryat al Ja‘āfirah","Qaryat al Ja`afirah",,32.3752,15.1492,Libya,LY,LBY,Mişrātah,Misratah,LY-MI,popularate,,22.8,,,4,Africa/Tripoli,FALSE,1434396601
"Ash Sha‘binīyah","Ash Sha`biniyah","As Sha‘bīnīyah",31.9513,12.2374,Libya,LY,LBY,"Al Jabal al Gharbī","Al Jabal al Gharbi",LY-JG,popularate,,4.8,,,5,Africa/Tripoli,FALSE,1434209796
Kammūn,Kammun,Kamūn|Cammún,32.1362,13.0320,Libya,LY,LBY,"Al Jabal al Gharbī","Al Jabal al Gharbi",LY-JG,popularate,,4.8,,,5,Africa/Tripoli,FALSE,1434483050
"Qabīlat al Qanawāt","Qabilat al Qanawat",,32.5761,14.3603,Libya,LY,LBY,"Al Marqab","Al Marqab",LY-MB,popularate,,77.1,,,4,Africa/Tripoli,FALSE,1434654045
Rāshidah,Rashidah,Rasceda,29.0167,21.5167,Libya,LY,LBY,"Al Wāḩāt","Al Wahat",LY-WA,popularate,,1.1,,,5,Africa/Tripoli,FALSE,1434604836
"Qaryat Abū al Aḩnāsh","Qaryat Abu al Ahnash","Qaryat Abū Aḩnāsh",31.7846,19.9601,Libya,LY,LBY,Banghāzī,Banghazi,LY-BA,popularate,,61.1,,,4,Africa/Tripoli,FALSE,1434090106
Kābāw,Kabaw,Cabao,31.8472,11.3306,Libya,LY,LBY,Nālūt,Nalut,LY-NL,popularate,,1.8,,,5,Africa/Tripoli,FALSE,1434542229
"Mazra‘at Sāqīl","Mazra`at Saqil",,32.4343,13.6487,Libya,LY,LBY,Ţarābulus,Tarabulus,LY-TB,popularate,,77.1,,,4,Africa/Tripoli,FALSE,1434449757
"Al Wāţīyah","Al Watiyah","Al Waţī’ah|Al Uotia|Al Waţyah",32.4764,11.7679,Libya,LY,LBY,"An Nuqāţ al Khams","An Nuqat al Khams",LY-NQ,popularate,,59.1,,,4,Africa/Tripoli,FALSE,1434543117
"Qabīlat Lawātah","Qabilat Lawatah","Luáta|Qabīlat Liwātah|Lawātah",32.5577,14.0140,Libya,LY,LBY,"Al Marqab","Al Marqab",LY-MB,popularate,,77.1,,,4,Africa/Tripoli,FALSE,1434816704
Dūshīn,Dushin,Dusein,31.8643,11.8224,Libya,LY,LBY,"Al Jabal al Gharbī","Al Jabal al Gharbi",LY-JG,popularate,,4.8,,,5,Africa/Tripoli,FALSE,1434519004
"Bi’r Dūfān","Bi'r Dufan",,31.9684,14.6022,Libya,LY,LBY,"Al Marqab","Al Marqab",LY-MB,popularate,,22.8,,,4,Africa/Tripoli,FALSE,1434905910
"An Nawwāqīyah","An Nawwaqiyah","En Nauuaghia|En Nauaghia",31.9274,20.1687,Libya,LY,LBY,Banghāzī,Banghazi,LY-BA,popularate,,61.1,,,4,Africa/Tripoli,FALSE,1434822201
"Qaryat al Ḩuwayjāt","Qaryat al Huwayjat","Qaryat al Ḩawayjāt",32.6193,14.1416,Libya,LY,LBY,"Al Marqab","Al Marqab",LY-MB,popularate,,77.1,,,4,Africa/Tripoli,FALSE,1434853053
"Zāwiyat al Ḩabīb","Zawiyat al Habib","Zāwiyat al Marāzīq|Zàuiet el-Marazìgh|Zawiat al-Maraziq",32.8137,22.2934,Libya,LY,LBY,Darnah,Darnah,LY-DR,popularate,,9.4,,,4,Africa/Tripoli,FALSE,1434755491
"Qaryat Jardīnah","Qaryat Jardinah",Giardīna|Jardīnah,31.7925,20.2035,Libya,LY,LBY,Banghāzī,Banghazi,LY-BA,popularate,,61.1,,,4,Africa/Tripoli,FALSE,1434785737
"Qaşr al Fawqānī","Qasr al Fawqani","Gasr el-Fogani|Gasr el-Fugáni",31.0333,10.6000,Libya,LY,LBY,Nālūt,Nalut,LY-NL,popularate,,1.8,,,5,Africa/Tripoli,FALSE,1434795843
Qayqām,Qayqam,Gogam|Ghegám,27.5641,14.1824,Libya,LY,LBY,"Wādī ash Shāţi’","Wadi ash Shati'",LY-WS,popularate,,0.9,,,5,Africa/Tripoli,FALSE,1434091229
"Al Ghīrān","Al Ghiran","El-Gheràn|El Ghiran",32.3500,15.0333,Libya,LY,LBY,Mişrātah,Misratah,LY-MI,popularate,,22.8,,,4,Africa/Tripoli,FALSE,1434834707
"Al Masīl","Al Masil",,32.2667,20.9667,Libya,LY,LBY,"Al Marj","Al Marj",LY-MJ,popularate,,20.9,,,4,Africa/Tripoli,FALSE,1434695425
"Qabīlat Banī Salīm","Qabilat Bani Salim","Banī Yakhlaf|Béni Iéchlef",32.6279,14.0269,Libya,LY,LBY,"Al Marqab","Al Marqab",LY-MB,popularate,,77.1,,,4,Africa/Tripoli,FALSE,1434125196
"Al Ḩamīdīyah","Al Hamidiyah",Ed-Dachla|Laḩmīdīyah,32.8844,13.3908,Libya,LY,LBY,Ţarābulus,Tarabulus,LY-TB,popularate,,1553.1,,,3,Africa/Tripoli,FALSE,1434333595
"Al Juḩaysh","Al Juhaysh",Gehésc|El-Gehésc,32.1375,12.6542,Libya,LY,LBY,"Al Jabal al Gharbī","Al Jabal al Gharbi",LY-JG,popularate,,4.8,,,5,Africa/Tripoli,FALSE,1434761449
Tākbāl,Takbal,"Tacbál|Ulad Tacbál",32.1242,12.6339,Libya,LY,LBY,"Al Jabal al Gharbī","Al Jabal al Gharbi",LY-JG,popularate,,4.8,,,5,Africa/Tripoli,FALSE,1434987867
"Ar Raqabah","Ar Raqabah","Er Rahèba|Ar Rahèba",26.5980,13.5584,Libya,LY,LBY,"Wādī al Ḩayāt","Wadi al Hayat",LY-WD,popularate,,2.9,,,5,Africa/Tripoli,FALSE,1434939998
"Az Zuwayyah","Az Zuwayyah","Ez-Zuéia|Az Zawīyyah",32.1086,13.0222,Libya,LY,LBY,"Al Jabal al Gharbī","Al Jabal al Gharbi",LY-JG,popularate,,4.8,,,5,Africa/Tripoli,FALSE,1434271281
Jaddā’im,Jadda'im,"Oliveti|Jūd Dā’im|Geddàim|Oasi di Geddàim|Dara Geddaim",32.7800,12.7828,Libya,LY,LBY,"Az Zāwiyah","Az Zawiyah",LY-ZA,popularate,,129.3,,,4,Africa/Tripoli,FALSE,1434473456
"Qabīlat Awlād Bin Aḩmad","Qabilat Awlad Bin Ahmad","Qabīlat Awlād Rin Aḩmad",32.8361,13.0722,Libya,LY,LBY,"Al Jafārah","Al Jafarah",LY-JI,popularate,,207.3,,,3,Africa/Tripoli,FALSE,1434396972
"Abū ar Rīsh","Abu ar Rish",,32.7284,12.4964,Libya,LY,LBY,"Az Zāwiyah","Az Zawiyah",LY-ZA,popularate,,59.1,,,4,Africa/Tripoli,FALSE,1434765410
"Sīdī Bin Zīnah","Sidi Bin Zinah","Sīdī Bū Zīnah|Raqdālīn|Regdalin|Riqdālīn",32.8833,11.9833,Libya,LY,LBY,"An Nuqāţ al Khams","An Nuqat al Khams",LY-NQ,popularate,,59.1,,,4,Africa/Tripoli,FALSE,1434162767
"Baldat al Qawāsim","Baldat al Qawasim","Baldat Qawāsim|El Guàsem",31.8500,12.2167,Libya,LY,LBY,"Al Jabal al Gharbī","Al Jabal al Gharbi",LY-JG,popularate,,4.8,,,5,Africa/Tripoli,FALSE,1434337366
Tījī,Tiji,Tigi|Tidji,32.0149,11.3546,Libya,LY,LBY,Nālūt,Nalut,LY-NL,popularate,,1.8,,,5,Africa/Tripoli,FALSE,1434240327
"Qaryat Shumaykh","Qaryat Shumaykh","Shumaykh|Scemech|Qaryat Ishyamkh",31.4117,13.9519,Libya,LY,LBY,Mişrātah,Misratah,LY-MI,popularate,,22.8,,,4,Africa/Tripoli,FALSE,1434819335
"Sīdī Bin al Bashīrī","Sidi Bin al Bashiri",,32.6833,13.5667,Libya,LY,LBY,Ţarābulus,Tarabulus,LY-TB,popularate,,77.1,,,4,Africa/Tripoli,FALSE,1434435275
Qarqārish,Qarqarish,Gargarech|Gargáresc|Gargaresh,32.8697,13.1078,Libya,LY,LBY,Ţarābulus,Tarabulus,LY-TB,popularate,,1553.1,,,3,Africa/Tripoli,FALSE,1434076943
"Awlād ‘Alī","Awlad `Ali",,32.1592,13.0042,Libya,LY,LBY,"Al Jabal al Gharbī","Al Jabal al Gharbi",LY-JG,popularate,,4.8,,,5,Africa/Tripoli,FALSE,1434084999
"Awlād ‘Alī","Awlad `Ali","Ulad Alí|Baldat Awlād ‘Alī",32.0158,12.3715,Libya,LY,LBY,"Al Jabal al Gharbī","Al Jabal al Gharbi",LY-JG,popularate,,4.8,,,5,Africa/Tripoli,TRUE,1434754707
"Qaryat Rufaydah","Qaryat Rufaydah","Qaryat Rutaydah",32.3316,15.0974,Libya,LY,LBY,Mişrātah,Misratah,LY-MI,popularate,,22.8,,,4,Africa/Tripoli,FALSE,1434234824
"Al Hīrī","Al Hiri",El-Hiri,29.0500,21.5167,Libya,LY,LBY,"Al Wāḩāt","Al Wahat",LY-WA,popularate,,1.1,,,5,Africa/Tripoli,FALSE,1434322372
"Al Maghāsil","Al Maghasil",,32.5777,14.1816,Libya,LY,LBY,"Al Marqab","Al Marqab",LY-MB,popularate,,77.1,,,4,Africa/Tripoli,FALSE,1434675832
"Qaryat ash Shuyyāb","Qaryat ash Shuyyab",,30.9105,13.0778,Libya,LY,LBY,"Al Jabal al Gharbī","Al Jabal al Gharbi",LY-JG,popularate,,4.8,,,5,Africa/Tripoli,FALSE,1434845740
"Al ‘Urqūb","Al `Urqub",,31.9464,12.2180,Libya,LY,LBY,"Al Jabal al Gharbī","Al Jabal al Gharbi",LY-JG,popularate,,4.8,,,5,Africa/Tripoli,FALSE,1434079733
"Sūq Qamāţah al Gharbīyah","Suq Qamatah al Gharbiyah",,32.1667,13.3833,Libya,LY,LBY,"Al Jabal al Gharbī","Al Jabal al Gharbi",LY-JG,popularate,,4.8,,,5,Africa/Tripoli,FALSE,1434343697
"Al Karārīm","Al Kararim",Gioda,32.3922,15.0571,Libya,LY,LBY,Mişrātah,Misratah,LY-MI,popularate,,22.8,,,4,Africa/Tripoli,FALSE,1434301036
"Bi’r ‘Ayyād","Bi'r `Ayyad",,32.1317,12.4645,Libya,LY,LBY,"Al Jabal al Gharbī","Al Jabal al Gharbi",LY-JG,popularate,,4.8,,,5,Africa/Tripoli,FALSE,1434339030
Qāwāt,Qawat,,25.9333,14.1000,Libya,LY,LBY,Murzuq,Murzuq,LY-MQ,popularate,,0.3,,,5,Africa/Tripoli,FALSE,1434837054
"Baldat ad Duwayb","Baldat ad Duwayb","Ulàd Duib",31.9324,12.2318,Libya,LY,LBY,"Al Jabal al Gharbī","Al Jabal al Gharbi",LY-JG,popularate,,4.8,,,5,Africa/Tripoli,FALSE,1434287564
"Sūq al Khamīs","Suq al Khamis","Sugh el-Chmis|Thursday Market",32.5872,14.3469,Libya,LY,LBY,"Al Marqab","Al Marqab",LY-MB,popularate,,77.1,,,4,Africa/Tripoli,FALSE,1434994275
"Qabr Umm al Hīshah","Qabr Umm al Hishah","Qabr Umm ‘Ā’ishah",30.1506,20.0542,Libya,LY,LBY,"Al Wāḩāt","Al Wahat",LY-WA,popularate,,1.1,,,5,Africa/Tripoli,FALSE,1434498012
"Bin Ghashīr","Bin Ghashir","Funduq Bin Ghashīr|Castel Benito|Funduq Ben Ghashīr|Fóndugh Ben Gascír",32.6878,13.1739,Libya,LY,LBY,Ţarābulus,Tarabulus,LY-TB,popularate,,207.3,,,3,Africa/Tripoli,FALSE,1434608761
"Ash Shawāshinah","Ash Shawashinah","Esc-Sciuáscena|El Shawashna",29.1717,21.2942,Libya,LY,LBY,"Al Wāḩāt","Al Wahat",LY-WA,popularate,,1.1,,,5,Africa/Tripoli,FALSE,1434980044
"Qabīlat Sīlīn","Qabilat Silin",Sīlīn,32.6683,14.1739,Libya,LY,LBY,"Al Marqab","Al Marqab",LY-MB,popularate,,77.1,,,4,Africa/Tripoli,FALSE,1434256518
"Qabīlat al Qazzīr","Qabilat al Qazzir",,32.3503,15.0723,Libya,LY,LBY,Mişrātah,Misratah,LY-MI,popularate,,22.8,,,4,Africa/Tripoli,FALSE,1434468646
"Qaşr Bin Ghashīr","Qasr Bin Ghashir",,32.6853,13.1756,Libya,LY,LBY,Ţarābulus,Tarabulus,LY-TB,popularate,,207.3,,,3,Africa/Tripoli,FALSE,1434269827
"Al Qaţrūn","Al Qatrun","El Gatrun|Al Katrun|Al Gatrun",24.9514,14.6486,Libya,LY,LBY,Murzuq,Murzuq,LY-MQ,popularate,,0.3,,,4,Africa/Tripoli,FALSE,1434868505
"Awlād Mūshād","Awlad Mushad",,32.0878,12.8975,Libya,LY,LBY,"Al Jabal al Gharbī","Al Jabal al Gharbi",LY-JG,popularate,,4.8,,,5,Africa/Tripoli,FALSE,1434658534
Wānzīraf,Wanziraf,Uenzíref|Wanzarīf,31.8593,11.8695,Libya,LY,LBY,"Al Jabal al Gharbī","Al Jabal al Gharbi",LY-JG,popularate,,4.8,,,5,Africa/Tripoli,FALSE,1434567311
"Madīnat Bayāḑ","Madinat Bayad",,32.0091,23.9775,Libya,LY,LBY,"Al Buţnān","Al Butnan",LY-BU,popularate,,2.4,,,5,Africa/Tripoli,FALSE,1434334106
"Qaryat al ‘Arīmah","Qaryat al `Arimah",,31.4328,13.9761,Libya,LY,LBY,Mişrātah,Misratah,LY-MI,popularate,,22.8,,,4,Africa/Tripoli,FALSE,1434350080
"Qabīlat Awlād ‘Āmir","Qabilat Awlad `Amir",,32.0008,12.3321,Libya,LY,LBY,"Al Jabal al Gharbī","Al Jabal al Gharbi",LY-JG,popularate,,4.8,,,5,Africa/Tripoli,FALSE,1434759524
Tuquţţah,Tuquttah,"Baldat Tuqţah",30.1924,10.4494,Libya,LY,LBY,Nālūt,Nalut,LY-NL,popularate,,1.8,,,5,Africa/Tripoli,FALSE,1434951281
"Qaryat Nadbās","Qaryat Nadbas",Nedbas|Nadbās,31.9509,11.9688,Libya,LY,LBY,"Al Jabal al Gharbī","Al Jabal al Gharbi",LY-JG,popularate,,4.8,,,5,Africa/Tripoli,FALSE,1434296154
"Qabīlat ar Raḩūmāt","Qabilat ar Rahumat",,32.3337,14.5444,Libya,LY,LBY,"Al Marqab","Al Marqab",LY-MB,popularate,,22.8,,,4,Africa/Tripoli,FALSE,1434404063
"An Nakhlayn","An Nakhlayn",,32.2029,13.0450,Libya,LY,LBY,"Al Jabal al Gharbī","Al Jabal al Gharbi",LY-JG,popularate,,4.8,,,5,Africa/Tripoli,FALSE,1434807628
"Baldat al ‘Umyān","Baldat al `Umyan",El-Amìan,31.9210,12.2231,Libya,LY,LBY,"Al Jabal al Gharbī","Al Jabal al Gharbi",LY-JG,popularate,,4.8,,,5,Africa/Tripoli,FALSE,1434255293
"Qabīlat Awlād aţ Ţāmid","Qabilat Awlad at Tamid","Qabīlat Awlād Iţāmid|Qabīlat Awlād Ḩāmid|Qabīlat Awlād ath Thamad|Qabīlat Awlād Liţāmid",31.9967,15.1909,Libya,LY,LBY,Mişrātah,Misratah,LY-MI,popularate,,22.8,,,4,Africa/Tripoli,FALSE,1434794222
"Al Mabnī","Al Mabni",El-Mébni,32.4279,20.4500,Libya,LY,LBY,Banghāzī,Banghazi,LY-BA,popularate,,61.1,,,4,Africa/Tripoli,FALSE,1434242538
"Ash Shaqqī","Ash Shaqqi",Scefí,31.9965,12.0831,Libya,LY,LBY,"Al Jabal al Gharbī","Al Jabal al Gharbi",LY-JG,popularate,,4.8,,,5,Africa/Tripoli,FALSE,1434222113
Quwayjilah,Quwayjilah,Gugila,32.1047,12.6764,Libya,LY,LBY,"Al Jabal al Gharbī","Al Jabal al Gharbi",LY-JG,popularate,,4.8,,,5,Africa/Tripoli,FALSE,1434910330
"Al ‘Izzīyāt","Al `Izziyat",,32.2500,20.0667,Libya,LY,LBY,Banghāzī,Banghazi,LY-BA,popularate,,0,,,5,Africa/Tripoli,FALSE,1434962600
"Awlād Jarbū‘","Awlad Jarbu`",,32.1801,13.0832,Libya,LY,LBY,"Al Jabal al Gharbī","Al Jabal al Gharbi",LY-JG,popularate,,4.8,,,5,Africa/Tripoli,FALSE,1434372301
Maslīwah,Masliwah,Mesliua,29.0500,21.5000,Libya,LY,LBY,"Al Wāḩāt","Al Wahat",LY-WA,popularate,,1.1,,,5,Africa/Tripoli,FALSE,1434297919
Māryān,Maryan,,32.0575,12.5617,Libya,LY,LBY,"Al Jabal al Gharbī","Al Jabal al Gharbi",LY-JG,popularate,,4.8,,,5,Africa/Tripoli,FALSE,1434617715
Jakharrah,Jakharrah,,29.2167,21.5667,Libya,LY,LBY,"Al Wāḩāt","Al Wahat",LY-WA,popularate,,1.1,,,5,Africa/Tripoli,FALSE,1434239946
Massah,Massah,"Razza|Méssa|Luigi Razza|Māssah",32.7517,21.6264,Libya,LY,LBY,"Al Jabal al Akhḑar","Al Jabal al Akhdar",LY-JA,popularate,,30.1,,,4,Africa/Tripoli,FALSE,1434701241
"Qabīlat al ‘Abādīlah","Qabilat al `Abadilah","Qabīlat al ‘Abādilah",32.2803,14.6972,Libya,LY,LBY,"Al Marqab","Al Marqab",LY-MB,popularate,,22.8,,,4,Africa/Tripoli,FALSE,1434758574
"Qaryat ‘Ayn al Madham","Qaryat `Ayn al Madham",,32.3510,15.1325,Libya,LY,LBY,Mişrātah,Misratah,LY-MI,popularate,,22.8,,,4,Africa/Tripoli,FALSE,1434296302
"Bū al Ashhar","Bu al Ashhar",Billashhir|Belascehar,32.8833,13.3167,Libya,LY,LBY,Ţarābulus,Tarabulus,LY-TB,popularate,,1553.1,,,3,Africa/Tripoli,FALSE,1434993461
"Ad Dāfīnah","Ad Dafinah","Ad Dafinīyah|Ad Dafnīyah",32.4134,14.7930,Libya,LY,LBY,"Al Marqab","Al Marqab",LY-MB,popularate,,22.8,,,4,Africa/Tripoli,FALSE,1434519577
Tardīyah,Tardiyah,Taredia|Tāridyah,31.9843,12.1146,Libya,LY,LBY,"Al Jabal al Gharbī","Al Jabal al Gharbi",LY-JG,popularate,,4.8,,,5,Africa/Tripoli,FALSE,1434016661
"Qabīlat al Abqār","Qabilat al Abqar",,32.2623,13.0319,Libya,LY,LBY,"Al Jafārah","Al Jafarah",LY-JI,popularate,,4.8,,,5,Africa/Tripoli,FALSE,1434058034
"Al Hīshah","Al Hishah","Al Hayshah|El Hissa|El Hescia|Al Hishah",31.6458,15.2842,Libya,LY,LBY,Mişrātah,Misratah,LY-MI,popularate,,22.8,,,4,Africa/Tripoli,FALSE,1434622294
Īnīr,Inir,Iner|Īnīyah,31.9222,11.9467,Libya,LY,LBY,"Al Jabal al Gharbī","Al Jabal al Gharbi",LY-JG,popularate,,4.8,,,5,Africa/Tripoli,FALSE,1434264694
"Baldat al ‘Uqaybah","Baldat al `Uqaybah","Baldat ‘Uqaybah|El-Agheiba|El-Aghíba|Al ‘Uqaybah",31.9948,12.3043,Libya,LY,LBY,"Al Jabal al Gharbī","Al Jabal al Gharbi",LY-JG,popularate,,4.8,,,4,Africa/Tripoli,FALSE,1434530330
‘Akramah,`Akramah,‘Ikrimah|Acroma,32.0528,23.6989,Libya,LY,LBY,"Al Buţnān","Al Butnan",LY-BU,popularate,,2.4,,,5,Africa/Tripoli,FALSE,1434960224
"Al Qābil","Al Qabil",,32.1947,13.0269,Libya,LY,LBY,"Al Jabal al Gharbī","Al Jabal al Gharbi",LY-JG,popularate,,4.8,,,5,Africa/Tripoli,FALSE,1434037608
"Nuqţat al Khaţţābīyah","Nuqtat al Khattabiyah",,31.7705,25.0419,Libya,LY,LBY,"Al Buţnān","Al Butnan",LY-BU,popularate,,2.4,,,5,Africa/Tripoli,FALSE,1434866821
"Al La‘āqīb","Al La`aqib",,32.0678,12.6764,Libya,LY,LBY,"Al Jabal al Gharbī","Al Jabal al Gharbi",LY-JG,popularate,,4.8,,,5,Africa/Tripoli,FALSE,1434080304
"Awlād Khalaf Allāh","Awlad Khalaf Allah","Ulàd Chalfàlla",32.0384,12.5177,Libya,LY,LBY,"Al Jabal al Gharbī","Al Jabal al Gharbi",LY-JG,popularate,,4.8,,,5,Africa/Tripoli,FALSE,1434632125
"Awlād Qalāsī","Awlad Qalasi","Ulàd Glàli",32.0792,12.6892,Libya,LY,LBY,"Al Jabal al Gharbī","Al Jabal al Gharbi",LY-JG,popularate,,4.8,,,5,Africa/Tripoli,FALSE,1434844855
‘Aqqār,`Aqqar,Aggar,25.9633,13.5314,Libya,LY,LBY,Murzuq,Murzuq,LY-MQ,popularate,,0.3,,,5,Africa/Tripoli,FALSE,1434308422
Tandimmīrah,Tandimmirah,Tendemmira|Tandammīrah|Tandimirrah,31.8642,11.5017,Libya,LY,LBY,Nālūt,Nalut,LY-NL,popularate,,1.8,,,4,Africa/Tripoli,FALSE,1434795405
"Ash Shi‘āfīyīn","Ash Shi`afiyin","Ash Sha‘āfīyīn",32.5922,13.8700,Libya,LY,LBY,"Al Marqab","Al Marqab",LY-MB,popularate,,77.1,,,4,Africa/Tripoli,FALSE,1434724689
"Qaşr al Jady","Qasr al Jady","Qaşr al Jadī",31.8529,24.7878,Libya,LY,LBY,"Al Buţnān","Al Butnan",LY-BU,popularate,,2.4,,,5,Africa/Tripoli,FALSE,1434984103
"Al ‘Uwaylīyah","Al `Uwayliyah",,32.5572,20.9906,Libya,LY,LBY,"Al Marj","Al Marj",LY-MJ,popularate,,20.9,,,4,Africa/Tripoli,FALSE,1434000017
Qīrah,Qirah,Ghira,27.5859,14.3537,Libya,LY,LBY,"Wādī ash Shāţi’","Wadi ash Shati'",LY-WS,popularate,,0.9,,,5,Africa/Tripoli,FALSE,1434878227
"Qaryat ‘Ayn Makhlūf","Qaryat `Ayn Makhluf",,32.3413,15.1271,Libya,LY,LBY,Mişrātah,Misratah,LY-MI,popularate,,22.8,,,4,Africa/Tripoli,FALSE,1434728415
"Al Mallāḩah al Gharbīyah","Al Mallahah al Gharbiyah",,30.4500,11.9333,Libya,LY,LBY,"Al Jabal al Gharbī","Al Jabal al Gharbi",LY-JG,popularate,,1.8,,,5,Africa/Tripoli,FALSE,1434900727
"Al Maghāribah","Al Magharibah",El-Magárba|El-Mugārba,32.0869,12.9731,Libya,LY,LBY,"Al Jabal al Gharbī","Al Jabal al Gharbi",LY-JG,popularate,,4.8,,,5,Africa/Tripoli,FALSE,1434911515
"Qaryat ‘Arīfah","Qaryat `Arifah",,32.2256,13.0453,Libya,LY,LBY,Ţarābulus,Tarabulus,LY-TB,popularate,,4.8,,,5,Africa/Tripoli,FALSE,1434274188
"Bin Ḩārith","Bin Harith",,26.7476,13.9450,Libya,LY,LBY,"Wādī al Ḩayāt","Wadi al Hayat",LY-WD,popularate,,2.9,,,5,Africa/Tripoli,FALSE,1434000013
"Al Maqāşibah al Qiblīyah","Al Maqasibah al Qibliyah",,32.3422,15.1036,Libya,LY,LBY,Mişrātah,Misratah,LY-MI,popularate,,22.8,,,4,Africa/Tripoli,FALSE,1434133191
"Ḩawsh Barjī","Hawsh Barji",,32.2833,20.2167,Libya,LY,LBY,Banghāzī,Banghazi,LY-BA,popularate,,61.1,,,4,Africa/Tripoli,FALSE,1434540637
"Sūq ad Dawāwidah","Suq ad Dawawidah","Sūq ad Dawāwdah",32.8301,12.0308,Libya,LY,LBY,"An Nuqāţ al Khams","An Nuqat al Khams",LY-NQ,popularate,,59.1,,,4,Africa/Tripoli,FALSE,1434146467
"Qabīlat al Karāwinah","Qabilat al Karawinah",Imùmen,32.6161,13.9622,Libya,LY,LBY,"Al Marqab","Al Marqab",LY-MB,popularate,,77.1,,,4,Africa/Tripoli,FALSE,1434992763
"Qabīlat ash Sha‘āfīyīn","Qabilat ash Sha`afiyin","Sciaafiín|Esc-Sciaafùn|Esc-Sciaafiín|Ash Shi‘āfīyūn|Qabīlat ash Shi‘āfīyīn",32.5712,13.8836,Libya,LY,LBY,"Al Marqab","Al Marqab",LY-MB,popularate,,77.1,,,4,Africa/Tripoli,FALSE,1434045236
"Al Māyah","Al Mayah","Oasi di Lmàia|Lamāyah|Lmáia",32.7970,12.8870,Libya,LY,LBY,"Al Jafārah","Al Jafarah",LY-JI,popularate,,207.3,,,3,Africa/Tripoli,FALSE,1434392024
"Zāwiyat Masūs","Zawiyat Masus","Zauia Msus|Zaulet Msus|Zauiet Msus|Msus|Smus",31.5833,21.0167,Libya,LY,LBY,"Al Marj","Al Marj",LY-MJ,popularate,,61.1,,,4,Africa/Tripoli,FALSE,1434052561
Wurīran,Wuriran,Uríren,32.4833,14.5667,Libya,LY,LBY,"Al Marqab","Al Marqab",LY-MB,popularate,,22.8,,,4,Africa/Tripoli,FALSE,1434364827
"Qaşr Aḩmad al Qiblīyah","Qasr Ahmad al Qibliyah","Qaşr Aḩmad al Bahrīyah|Gasr Ahmed|Qaşr Aḩmad",32.3583,15.2058,Libya,LY,LBY,Mişrātah,Misratah,LY-MI,popularate,,22.8,,,4,Africa/Tripoli,FALSE,1434506771
"Qabīlat al Bakākishah","Qabilat al Bakakishah",,32.4518,14.5389,Libya,LY,LBY,"Al Marqab","Al Marqab",LY-MB,popularate,,22.8,,,4,Africa/Tripoli,FALSE,1434078049
"Al Maqrūn","Al Maqrun","Magrun|Sidi Ahmed el-Magrun|Sīdī Aḩmad al Maqrūn|Sidi Abd el Magrun|El Magrun|Sidi Améd el Magrún|Al Magrun|Sidi Magrùn",31.4411,20.1512,Libya,LY,LBY,Banghāzī,Banghazi,LY-BA,popularate,,61.1,,,4,Africa/Tripoli,FALSE,1434400671
Şurmān,Surman,Sormán,32.7567,12.5716,Libya,LY,LBY,"Az Zāwiyah","Az Zawiyah",LY-ZA,popularate,,129.3,,,4,Africa/Tripoli,FALSE,1434839922
"Al Mashāshiţah","Al Mashashitah","Qabīlat al Mishāshţah|El-Masciásta|Qabīlat al Mashāshiţah",32.7984,12.9991,Libya,LY,LBY,"Al Jafārah","Al Jafarah",LY-JI,popularate,,207.3,,,3,Africa/Tripoli,FALSE,1434423481
"Aḩqāf al Jabhīyah","Ahqaf al Jabhiyah","Caf el-Gebeihìa|Aḩqāf al Jabhīyh",32.7242,21.7214,Libya,LY,LBY,"Al Jabal al Akhḑar","Al Jabal al Akhdar",LY-JA,popularate,,30.1,,,4,Africa/Tripoli,FALSE,1434978883
"Khīshān al Budūr","Khishan al Budur",,31.6974,20.0076,Libya,LY,LBY,Banghāzī,Banghazi,LY-BA,popularate,,61.1,,,4,Africa/Tripoli,FALSE,1434416555
"Umm al ‘Iz̧ām","Umm al `Izam","Umm el-Adám",26.0500,15.4667,Libya,LY,LBY,Murzuq,Murzuq,LY-MQ,popularate,,0.3,,,5,Africa/Tripoli,FALSE,1434764270
Tanahmū,Tanahmu,"Et Tassahma|Et-Tanáhmu|At Tanahmu|At Tanahma",26.6246,13.6233,Libya,LY,LBY,"Wādī al Ḩayāt","Wadi al Hayat",LY-WD,popularate,,2.9,,,4,Africa/Tripoli,FALSE,1434320417
"Funduq al ‘Allūş","Funduq al `Allus","Fundug al ‘Allūş|Fóndugh el-Allús",32.7094,13.9400,Libya,LY,LBY,Ţarābulus,Tarabulus,LY-TB,popularate,,77.1,,,4,Africa/Tripoli,FALSE,1434473514
"Qabīlat al Afāḑil","Qabilat al Afadil","Qabīlat al Luffāz̧il",32.6419,14.1657,Libya,LY,LBY,"Al Marqab","Al Marqab",LY-MB,popularate,,77.1,,,4,Africa/Tripoli,FALSE,1434969918
Jandūbah,Jandubah,Genduba,32.1008,12.6817,Libya,LY,LBY,"Al Jabal al Gharbī","Al Jabal al Gharbi",LY-JG,popularate,,4.8,,,5,Africa/Tripoli,FALSE,1434069451
"Qaryat Awlād Dhu’ayb","Qaryat Awlad Dhu'ayb","Qaryat Awlād Duwayb",30.7167,13.3000,Libya,LY,LBY,"Al Jabal al Gharbī","Al Jabal al Gharbi",LY-JG,popularate,,4.8,,,5,Africa/Tripoli,FALSE,1434066112
"Sūq al ‘Ajāj","Suq al `Ajaj",,32.0769,23.9473,Libya,LY,LBY,"Al Buţnān","Al Butnan",LY-BU,popularate,,2.4,,,5,Africa/Tripoli,FALSE,1434676662
"Al Fujayj","Al Fujayj",El-Fgeg,26.5424,13.3159,Libya,LY,LBY,"Wādī al Ḩayāt","Wadi al Hayat",LY-WD,popularate,,2.9,,,5,Africa/Tripoli,FALSE,1434569049
"Al Ḩurshah","Al Hurshah",,32.7647,12.6739,Libya,LY,LBY,"Az Zāwiyah","Az Zawiyah",LY-ZA,popularate,,129.3,,,4,Africa/Tripoli,FALSE,1434769717
Mukhaylá,Mukhayla,"Al Makīlī|El-Mechìli|Zāwiyat al Makhīl|Mechili|Zāwiyat al Mukhaylá|Al Mukhaylī",32.1667,22.2833,Libya,LY,LBY,Darnah,Darnah,LY-DR,popularate,,9.4,,,4,Africa/Tripoli,FALSE,1434141802
Tālāt,Talat,,31.8447,11.2239,Libya,LY,LBY,Nālūt,Nalut,LY-NL,popularate,,1.8,,,5,Africa/Tripoli,FALSE,1434163845
"Qabīlat Awlād Dhiyāb","Qabilat Awlad Dhiyab","Qabīlat Awlād Diyāb",32.9022,13.2708,Libya,LY,LBY,Ţarābulus,Tarabulus,LY-TB,popularate,,1553.1,,,3,Africa/Tripoli,FALSE,1434470457
"Al Khirbah","Al Khirbah",El-Chérba,31.8416,11.1500,Libya,LY,LBY,Nālūt,Nalut,LY-NL,popularate,,1.8,,,5,Africa/Tripoli,FALSE,1434130873
Ki‘ām,Ki`am,,32.5228,14.4380,Libya,LY,LBY,"Al Marqab","Al Marqab",LY-MB,popularate,,77.1,,,4,Africa/Tripoli,FALSE,1434379243
"Al Maqāşibah al Baḩrīyah","Al Maqasibah al Bahriyah","Al Magāsibah al Baḩrīyah",32.3576,15.1024,Libya,LY,LBY,Mişrātah,Misratah,LY-MI,popularate,,22.8,,,4,Africa/Tripoli,FALSE,1434892855
"Ash Shabārī","Ash Shabari","Uscbari|Ouchebari|Ash Shabbri",31.9629,12.0191,Libya,LY,LBY,"Al Jabal al Gharbī","Al Jabal al Gharbi",LY-JG,popularate,,4.8,,,4,Africa/Tripoli,FALSE,1434684359
"Ash Shi‘tāf","Ash Shi`taf",Esc-Sciaatan,32.0781,13.0200,Libya,LY,LBY,"Al Jabal al Gharbī","Al Jabal al Gharbi",LY-JG,popularate,,4.8,,,5,Africa/Tripoli,FALSE,1434494111
"Baldat Awlād Mīlād","Baldat Awlad Milad",,31.9295,12.2168,Libya,LY,LBY,"Al Jabal al Gharbī","Al Jabal al Gharbi",LY-JG,popularate,,4.8,,,5,Africa/Tripoli,FALSE,1434834862
Dannūn,Dannun,Dennún,32.1133,12.9369,Libya,LY,LBY,"Al Jabal al Gharbī","Al Jabal al Gharbi",LY-JG,popularate,,4.8,,,5,Africa/Tripoli,FALSE,1434291653
"Bū Maryam","Bu Maryam",,32.1444,20.5074,Libya,LY,LBY,Banghāzī,Banghazi,LY-BA,popularate,,61.1,,,4,Africa/Tripoli,FALSE,1434170732
"Qaryat Dajājirah","Qaryat Dajajirah","Qaryat Dijājirah",32.3384,15.1313,Libya,LY,LBY,Mişrātah,Misratah,LY-MI,popularate,,22.8,,,4,Africa/Tripoli,FALSE,1434893955
"Wāw al Kabīr","Waw al Kabir","Uau el Chebir|El Chebir",25.3222,16.7153,Libya,LY,LBY,Murzuq,Murzuq,LY-MQ,popularate,,0.3,,,5,Africa/Tripoli,FALSE,1434410634
Tansulūkh,Tansulukh,Tanşulūkh,32.3837,20.3749,Libya,LY,LBY,Banghāzī,Banghazi,LY-BA,popularate,,61.1,,,4,Africa/Tripoli,FALSE,1434778228
Zīghan,Zighan,,25.4833,22.1333,Libya,LY,LBY,"Al Kufrah","Al Kufrah",LY-KF,popularate,,0.1,,,5,Africa/Tripoli,FALSE,1434927579
"Qabīlat Mantar","Qabilat Mantar",,32.3874,15.0660,Libya,LY,LBY,Mişrātah,Misratah,LY-MI,popularate,,22.8,,,4,Africa/Tripoli,FALSE,1434925717
"Qaryat Abū Fakhīrah","Qaryat Abu Fakhirah","Qaryat Bū Fākirah|Qaryat Bū Fākhirah",31.9458,19.9760,Libya,LY,LBY,Banghāzī,Banghazi,LY-BA,popularate,,61.1,,,4,Africa/Tripoli,FALSE,1434069578
Banīnah,Baninah,Benina,32.0849,20.2561,Libya,LY,LBY,Banghāzī,Banghazi,LY-BA,popularate,,61.1,,,4,Africa/Tripoli,FALSE,1434274654
"Zāwiyat al Maḩjūb","Zawiyat al Mahjub",,32.0167,14.6833,Libya,LY,LBY,"Al Marqab","Al Marqab",LY-MB,popularate,,22.8,,,4,Africa/Tripoli,FALSE,1434649281
"Qaryat Qunfūdhah","Qaryat Qunfudhah","Qaryat Qanfūdah|Qaryat Qunfūdah",32.0291,20.0164,Libya,LY,LBY,Banghāzī,Banghazi,LY-BA,popularate,,61.1,,,4,Africa/Tripoli,FALSE,1434387570
"Qabr Jīrah","Qabr Jirah",,32.1330,20.4324,Libya,LY,LBY,Banghāzī,Banghazi,LY-BA,popularate,,61.1,,,4,Africa/Tripoli,FALSE,1434000016
"Zāwiyat al Maḩjūb","Zawiyat al Mahjub","Zauiet el Mahgiub",32.3844,14.9882,Libya,LY,LBY,Mişrātah,Misratah,LY-MI,popularate,,22.8,,,4,Africa/Tripoli,FALSE,1434156494
"Qaryat Ballālah","Qaryat Ballalah",,32.3722,15.1653,Libya,LY,LBY,Mişrātah,Misratah,LY-MI,popularate,,22.8,,,4,Africa/Tripoli,FALSE,1434580944
"Qaryat ar Ru’aysāt","Qaryat ar Ru'aysat","Qaryat ar Ruwayşāt",32.3660,15.1114,Libya,LY,LBY,Mişrātah,Misratah,LY-MI,popularate,,22.8,,,4,Africa/Tripoli,FALSE,1434167009
"Awlād ‘Aţīyah","Awlad `Atiyah","Ulad Atía",31.9333,12.1667,Libya,LY,LBY,"Al Jabal al Gharbī","Al Jabal al Gharbi",LY-JG,popularate,,4.8,,,5,Africa/Tripoli,FALSE,1434424862
Buzaymah,Buzaymah,Bzema|Bazīmah,24.8994,22.0280,Libya,LY,LBY,"Al Kufrah","Al Kufrah",LY-KF,popularate,,0.1,,,3,Africa/Tripoli,FALSE,1434040321
"Qaryat Mazzū","Qaryat Mazzu",Mazzū|Mezzu|Mezzou,31.9459,12.0198,Libya,LY,LBY,"Al Jabal al Gharbī","Al Jabal al Gharbi",LY-JG,popularate,,4.8,,,4,Africa/Tripoli,FALSE,1434465622
"Qaryat Şūr al ‘Ūd","Qaryat Sur al `Ud",,32.3862,15.1363,Libya,LY,LBY,Mişrātah,Misratah,LY-MI,popularate,,22.8,,,4,Africa/Tripoli,FALSE,1434411889
"Al Jawsh aş Şaghīr","Al Jawsh as Saghir",Es-Seghìr,31.9946,11.6789,Libya,LY,LBY,Nālūt,Nalut,LY-NL,popularate,,1.8,,,5,Africa/Tripoli,FALSE,1434801535
"Qaryat Awlād Abū Sha‘‘ālah","Qaryat Awlad Abu Sha``alah",,32.3743,15.1521,Libya,LY,LBY,Mişrātah,Misratah,LY-MI,popularate,,22.8,,,4,Africa/Tripoli,FALSE,1434657339
Ţarmīşah,Tarmisah,Tarmísa,31.9922,12.0478,Libya,LY,LBY,"Al Jabal al Gharbī","Al Jabal al Gharbi",LY-JG,popularate,,4.8,,,5,Africa/Tripoli,FALSE,1434041785
"Qabīlat al Jawābir","Qabilat al Jawabir",,32.6429,13.9058,Libya,LY,LBY,"Al Marqab","Al Marqab",LY-MB,popularate,,77.1,,,4,Africa/Tripoli,FALSE,1434125404
"Qabīlat Sūq ad Dāwūn","Qabilat Suq ad Dawun",,32.4566,13.9095,Libya,LY,LBY,"Al Marqab","Al Marqab",LY-MB,popularate,,77.1,,,4,Africa/Tripoli,FALSE,1434712425
"Abū Ghaylān","Abu Ghaylan",,32.2667,13.0167,Libya,LY,LBY,"Al Jafārah","Al Jafarah",LY-JI,popularate,,4.8,,,5,Africa/Tripoli,FALSE,1434809279
"Al Qanāfidh","Al Qanafidh",El-Ghnafíd,31.8409,11.8304,Libya,LY,LBY,"Al Jabal al Gharbī","Al Jabal al Gharbi",LY-JG,popularate,,4.8,,,5,Africa/Tripoli,FALSE,1434666056
"Awlād Khalīfah","Awlad Khalifah",,32.0419,12.5239,Libya,LY,LBY,"Al Jabal al Gharbī","Al Jabal al Gharbi",LY-JG,popularate,,4.8,,,5,Africa/Tripoli,FALSE,1434419971
"Awlād Khalīfah","Awlad Khalifah","Ulád Chlifa|Ulad Chalífa",31.9533,12.2542,Libya,LY,LBY,"Al Jabal al Gharbī","Al Jabal al Gharbi",LY-JG,popularate,,4.8,,,5,Africa/Tripoli,TRUE,1434024520
"Al Ḩalamah","Al Halamah",El-Hélma,31.7558,14.0181,Libya,LY,LBY,Mişrātah,Misratah,LY-MI,popularate,,22.8,,,4,Africa/Tripoli,FALSE,1434272177
"‘Ayn al Ghazāyā","`Ayn al Ghazaya","‘Ayn Ghazāyah|Ain Ghezaia",31.9039,10.8106,Libya,LY,LBY,,,,,,1.8,,,5,Africa/Tripoli,FALSE,1434376445
"Qaşr Khulayf","Qasr Khulayf","Gasr Chlef|Chlef",26.7000,13.8667,Libya,LY,LBY,"Wādī al Ḩayāt","Wadi al Hayat",LY-WD,popularate,,2.9,,,5,Africa/Tripoli,FALSE,1434484811
"Az Zaram","Az Zaram","Al Ghazzābīyah",32.0020,10.8353,Libya,LY,LBY,Nālūt,Nalut,LY-NL,popularate,,1.8,,,5,Africa/Tripoli,FALSE,1434701002
"As Sidādah","As Sidadah","Sedada|As Saddādah",31.5175,14.7550,Libya,LY,LBY,Mişrātah,Misratah,LY-MI,popularate,,22.8,,,4,Africa/Tripoli,FALSE,1434418120
"Ma‘tan as Sārah","Ma`tan as Sarah",,21.6833,21.8667,Libya,LY,LBY,"Al Kufrah","Al Kufrah",LY-KF,popularate,,0.1,,,5,Africa/Tripoli,FALSE,1434212408
Lamlūdah,Lamludah,,32.7789,22.1431,Libya,LY,LBY,Darnah,Darnah,LY-DR,popularate,,9.4,,,5,Africa/Tripoli,FALSE,1434029315
"Bin Yaḩyá","Bin Yahya",,32.1281,13.0067,Libya,LY,LBY,"Al Jabal al Gharbī","Al Jabal al Gharbi",LY-JG,popularate,,4.8,,,5,Africa/Tripoli,FALSE,1434834630
"Qaryat Tūnīn","Qaryat Tunin","Tounine|Qaryat Tunīn|Tūnīn",30.1353,9.4658,Libya,LY,LBY,Nālūt,Nalut,LY-NL,popularate,,1.8,,,4,Africa/Tripoli,FALSE,1434898557
Tīnīnāy,Tininay,"Qaryat Tīnīnā’|Qaryat Tinīnāy",31.3933,13.7408,Libya,LY,LBY,Mişrātah,Misratah,LY-MI,popularate,,22.8,,,4,Africa/Tripoli,FALSE,1434000001
"Baldat Raqraq","Baldat Raqraq",Regregh|Regreg|Raqraq,31.9219,11.9568,Libya,LY,LBY,"Al Jabal al Gharbī","Al Jabal al Gharbi",LY-JG,popularate,,4.8,,,4,Africa/Tripoli,FALSE,1434868854
"Awlād ‘Abd Allāh","Awlad `Abd Allah",,32.0502,12.5768,Libya,LY,LBY,"Al Jabal al Gharbī","Al Jabal al Gharbi",LY-JG,popularate,,4.8,,,5,Africa/Tripoli,FALSE,1434749135
Qirrīm,Qirrim,Qarrīm|Gherrim,32.6342,13.9822,Libya,LY,LBY,"Al Marqab","Al Marqab",LY-MB,popularate,,77.1,,,4,Africa/Tripoli,FALSE,1434058697
"As Sawā‘idīyah","As Sawa`idiyah","Es-Suaadìa|Al Wa‘dīyah|Es-Suadía",32.2203,13.0828,Libya,LY,LBY,Ţarābulus,Tarabulus,LY-TB,popularate,,4.8,,,4,Africa/Tripoli,FALSE,1434678871
"Awlād Yūsuf","Awlad Yusuf","Ulàd Iúsef",32.0706,12.6819,Libya,LY,LBY,"Al Jabal al Gharbī","Al Jabal al Gharbi",LY-JG,popularate,,4.8,,,5,Africa/Tripoli,FALSE,1434088525
"Umm al Arānib","Umm al Aranib","Umm el Araneb",26.1339,14.7372,Libya,LY,LBY,Murzuq,Murzuq,LY-MQ,popularate,,0.3,,,5,Africa/Tripoli,FALSE,1434615692
"Kāf Miyās","Kaf Miyas","Kahf Miyās|Caf Meias",32.7222,21.7028,Libya,LY,LBY,"Al Jabal al Akhḑar","Al Jabal al Akhdar",LY-JA,popularate,,30.1,,,4,Africa/Tripoli,FALSE,1434288591
"Qaryat al Wafāwāt","Qaryat al Wafawat",,32.3964,15.1206,Libya,LY,LBY,Mişrātah,Misratah,LY-MI,popularate,,22.8,,,4,Africa/Tripoli,FALSE,1434088729
"Emi Madema","Emi Madema",,23.7500,15.3000,Libya,LY,LBY,Murzuq,Murzuq,LY-MQ,popularate,,0.3,,,5,Africa/Tripoli,FALSE,1434389444
Tuwaysh,Tuwaysh,Tuóse|Tuosc,26.5402,13.1002,Libya,LY,LBY,"Wādī al Ḩayāt","Wadi al Hayat",LY-WD,popularate,,2.9,,,5,Africa/Tripoli,FALSE,1434519449
"Az Zarqān","Az Zarqan","Ez Zergan",25.9758,13.7950,Libya,LY,LBY,Murzuq,Murzuq,LY-MQ,popularate,,0.3,,,5,Africa/Tripoli,FALSE,1434513550
Sulţān,Sultan,,31.0940,20.2233,Libya,LY,LBY,Banghāzī,Banghazi,LY-BA,popularate,,1.1,,,5,Africa/Tripoli,FALSE,1434979129
Ţabaqah,Tabaqah,Tòbga|Et-Tóbga,30.4331,13.3044,Libya,LY,LBY,"Al Jabal al Gharbī","Al Jabal al Gharbi",LY-JG,popularate,,4.8,,,5,Africa/Tripoli,FALSE,1434579712
"Qaşr al Waţ’ānī","Qasr al Wat'ani","Gasr el-Otáni",31.0333,10.6000,Libya,LY,LBY,Nālūt,Nalut,LY-NL,popularate,,1.8,,,5,Africa/Tripoli,FALSE,1434782094
"Al Ḩamāmah","Al Hamamah","Ra’s al Ḩamāmah",32.9144,21.6286,Libya,LY,LBY,"Al Jabal al Akhḑar","Al Jabal al Akhdar",LY-JA,popularate,,30.1,,,4,Africa/Tripoli,FALSE,1434495064
"Banī Yakhlaf","Bani Yakhlaf","Banī Yakhlif|Bèni Iechlef|Banī Yakhif",32.2328,13.0100,Libya,LY,LBY,"Al Jafārah","Al Jafarah",LY-JI,popularate,,4.8,,,4,Africa/Tripoli,FALSE,1434772411
"Ḩīshān ‘Ā’ilat Bāqī","Hishan `A'ilat Baqi",,32.2679,20.2046,Libya,LY,LBY,Banghāzī,Banghazi,LY-BA,popularate,,61.1,,,4,Africa/Tripoli,FALSE,1434353469
"Awlād Bin Ya‘qūb","Awlad Bin Ya`qub","Ben Iaagub",32.1510,12.9936,Libya,LY,LBY,"Al Jabal al Gharbī","Al Jabal al Gharbi",LY-JG,popularate,,4.8,,,5,Africa/Tripoli,FALSE,1434471591
"Awlād Ḩamad","Awlad Hamad",,32.0353,12.5228,Libya,LY,LBY,"Al Jabal al Gharbī","Al Jabal al Gharbi",LY-JG,popularate,,4.8,,,5,Africa/Tripoli,FALSE,1434515220
"Qabīlat Awlād aş Şaghīr","Qabilat Awlad as Saghir",,32.0167,12.4576,Libya,LY,LBY,"Al Jabal al Gharbī","Al Jabal al Gharbi",LY-JG,popularate,,4.8,,,5,Africa/Tripoli,FALSE,1434597762
Tamanhint,Tamanhint,Temenhint|Tamanhant,27.2074,14.6273,Libya,LY,LBY,Sabhā,Sabha,LY-SB,popularate,,9.5,,,5,Africa/Tripoli,FALSE,1434703180
Misiqwīn,Misiqwin,Meseguín|Mesegwīn|Meseqwīn|Misqūwīn,26.1663,14.9545,Libya,LY,LBY,Murzuq,Murzuq,LY-MQ,popularate,,0.3,,,4,Africa/Tripoli,FALSE,1434091626
"Qabīlat Awlād ‘Īsá","Qabilat Awlad `Isa",,32.6583,14.1517,Libya,LY,LBY,"Al Marqab","Al Marqab",LY-MB,popularate,,77.1,,,4,Africa/Tripoli,FALSE,1434048441
Zīzāw,Zizaw,Zizau,25.9000,14.1667,Libya,LY,LBY,Murzuq,Murzuq,LY-MQ,popularate,,0.3,,,5,Africa/Tripoli,FALSE,1434638584
"Al Qaşabāt","Al Qasabat","El-Gusbát|Al Kussabat|Al Quşbāt|Cussabàt",32.5860,14.0393,Libya,LY,LBY,"Al Marqab","Al Marqab",LY-MB,popularate,,77.1,,,4,Africa/Tripoli,FALSE,1434346160
"Al ‘Uwaynāt","Al `Uwaynat","Al ‘Awaynāt",21.5667,24.8333,Libya,LY,LBY,"Al Kufrah","Al Kufrah",LY-KF,popularate,,0.1,,,5,Africa/Tripoli,FALSE,1434604548
"Al Ḩuwayjāt","Al Huwayjat",,32.3676,14.5912,Libya,LY,LBY,"Al Marqab","Al Marqab",LY-MB,popularate,,22.8,,,4,Africa/Tripoli,FALSE,1434729610
"Al Buḩūr","Al Buhur",,32.0548,12.5632,Libya,LY,LBY,"Al Jabal al Gharbī","Al Jabal al Gharbi",LY-JG,popularate,,4.8,,,5,Africa/Tripoli,FALSE,1434668477
"Qabīlat Awlād Jābir","Qabilat Awlad Jabir",,31.9944,12.3398,Libya,LY,LBY,"Al Jabal al Gharbī","Al Jabal al Gharbi",LY-JG,popularate,,4.8,,,5,Africa/Tripoli,FALSE,1434617610
"Al Bayḑān","Al Baydan","El Bedan|Bedán",25.8381,14.2131,Libya,LY,LBY,Murzuq,Murzuq,LY-MQ,popularate,,0.3,,,5,Africa/Tripoli,FALSE,1434046793
"Al Jadīd","Al Jadid",El-Gedíd,27.0592,14.3686,Libya,LY,LBY,"Wādī ash Shāţi’","Wadi ash Shati'",LY-WS,popularate,,9.5,,,5,Africa/Tripoli,FALSE,1434462235
"Al Fawāḑil","Al Fawadil","El-Fuádel|Baldat at Fawāḑil",32.0093,12.3055,Libya,LY,LBY,"Al Jabal al Gharbī","Al Jabal al Gharbi",LY-JG,popularate,,4.8,,,5,Africa/Tripoli,FALSE,1434202950
"Umm az Zarsān","Umm az Zarsan","Umm al Jarsān|Umm el-Gersán",32.0338,12.5540,Libya,LY,LBY,"Al Jabal al Gharbī","Al Jabal al Gharbi",LY-JG,popularate,,4.8,,,5,Africa/Tripoli,FALSE,1434835015
"Al Ya‘āqīb","Al Ya`aqib","El-Iagghìb|El-Iaaghub|El-Aghíb|El Aaghib|Al A‘āqīb",32.1286,12.9453,Libya,LY,LBY,"Al Jabal al Gharbī","Al Jabal al Gharbi",LY-JG,popularate,,4.8,,,4,Africa/Tripoli,FALSE,1434598767
"Heg’ Hagel","Heg' Hagel","Heg’ Agél",25.9286,14.0381,Libya,LY,LBY,Murzuq,Murzuq,LY-MQ,popularate,,0.3,,,5,Africa/Tripoli,FALSE,1434899731
"Ad Dīsah","Ad Disah",,26.5876,12.8171,Libya,LY,LBY,"Wādī al Ḩayāt","Wadi al Hayat",LY-WD,popularate,,2.9,,,5,Africa/Tripoli,FALSE,1434000009
"Aş Şaq‘ābī","As Saq`abi",,32.1703,20.1376,Libya,LY,LBY,Banghāzī,Banghazi,LY-BA,popularate,,61.1,,,4,Africa/Tripoli,FALSE,1434259940
Taqrūtīn,Taqrutin,Teggrutìn|Teggrutia|Taqqrūtīn,26.1015,13.6266,Libya,LY,LBY,"Wādī al Ḩayāt","Wadi al Hayat",LY-WD,popularate,,0.3,,,4,Africa/Tripoli,FALSE,1434859914
"Ḩawsh Wārid","Hawsh Warid","Hosc Uáred",31.9132,19.9852,Libya,LY,LBY,Banghāzī,Banghazi,LY-BA,popularate,,61.1,,,4,Africa/Tripoli,FALSE,1434622232
"Qaryat Umm aş Şafā’","Qaryat Umm as Safa'","Qaryat Umm aş Şafrī’|Qaryat Umm aş Şafā",31.8391,20.1076,Libya,LY,LBY,Banghāzī,Banghazi,LY-BA,popularate,,61.1,,,4,Africa/Tripoli,FALSE,1434912055
"‘Ā’ilat Lamwīs","`A'ilat Lamwis",,32.1342,20.2292,Libya,LY,LBY,Banghāzī,Banghazi,LY-BA,popularate,,61.1,,,4,Africa/Tripoli,FALSE,1434432043
Amḩayyah,Amhayyah,Ambayyah|Muḩayyah,32.4033,13.5539,Libya,LY,LBY,Ţarābulus,Tarabulus,LY-TB,popularate,,77.1,,,4,Africa/Tripoli,FALSE,1434190527
"Al Ghurayfah","Al Ghurayfah",,26.5216,13.0107,Libya,LY,LBY,"Wādī al Ḩayāt","Wadi al Hayat",LY-WD,popularate,,2.9,,,5,Africa/Tripoli,FALSE,1434124428
Tmīsān,Tmisan,Tmissan|Tinissán,27.4886,13.1257,Libya,LY,LBY,"Wādī ash Shāţi’","Wadi ash Shati'",LY-WS,popularate,,0.9,,,5,Africa/Tripoli,FALSE,1434501659
"Al Fuqar","Al Fuqar",El-Fogàr,26.5667,13.1667,Libya,LY,LBY,"Wādī al Ḩayāt","Wadi al Hayat",LY-WD,popularate,,2.9,,,5,Africa/Tripoli,FALSE,1434084093
"Aţ Ţuwaybīyah","At Tuwaybiyah",Et-Tuébia,32.7687,12.8394,Libya,LY,LBY,"Az Zāwiyah","Az Zawiyah",LY-ZA,popularate,,207.3,,,3,Africa/Tripoli,FALSE,1434870251
"Ra’s Judayr","Ra's Judayr","Ras Ajdyer|Ra’s Ajdīr",33.1481,11.5663,Libya,LY,LBY,"An Nuqāţ al Khams","An Nuqat al Khams",LY-NQ,popularate,,59.1,,,3,Africa/Tripoli,FALSE,1434559820
"Bint Bayyah","Bint Bayyah","Qaşr Bin Ḑubay‘ah|Gasr Bendbeia|Gasr Beadebéia|Bint Baya|Qaşr Bint Bayyah",26.6455,13.6525,Libya,LY,LBY,"Wādī al Ḩayāt","Wadi al Hayat",LY-WD,popularate,,2.9,,,4,Africa/Tripoli,FALSE,1434149357
"Qaryat al Khirbah","Qaryat al Khirbah","Al Khirbah|El Gherba|El-Chérba",31.8808,11.8950,Libya,LY,LBY,"Al Jabal al Gharbī","Al Jabal al Gharbi",LY-JG,popularate,,4.8,,,4,Africa/Tripoli,FALSE,1434806711
"Qaryat al Hanādah","Qaryat al Hanadah","Hosc Ben Hnédi|Qaryat al Ḩanādah",32.6769,14.1577,Libya,LY,LBY,"Al Marqab","Al Marqab",LY-MB,popularate,,77.1,,,4,Africa/Tripoli,FALSE,1434874187
"Buwayrāt al Ḩasūn","Buwayrat al Hasun","Buwayrāt al Ḩassūn|Bu’ayrāt al Ḩasūn|Al Bu’ayrāt|Buerát|Buerát el-Hsun|Bueràt al-Hsun",31.3997,15.7331,Libya,LY,LBY,Surt,Surt,LY-SR,popularate,,2.3,,,4,Africa/Tripoli,FALSE,1434403995
"Zāwiyat Bishārah","Zawiyat Bisharah","Zauiet Bsciár",32.7670,22.2203,Libya,LY,LBY,Darnah,Darnah,LY-DR,popularate,,9.4,,,5,Africa/Tripoli,FALSE,1434125960
Dashrah,Dashrah,,31.8707,11.7724,Libya,LY,LBY,"Al Jabal al Gharbī","Al Jabal al Gharbi",LY-JG,popularate,,4.8,,,5,Africa/Tripoli,FALSE,1434661934
"Qaryat al Ghawīl","Qaryat al Ghawil",,32.3728,15.1296,Libya,LY,LBY,Mişrātah,Misratah,LY-MI,popularate,,22.8,,,4,Africa/Tripoli,FALSE,1434797413
Qarzah,Qarzah,Qirdah|Ghírza,30.9667,14.5667,Libya,LY,LBY,Mişrātah,Misratah,LY-MI,popularate,,22.8,,,4,Africa/Tripoli,FALSE,1434781792
"Qaryat Qārāt","Qaryat Qarat",,32.2025,13.0686,Libya,LY,LBY,"Al Jabal al Gharbī","Al Jabal al Gharbi",LY-JG,popularate,,4.8,,,5,Africa/Tripoli,FALSE,1434432774
"Az Zamāmiqah","Az Zamamiqah",,32.2481,13.0369,Libya,LY,LBY,"Al Jafārah","Al Jafarah",LY-JI,popularate,,4.8,,,5,Africa/Tripoli,FALSE,1434559622
Zalwāz,Zalwaz,Zeluaz,27.5716,14.2572,Libya,LY,LBY,"Wādī ash Shāţi’","Wadi ash Shati'",LY-WS,popularate,,0.9,,,5,Africa/Tripoli,FALSE,1434573617
"Qabīlat ar Rāghah","Qabilat ar Raghah",,32.5599,13.9009,Libya,LY,LBY,"Al Marqab","Al Marqab",LY-MB,popularate,,77.1,,,4,Africa/Tripoli,FALSE,1434972374
"Al Ḩaţīyah","Al Hatiyah",,27.5578,13.5460,Libya,LY,LBY,"Wādī ash Shāţi’","Wadi ash Shati'",LY-WS,popularate,,0.9,,,5,Africa/Tripoli,FALSE,1434000015
Tarbū,Tarbu,Terbu,26.0202,15.1649,Libya,LY,LBY,Murzuq,Murzuq,LY-MQ,popularate,,0.3,,,5,Africa/Tripoli,FALSE,1434333988
"Al Ḩaţīyah","Al Hatiyah",El-Hatía,26.5742,12.9165,Libya,LY,LBY,"Wādī al Ḩayāt","Wadi al Hayat",LY-WD,popularate,,2.9,,,5,Africa/Tripoli,FALSE,1434773981
Tīkah,Tikah,Taykah,31.9104,20.0186,Libya,LY,LBY,Banghāzī,Banghazi,LY-BA,popularate,,61.1,,,4,Africa/Tripoli,FALSE,1434146126
"Qaryat al Barāhimah","Qaryat al Barahimah",El-Brahma,32.0231,12.5062,Libya,LY,LBY,"Al Jabal al Gharbī","Al Jabal al Gharbi",LY-JG,popularate,,4.8,,,5,Africa/Tripoli,FALSE,1434762241
"Awlād Sīdī Khalīfah","Awlad Sidi Khalifah","Awlād Sī Khalīfah",31.9489,12.2359,Libya,LY,LBY,"Al Jabal al Gharbī","Al Jabal al Gharbi",LY-JG,popularate,,4.8,,,5,Africa/Tripoli,FALSE,1434636860
"Al Bayāţinah","Al Bayatinah","Al Biyāţinah",32.0339,12.5261,Libya,LY,LBY,"Al Jabal al Gharbī","Al Jabal al Gharbi",LY-JG,popularate,,4.8,,,5,Africa/Tripoli,FALSE,1434817555
"Al Hadāri‘ah","Al Hadari`ah","Al Ḩadāri‘ah",32.0107,15.1789,Libya,LY,LBY,Mişrātah,Misratah,LY-MI,popularate,,22.8,,,4,Africa/Tripoli,FALSE,1434019480
Anzū,Anzu,Enzu,32.0531,12.6644,Libya,LY,LBY,"Al Jabal al Gharbī","Al Jabal al Gharbi",LY-JG,popularate,,4.8,,,5,Africa/Tripoli,FALSE,1434369213
"Al Fawātīr","Al Fawatir",El-Fuatír,32.4508,14.5638,Libya,LY,LBY,"Al Marqab","Al Marqab",LY-MB,popularate,,22.8,,,4,Africa/Tripoli,FALSE,1434571379
"Qaryat Bū Nujaym","Qaryat Bu Nujaym","Ngem|Abū Njaym|Qaryat Abū Nujaym|Bū Nujaym|Bu Ngem|Abū Nujaym",30.5816,15.3958,Libya,LY,LBY,Surt,Surt,LY-SR,popularate,,2.3,,,4,Africa/Tripoli,FALSE,1434747034
"Al Hilāl","Al Hilal",,32.8845,22.1842,Libya,LY,LBY,Darnah,Darnah,LY-DR,popularate,,9.4,,,5,Africa/Tripoli,FALSE,1434000018
"Qabīlat al Kawārighilīyah","Qabilat al Kawarighiliyah","Qabīlat al Kawarighlīyah",32.4607,14.5147,Libya,LY,LBY,"Al Marqab","Al Marqab",LY-MB,popularate,,22.8,,,4,Africa/Tripoli,FALSE,1434783030
"Qaryat ar Rūş","Qaryat ar Rus","Qaryat ar Ru’ūs",32.3739,15.1698,Libya,LY,LBY,Mişrātah,Misratah,LY-MI,popularate,,22.8,,,4,Africa/Tripoli,FALSE,1434330164
"Bū Jabalayn","Bu Jabalayn",,31.9692,12.0183,Libya,LY,LBY,"Al Jabal al Gharbī","Al Jabal al Gharbi",LY-JG,popularate,,4.8,,,5,Africa/Tripoli,FALSE,1434407555
"Al Qawāsim","Al Qawasim","Qaryat al Qawāsim|Guassem|El-Guásem|Guásem",32.1842,13.0605,Libya,LY,LBY,"Al Jabal al Gharbī","Al Jabal al Gharbi",LY-JG,popularate,,4.8,,,4,Africa/Tripoli,FALSE,1434050346
"Al ‘Adam","Al `Adam","El Adem|Al ‘Aḑm",31.8636,23.9253,Libya,LY,LBY,"Al Buţnān","Al Butnan",LY-BU,popularate,,2.4,,,5,Africa/Tripoli,FALSE,1434804104
"Al Fājir","Al Fajir",El-Fàger|Alba,32.8833,22.2000,Libya,LY,LBY,,,,,,9.4,,,5,Africa/Tripoli,FALSE,1434801425
"Qaryat as Subaykhāt","Qaryat as Subaykhat","Qaryat aş Şabaykhāt",32.3944,15.1249,Libya,LY,LBY,Mişrātah,Misratah,LY-MI,popularate,,22.8,,,4,Africa/Tripoli,FALSE,1434985557
"Baldat al Kurūmah","Baldat al Kurumah","El-Cróma|Al Kurūmah",31.8635,11.8873,Libya,LY,LBY,"Al Jabal al Gharbī","Al Jabal al Gharbi",LY-JG,popularate,,4.8,,,5,Africa/Tripoli,FALSE,1434594703
Ţamīnah,Taminah,"Qaryat Ţamīnah|Tamina|Crispi",32.2500,15.0833,Libya,LY,LBY,Mişrātah,Misratah,LY-MI,popularate,,22.8,,,4,Africa/Tripoli,FALSE,1434516510
Dahmān,Dahman,,32.7858,12.5153,Libya,LY,LBY,"Az Zāwiyah","Az Zawiyah",LY-ZA,popularate,,59.1,,,4,Africa/Tripoli,FALSE,1434069063
"Mu‘askar Jālū","Mu`askar Jalu",,32.8667,13.1667,Libya,LY,LBY,Ţarābulus,Tarabulus,LY-TB,popularate,,1553.1,,,3,Africa/Tripoli,FALSE,1434247052
"Funduq ash Shaybānī","Funduq ash Shaybani","Fóndugh esc-Scebáni",32.3833,13.0500,Libya,LY,LBY,"Al Jafārah","Al Jafarah",LY-JI,popularate,,207.3,,,3,Africa/Tripoli,FALSE,1434406785
"Al ‘Uwaylīyah ash Sharqīyah","Al `Uwayliyah ash Sharqiyah","Al Awiliah al Sharqīyah",32.5667,21.0333,Libya,LY,LBY,"Al Marj","Al Marj",LY-MJ,popularate,,20.9,,,4,Africa/Tripoli,FALSE,1434307138
"Al Khaḑrā’","Al Khadra'",Breviglieri,32.4440,13.7674,Libya,LY,LBY,"Al Marqab","Al Marqab",LY-MB,popularate,,77.1,,,4,Africa/Tripoli,FALSE,1434542760
"Qaşr al ‘Urayyiḑ","Qasr al `Urayyid",,31.9310,20.0321,Libya,LY,LBY,Banghāzī,Banghazi,LY-BA,popularate,,61.1,,,4,Africa/Tripoli,FALSE,1434081329
"Kuhūf Bū Qalbūţ","Kuhuf Bu Qalbut",,32.7599,22.2488,Libya,LY,LBY,Darnah,Darnah,LY-DR,popularate,,9.4,,,5,Africa/Tripoli,FALSE,1434206236
"Qaryat an Nadwah","Qaryat an Nadwah","En-Nédua|An Nadwah",31.8741,11.8915,Libya,LY,LBY,"Al Jabal al Gharbī","Al Jabal al Gharbi",LY-JG,popularate,,4.8,,,5,Africa/Tripoli,FALSE,1434669802
"Ash Shuqayqah","Ash Shuqayqah",,31.6397,12.8069,Libya,LY,LBY,"Al Jabal al Gharbī","Al Jabal al Gharbi",LY-JG,popularate,,4.8,,,5,Africa/Tripoli,FALSE,1434000003
Jannāwan,Jannawan,Gennauen|Gennáun|Jināwin|Djennaouen,31.9640,12.0061,Libya,LY,LBY,"Al Jabal al Gharbī","Al Jabal al Gharbi",LY-JG,popularate,,4.8,,,4,Africa/Tripoli,FALSE,1434012994
"Qabīlat al ‘Abādinah","Qabilat al `Abadinah",,32.3248,14.7231,Libya,LY,LBY,"Al Marqab","Al Marqab",LY-MB,popularate,,22.8,,,4,Africa/Tripoli,FALSE,1434746585
"Abyār as Sabābīl","Abyar as Sababil","Ab’ar as Sabābīl",32.8514,13.4419,Libya,LY,LBY,Ţarābulus,Tarabulus,LY-TB,popularate,,1553.1,,,3,Africa/Tripoli,FALSE,1434029232
"Al Muţrad","Al Mutrad","Al Muţţrad",32.7617,12.6158,Libya,LY,LBY,"Az Zāwiyah","Az Zawiyah",LY-ZA,popularate,,129.3,,,4,Africa/Tripoli,FALSE,1434851794
"Qaryat al Hamā’imah","Qaryat al Hama'imah","Qaryat al Hamāyimah",32.0289,12.5292,Libya,LY,LBY,"Al Jabal al Gharbī","Al Jabal al Gharbi",LY-JG,popularate,,4.8,,,5,Africa/Tripoli,FALSE,1434289200
Ma‘fan,Ma`fan,Maafen,25.9167,14.4833,Libya,LY,LBY,Murzuq,Murzuq,LY-MQ,popularate,,0.3,,,5,Africa/Tripoli,FALSE,1434617925
"Qaryat Mazghūrah","Qaryat Mazghurah","Mezgura|Qaryat Mazqūrah|Mesghoura|Mazghūrah|Qaryat Mazqhūrah",31.9659,11.9691,Libya,LY,LBY,"Al Jabal al Gharbī","Al Jabal al Gharbi",LY-JG,popularate,,4.8,,,4,Africa/Tripoli,FALSE,1434901117
Tāzmarāyit,Tazmarayit,Tazmeráit|Tizimrāyit,32.0790,12.5637,Libya,LY,LBY,"Al Jabal al Gharbī","Al Jabal al Gharbi",LY-JG,popularate,,4.8,,,5,Africa/Tripoli,FALSE,1434566649
"Ash Shurūf","Ash Shuruf","Esc-Sciúrruf|Ash Shurraf",32.5833,13.9500,Libya,LY,LBY,"Al Marqab","Al Marqab",LY-MB,popularate,,77.1,,,4,Africa/Tripoli,FALSE,1434974132
"Al Budayr","Al Budayr","El Bder|Al Badr",26.1590,14.8479,Libya,LY,LBY,Murzuq,Murzuq,LY-MQ,popularate,,0.3,,,5,Africa/Tripoli,FALSE,1434424637
"Al ‘Amāmirah","Al `Amamirah",,32.4547,14.1069,Libya,LY,LBY,"Al Marqab","Al Marqab",LY-MB,popularate,,77.1,,,4,Africa/Tripoli,FALSE,1434946985
"Qabīlat Salimah","Qabilat Salimah","Salimah|Sélma|Qabīlat Salmah",32.6433,13.9541,Libya,LY,LBY,"Al Marqab","Al Marqab",LY-MB,popularate,,77.1,,,4,Africa/Tripoli,FALSE,1434500860
"Awlād Bū Ra’s","Awlad Bu Ra's","Ulàd Bu Ras|Awlād Abu Rās",32.1836,13.0716,Libya,LY,LBY,"Al Jabal al Gharbī","Al Jabal al Gharbi",LY-JG,popularate,,4.8,,,5,Africa/Tripoli,FALSE,1434031578
"Qaryat an Nushayh","Qaryat an Nushayh",,31.9238,10.7612,Libya,LY,LBY,Nālūt,Nalut,LY-NL,popularate,,1.8,,,5,Africa/Tripoli,FALSE,1434593865
"Qaşr al Ḩājj","Qasr al Hajj","Gasr el Hag|Qaşr al Ḩaj",32.0414,12.1704,Libya,LY,LBY,"Al Jabal al Gharbī","Al Jabal al Gharbi",LY-JG,popularate,,4.8,,,5,Africa/Tripoli,FALSE,1434881843
"Awlād ‘Abd al Mawlá","Awlad `Abd al Mawla","Ulad Abd el-Móla",32.0830,12.6319,Libya,LY,LBY,"Al Jabal al Gharbī","Al Jabal al Gharbi",LY-JG,popularate,,4.8,,,5,Africa/Tripoli,FALSE,1434069393
"Zāwiyat al Muraşşaş","Zawiyat al Murassas","Zauiet el Mrassas|Zauia el Mrassas",32.1293,23.6693,Libya,LY,LBY,"Al Buţnān","Al Butnan",LY-BU,popularate,,2.4,,,5,Africa/Tripoli,FALSE,1434565226
"Qaryat al ‘Imāmah","Qaryat al `Imamah","Qaryat al ‘Amāmah",32.0982,23.8901,Libya,LY,LBY,"Al Buţnān","Al Butnan",LY-BU,popularate,,2.4,,,5,Africa/Tripoli,FALSE,1434454019
"Aş Şāliḩāt","As Salihat","Esc-Slahàt|Es-Slahát|Aş Şalāḩāt",32.1272,13.1000,Libya,LY,LBY,"Al Jabal al Gharbī","Al Jabal al Gharbi",LY-JG,popularate,,4.8,,,4,Africa/Tripoli,FALSE,1434769174
"Qabīlat ar Raḩbah","Qabilat ar Rahbah","Rahba|Qabīlat ar Raḩban|Ar Raḩbah|Er-Ràhba|Rábha",32.2500,13.0333,Libya,LY,LBY,"Al Jafārah","Al Jafarah",LY-JI,popularate,,4.8,,,4,Africa/Tripoli,FALSE,1434002980
"Qaryat T","Qaryat T",,30.2126,10.4632,Libya,LY,LBY,Nālūt,Nalut,LY-NL,popularate,,1.8,,,5,Africa/Tripoli,FALSE,1434300340
"Qaryat at Tawālikīyah","Qaryat at Tawalikiyah",,32.3918,15.1189,Libya,LY,LBY,Mişrātah,Misratah,LY-MI,popularate,,22.8,,,4,Africa/Tripoli,FALSE,1434602177
"Qaryat al Ḩalībīyah","Qaryat al Halibiyah",,31.9214,19.9615,Libya,LY,LBY,Banghāzī,Banghazi,LY-BA,popularate,,61.1,,,4,Africa/Tripoli,FALSE,1434117676
"Qaryat ‘Ayn Kurayyim","Qaryat `Ayn Kurayyim",,32.3887,15.1379,Libya,LY,LBY,Mişrātah,Misratah,LY-MI,popularate,,22.8,,,4,Africa/Tripoli,FALSE,1434042704
"Zāwiyat Umm Rukbah","Zawiyat Umm Rukbah","Zauiet Umm Ruckba|Záuiet Umm Rúcba|Zauiet Umm Rucba",31.9271,24.9191,Libya,LY,LBY,"Al Buţnān","Al Butnan",LY-BU,popularate,,2.4,,,4,Africa/Tripoli,FALSE,1434181064
"At Tāj","At Taj","Et Tag",24.2094,23.3281,Libya,LY,LBY,"Al Kufrah","Al Kufrah",LY-KF,popularate,,0.1,,,5,Africa/Tripoli,FALSE,1434266750
"Al Qaḩāşāt","Al Qahasat",El-Gahasát|Gahasát,32.1167,13.0167,Libya,LY,LBY,"Al Jabal al Gharbī","Al Jabal al Gharbi",LY-JG,popularate,,4.8,,,5,Africa/Tripoli,FALSE,1434252667
"Qaryat al Maghāribah","Qaryat al Magharibah","Al Maqāwibah|El-Magáuba|El-Magàrba",32.3958,15.1184,Libya,LY,LBY,Mişrātah,Misratah,LY-MI,popularate,,22.8,,,4,Africa/Tripoli,FALSE,1434321053
"An Nuşf","An Nusf",En-Nuss,27.5372,14.2600,Libya,LY,LBY,"Wādī ash Shāţi’","Wadi ash Shati'",LY-WS,popularate,,0.9,,,5,Africa/Tripoli,FALSE,1434380225
"Al Kharā’iq","Al Khara'iq","El-Caràigh|El Charáigh",26.5500,13.1833,Libya,LY,LBY,"Wādī al Ḩayāt","Wadi al Hayat",LY-WD,popularate,,2.9,,,5,Africa/Tripoli,FALSE,1434881658
"Al ‘Ujaylāt","Al `Ujaylat","El Ajelat|El Agelat|Al ‘Ajaylāt|Agelát",32.7577,12.3772,Libya,LY,LBY,"An Nuqāţ al Khams","An Nuqat al Khams",LY-NQ,popularate,,59.1,,,4,Africa/Tripoli,FALSE,1434678583
"Al Hanshīr","Al Hanshir","Al Hinshīr",32.8976,13.2376,Libya,LY,LBY,Ţarābulus,Tarabulus,LY-TB,popularate,,1553.1,,,3,Africa/Tripoli,FALSE,1434627027
"Aţ Ţalā’i‘īyah","At Tala'i`iyah","At Ţalāyi‘īyah",32.0381,12.8819,Libya,LY,LBY,"Al Jabal al Gharbī","Al Jabal al Gharbi",LY-JG,popularate,,4.8,,,5,Africa/Tripoli,FALSE,1434180044
"Al Qurādīyīn","Al Quradiyin","El-Goradiìn|Al Qarādīn|El-Goradun",32.0639,12.5450,Libya,LY,LBY,"Al Jabal al Gharbī","Al Jabal al Gharbi",LY-JG,popularate,,4.8,,,4,Africa/Tripoli,FALSE,1434388052
"Awlād ‘Abd al Jalīl","Awlad `Abd al Jalil","Ulad Abd el-Gelíl",31.9500,12.1333,Libya,LY,LBY,"Al Jabal al Gharbī","Al Jabal al Gharbi",LY-JG,popularate,,4.8,,,5,Africa/Tripoli,FALSE,1434162603
"Al Fuqahā’","Al Fuqaha'","El Fógha|Faga",31.7833,14.0500,Libya,LY,LBY,"Al Marqab","Al Marqab",LY-MB,popularate,,22.8,,,4,Africa/Tripoli,FALSE,1434425640
"Ar Rābiţah","Ar Rabitah",Rapta,32.2333,12.5667,Libya,LY,LBY,"Az Zāwiyah","Az Zawiyah",LY-ZA,popularate,,129.3,,,4,Africa/Tripoli,FALSE,1434106567
"Qabīlat al Karāritah","Qabilat al Kararitah",,32.5834,13.8842,Libya,LY,LBY,"Al Marqab","Al Marqab",LY-MB,popularate,,77.1,,,4,Africa/Tripoli,FALSE,1434100223
Tfalfalt,Tfalfalt,Tfelfelt|Tfelfet,30.1833,10.4000,Libya,LY,LBY,Nālūt,Nalut,LY-NL,popularate,,1.8,,,5,Africa/Tripoli,FALSE,1434096923
"Al Ma‘mūrah","Al Ma`murah",Maamura,32.7192,12.8569,Libya,LY,LBY,"Al Jafārah","Al Jafarah",LY-JI,popularate,,207.3,,,3,Africa/Tripoli,FALSE,1434779079
"Qaryat al Lūfīyah","Qaryat al Lufiyah","Qaryat al Luwayfīyah",31.8670,20.0477,Libya,LY,LBY,Banghāzī,Banghazi,LY-BA,popularate,,61.1,,,4,Africa/Tripoli,FALSE,1434000004
"Al Ma‘mūrah","Al Ma`murah",El-Maamùra,32.0283,12.5731,Libya,LY,LBY,"Al Jabal al Gharbī","Al Jabal al Gharbi",LY-JG,popularate,,4.8,,,5,Africa/Tripoli,FALSE,1434348812
"Qaryat ad Dawā’irah","Qaryat ad Dawa'irah",,31.3719,14.5386,Libya,LY,LBY,Mişrātah,Misratah,LY-MI,popularate,,22.8,,,4,Africa/Tripoli,FALSE,1434350663
"Shatal al Ghābāt","Shatal al Ghabat",,32.8522,13.2858,Libya,LY,LBY,Ţarābulus,Tarabulus,LY-TB,popularate,,1553.1,,,3,Africa/Tripoli,FALSE,1434981938
"Qabīlat al Ḩurmah","Qabilat al Hurmah",,32.2983,14.6809,Libya,LY,LBY,"Al Marqab","Al Marqab",LY-MB,popularate,,22.8,,,4,Africa/Tripoli,FALSE,1434463358
"Qaryat Ḩujjājah","Qaryat Hujjajah","Qaryat Hijjājah",32.4576,14.5587,Libya,LY,LBY,"Al Marqab","Al Marqab",LY-MB,popularate,,22.8,,,4,Africa/Tripoli,FALSE,1434866122
"Al Maqārīn","Al Maqarin",,32.1556,20.1367,Libya,LY,LBY,Banghāzī,Banghazi,LY-BA,popularate,,61.1,,,4,Africa/Tripoli,FALSE,1434321040
Tannūshāt,Tannushat,Temlouchait|Temluscéit|Tamnascia|Tamlūshāyit|Temlusciáit|Tamnusciàit,31.8555,11.4687,Libya,LY,LBY,Nālūt,Nalut,LY-NL,popularate,,1.8,,,4,Africa/Tripoli,FALSE,1434902580
Faywīt,Faywit,,24.9506,10.0814,Libya,LY,LBY,Ghāt,Ghat,LY-GT,popularate,,0.6,,,5,Africa/Tripoli,FALSE,1434000010
"Ahl al Wādī","Ahl al Wadi",,32.0045,12.4698,Libya,LY,LBY,"Al Jabal al Gharbī","Al Jabal al Gharbi",LY-JG,popularate,,4.8,,,5,Africa/Tripoli,FALSE,1434056859
"Qabīlat Badarthan","Qabilat Badarthan","Baderten|Qabīlat Badrah",32.1661,13.0472,Libya,LY,LBY,"Al Jabal al Gharbī","Al Jabal al Gharbi",LY-JG,popularate,,4.8,,,5,Africa/Tripoli,FALSE,1434105083
"Umm Şaffār","Umm Saffar","Umm Soffár|Umm Şafār",31.8893,11.5615,Libya,LY,LBY,Nālūt,Nalut,LY-NL,popularate,,1.8,,,5,Africa/Tripoli,FALSE,1434844656
"Al Qarāyā","Al Qaraya",El-Gheràia,26.5333,13.3667,Libya,LY,LBY,"Wādī al Ḩayāt","Wadi al Hayat",LY-WD,popularate,,2.9,,,5,Africa/Tripoli,FALSE,1434954531
"Qaryat Sīdī Mahyūb","Qaryat Sidi Mahyub","Sídi Mahiús|Sīdī Mahyūs",32.2467,20.7380,Libya,LY,LBY,"Al Marj","Al Marj",LY-MJ,popularate,,51.4,,,4,Africa/Tripoli,FALSE,1434158497
Ashkidah,Ashkidah,Ésc’chida|Ashkudah|Ashkida|Ashkada,27.5606,14.4486,Libya,LY,LBY,"Wādī ash Shāţi’","Wadi ash Shati'",LY-WS,popularate,,0.9,,,4,Africa/Tripoli,FALSE,1434406857
"Abū Kammāsh","Abu Kammash","Pisida|Bu Chemmasc|Bu Kemmesh|Bū Kammāsh",33.0739,11.7363,Libya,LY,LBY,"An Nuqāţ al Khams","An Nuqat al Khams",LY-NQ,popularate,,59.1,,,4,Africa/Tripoli,FALSE,1434012195
"Ar Ruḩaybāt","Ar Ruhaybat","Er-Reihibat|Er Rehibat|Ar Ruḩaybīyāt|Ar Ruḩabāt|Ar Raḩībāt",31.7572,11.8700,Libya,LY,LBY,"Al Jabal al Gharbī","Al Jabal al Gharbi",LY-JG,popularate,,4.8,,,4,Africa/Tripoli,FALSE,1434299477
"Zāwiyat al Manastīr","Zawiyat al Manastir","El Menastir|Zāwiyat al Manāstīr",31.7973,24.9339,Libya,LY,LBY,"Al Buţnān","Al Butnan",LY-BU,popularate,,2.4,,,5,Africa/Tripoli,FALSE,1434189581
"Sīdī as Sā’iḩ","Sidi as Sa'ih","Mudīrīyat Sīdī as Sā’iḩ",32.5611,13.2536,Libya,LY,LBY,Ţarābulus,Tarabulus,LY-TB,popularate,,207.3,,,3,Africa/Tripoli,FALSE,1434763123
"Qabīlat ash Shuţaywīyah","Qabilat ash Shutaywiyah","Qabīlat ash Shutaywīyah",32.2927,14.6740,Libya,LY,LBY,"Al Marqab","Al Marqab",LY-MB,popularate,,22.8,,,4,Africa/Tripoli,FALSE,1434394145
"Abū Zayyān","Abu Zayyan","Bū Zayyān|Bu Zaián|Abū Ziyyān|Bu Zeian",32.0997,12.9786,Libya,LY,LBY,"Al Jabal al Gharbī","Al Jabal al Gharbi",LY-JG,popularate,,4.8,,,4,Africa/Tripoli,FALSE,1434533662
"Qaryat al Majārīs","Qaryat al Majaris",,32.0162,20.0263,Libya,LY,LBY,Banghāzī,Banghazi,LY-BA,popularate,,61.1,,,4,Africa/Tripoli,FALSE,1434132553
"Qabīlat al Mu‘ammarīyīn","Qabilat al Mu`ammariyin","Qabīlat al Mu‘ammiriyyīn|Qabīlat al Mu‘ammirīn",32.4715,13.8890,Libya,LY,LBY,"Al Marqab","Al Marqab",LY-MB,popularate,,77.1,,,4,Africa/Tripoli,FALSE,1434640453
"Banī Wazīr","Bani Wazir","Beni Uzir",32.0858,12.9847,Libya,LY,LBY,"Al Jabal al Gharbī","Al Jabal al Gharbi",LY-JG,popularate,,4.8,,,5,Africa/Tripoli,FALSE,1434334346
"Az Zahrā’","Az Zahra'",Bianchi,32.6789,12.8733,Libya,LY,LBY,"Al Jafārah","Al Jafarah",LY-JI,popularate,,207.3,,,3,Africa/Tripoli,FALSE,1434690677
"Abū ‘Īsá","Abu `Isa","Bu Ísa",32.7531,12.6311,Libya,LY,LBY,"Az Zāwiyah","Az Zawiyah",LY-ZA,popularate,,129.3,,,4,Africa/Tripoli,FALSE,1434385449
"Al Athrūn","Al Athrun","Al-Atrun|Latrun|Latroun|Lathrun|El Atrùn",32.8667,22.2667,Libya,LY,LBY,Darnah,Darnah,LY-DR,popularate,,9.4,,,4,Africa/Tripoli,FALSE,1434329148
"Mazra‘at Katarīllā","Mazra`at Katarilla","Concessione Catarella|Mazra‘at Katarayllā",32.4654,13.7160,Libya,LY,LBY,Ţarābulus,Tarabulus,LY-TB,popularate,,77.1,,,4,Africa/Tripoli,FALSE,1434509978
"Ad Dāwūn","Ad Dawun",,32.4333,13.4667,Libya,LY,LBY,Ţarābulus,Tarabulus,LY-TB,popularate,,77.1,,,4,Africa/Tripoli,FALSE,1434571744
"Qaryat ‘Ayn al Kabīr","Qaryat `Ayn al Kabir",,32.3234,15.1070,Libya,LY,LBY,Mişrātah,Misratah,LY-MI,popularate,,22.8,,,4,Africa/Tripoli,FALSE,1434644684
"Qaryat Marwān","Qaryat Marwan","Marwān|Meruán|Qaryat Murwān",32.1386,13.0692,Libya,LY,LBY,"Al Jabal al Gharbī","Al Jabal al Gharbi",LY-JG,popularate,,4.8,,,4,Africa/Tripoli,FALSE,1434675947
Barqāwī,Barqawi,Bergáui,27.5749,14.2333,Libya,LY,LBY,"Wādī ash Shāţi’","Wadi ash Shati'",LY-WS,popularate,,0.9,,,5,Africa/Tripoli,FALSE,1434076478
"Qaryat al ‘Unayzī","Qaryat al `Unayzi",,32.1525,20.1275,Libya,LY,LBY,Banghāzī,Banghazi,LY-BA,popularate,,61.1,,,4,Africa/Tripoli,FALSE,1434050518
Quţţah,Quttah,Gótta|El-Gótta,27.4839,13.7916,Libya,LY,LBY,"Wādī ash Shāţi’","Wadi ash Shati'",LY-WS,popularate,,0.9,,,5,Africa/Tripoli,FALSE,1434050144
Kurkūrah,Kurkurah,Carcura|Karkūrah|Drepanun,31.4261,20.0268,Libya,LY,LBY,Banghāzī,Banghazi,LY-BA,popularate,,61.1,,,4,Africa/Tripoli,FALSE,1434050636
"Qabīlat ar Radādah","Qabilat ar Radadah",,32.5974,13.9365,Libya,LY,LBY,"Al Marqab","Al Marqab",LY-MB,popularate,,77.1,,,4,Africa/Tripoli,FALSE,1434803726
"Qabīlat az Zarībah","Qabilat az Zaribah","Rabta el-Garbia|Ràbta|Er Rabta el Garbia|Ar Rābiţah al Gharbīyah|Ar Rābiţah al Garbīyah|Pabta",32.1575,12.8422,Libya,LY,LBY,"Al Jabal al Gharbī","Al Jabal al Gharbi",LY-JG,popularate,,4.8,,,4,Africa/Tripoli,FALSE,1434768417
"Al Manşūr","Al Mansur",,27.4894,13.0281,Libya,LY,LBY,"Wādī ash Shāţi’","Wadi ash Shati'",LY-WS,popularate,,0.9,,,5,Africa/Tripoli,FALSE,1434000014
Mātris,Matris,Mātiris,30.1925,10.3653,Libya,LY,LBY,Nālūt,Nalut,LY-NL,popularate,,1.8,,,5,Africa/Tripoli,FALSE,1434000006
"Qabīlat ar Raqā’iqīyah","Qabilat ar Raqa'iqiyah",,31.0434,13.2031,Libya,LY,LBY,"Al Jabal al Gharbī","Al Jabal al Gharbi",LY-JG,popularate,,4.8,,,5,Africa/Tripoli,FALSE,1434731707
"Qaryat Ra’s ‘Alī","Qaryat Ra's `Ali","Ras Alī",32.3790,15.1072,Libya,LY,LBY,Mişrātah,Misratah,LY-MI,popularate,,22.8,,,4,Africa/Tripoli,FALSE,1434634046
Tinzight,Tinzight,Tinzégt|Tinzaght,31.8879,11.5725,Libya,LY,LBY,Nālūt,Nalut,LY-NL,popularate,,1.8,,,5,Africa/Tripoli,FALSE,1434358554
"At Tabān","At Taban",,32.2057,21.5122,Libya,LY,LBY,"Al Jabal al Akhḑar","Al Jabal al Akhdar",LY-JA,popularate,,30.1,,,4,Africa/Tripoli,FALSE,1434168261
"Qaşr Khiyār","Qasr Khiyar","Qaşr al Jifārah|Kiar|Gasr Chiar|Gasr Gefára|Qaşr Khivāk|Gasr Kiar",32.6968,13.8463,Libya,LY,LBY,Ţarābulus,Tarabulus,LY-TB,popularate,,77.1,,,4,Africa/Tripoli,FALSE,1434118156
"Qaryat Awlād Jamā‘ah","Qaryat Awlad Jama`ah",,32.2200,13.0483,Libya,LY,LBY,Ţarābulus,Tarabulus,LY-TB,popularate,,4.8,,,5,Africa/Tripoli,FALSE,1434134801
"Qabīlat al Ḩājj ‘Umrān","Qabilat al Hajj `Umran","Qabīlat al Ḩāj ‘Umran",32.1250,12.9936,Libya,LY,LBY,"Al Jabal al Gharbī","Al Jabal al Gharbi",LY-JG,popularate,,4.8,,,5,Africa/Tripoli,FALSE,1434520033
"Qabīlat Awlād ‘Ārif","Qabilat Awlad `Arif","El-Corrátía|Al Kurrāthīyah",32.6191,13.9014,Libya,LY,LBY,"Al Marqab","Al Marqab",LY-MB,popularate,,77.1,,,4,Africa/Tripoli,FALSE,1434627129
"Qaryat ad Dabābisah","Qaryat ad Dababisah","Qaryat ad Dabābish",32.2941,15.0965,Libya,LY,LBY,Mişrātah,Misratah,LY-MI,popularate,,22.8,,,4,Africa/Tripoli,FALSE,1434204929
Antalāt,Antalat,,31.1356,20.6011,Libya,LY,LBY,Banghāzī,Banghazi,LY-BA,popularate,,61.1,,,4,Africa/Tripoli,FALSE,1434925111
"Qaryat Sūq al Jum‘ah","Qaryat Suq al Jum`ah","Sugh el Giumaa|Sūq al Jum‘ah",32.6228,13.6732,Libya,LY,LBY,Ţarābulus,Tarabulus,LY-TB,popularate,,77.1,,,4,Africa/Tripoli,FALSE,1434676697
"Qabīlat an Naţţāţāt","Qabilat an Nattatat",,32.1442,13.0293,Libya,LY,LBY,"Al Jabal al Gharbī","Al Jabal al Gharbi",LY-JG,popularate,,4.8,,,5,Africa/Tripoli,FALSE,1434048015
"Funduq Tarbānah","Funduq Tarbanah","Fondugh Terbána",32.5667,14.2333,Libya,LY,LBY,"Al Marqab","Al Marqab",LY-MB,popularate,,77.1,,,4,Africa/Tripoli,FALSE,1434061454
Khulayf,Khulayf,,26.6944,13.8222,Libya,LY,LBY,"Wādī al Ḩayāt","Wadi al Hayat",LY-WD,popularate,,2.9,,,5,Africa/Tripoli,FALSE,1434430909
"Qaryat al Barakāt","Qaryat al Barakat","Qaryat al Birkāt",31.7768,20.0280,Libya,LY,LBY,Banghāzī,Banghazi,LY-BA,popularate,,61.1,,,4,Africa/Tripoli,FALSE,1434825532
"Ḩārat az Zāwiyah","Harat az Zawiyah","El-Hára|Haraf Az Zāwīyah|Al Ḩārah",32.7631,12.7150,Libya,LY,LBY,"Az Zāwiyah","Az Zawiyah",LY-ZA,popularate,,129.3,,,4,Africa/Tripoli,FALSE,1434924430
"Zāwiyat aţ Ţīlīmūn","Zawiyat at Tilimun","Et Tailimun|Tilimun|Zāwiyat aţ Ţilīmūn",31.5888,20.1736,Libya,LY,LBY,Banghāzī,Banghazi,LY-BA,popularate,,61.1,,,4,Africa/Tripoli,FALSE,1434600647
Za‘rārah,Za`rarah,Zaarára,31.9206,11.6530,Libya,LY,LBY,Nālūt,Nalut,LY-NL,popularate,,1.8,,,5,Africa/Tripoli,FALSE,1434054368
"Al Barakāt","Al Barakat","El Barka|Elbarcat|Al Barkāt|Al Birkah",24.8940,10.1834,Libya,LY,LBY,Ghāt,Ghat,LY-GT,popularate,,0.6,,,4,Africa/Tripoli,FALSE,1434138747
Tarāghin,Taraghin,Traghen|Traghan|Trāghan,25.9233,14.4206,Libya,LY,LBY,Murzuq,Murzuq,LY-MQ,popularate,,0.3,,,4,Africa/Tripoli,FALSE,1434573877
"Al Qal‘ah","Al Qal`ah",,32.0492,12.5603,Libya,LY,LBY,"Al Jabal al Gharbī","Al Jabal al Gharbi",LY-JG,popularate,,4.8,,,5,Africa/Tripoli,FALSE,1434551042
Tasāwah,Tasawah,Tesaua|Tesawa|Tsāwah,26.0875,13.5081,Libya,LY,LBY,"Wādī al Ḩayāt","Wadi al Hayat",LY-WD,popularate,,0.7,,,4,Africa/Tripoli,FALSE,1434043085
"Zāwiyat at Tarīt","Zawiyat at Tarit","Zauiet Tert|Thintis|Zāwiyat at Tarit|Zāwiyat at Tart",32.7870,22.0772,Libya,LY,LBY,Darnah,Darnah,LY-DR,popularate,,9.4,,,4,Africa/Tripoli,FALSE,1434558056
Tabālūt,Tabalut,Tbādut|Tabādūt|Tebadút,32.0931,12.9619,Libya,LY,LBY,"Al Jabal al Gharbī","Al Jabal al Gharbi",LY-JG,popularate,,4.8,,,4,Africa/Tripoli,FALSE,1434949403
"Qabīlat Awlād Abū Şuḩayyirah","Qabilat Awlad Abu Suhayyirah","Qabīlat Awlād Abū Şaḩayyarah",32.7804,12.7141,Libya,LY,LBY,"Az Zāwiyah","Az Zawiyah",LY-ZA,popularate,,129.3,,,4,Africa/Tripoli,FALSE,1434449993
Ḩijārah,Hijarah,Hagiára,27.0167,14.4683,Libya,LY,LBY,Sabhā,Sabha,LY-SB,popularate,,9.5,,,5,Africa/Tripoli,FALSE,1434479204
Taghrinnah,Taghrinnah,Tegrínna|Tiqrinnah|Tigrinna|Tighrinnah|Taghrinah,32.1328,12.9928,Libya,LY,LBY,"Al Jabal al Gharbī","Al Jabal al Gharbi",LY-JG,popularate,,4.8,,,4,Africa/Tripoli,FALSE,1434419116
"Mazra‘at Ţīţānū","Mazra`at Titanu",,32.4713,13.7190,Libya,LY,LBY,Ţarābulus,Tarabulus,LY-TB,popularate,,77.1,,,4,Africa/Tripoli,FALSE,1434325608
Dulaym,Dulaym,Dlem,25.9431,14.0667,Libya,LY,LBY,Murzuq,Murzuq,LY-MQ,popularate,,0.3,,,4,Africa/Tripoli,FALSE,1434820809
Sha‘wā’,Sha`wa',"Es-Sciaàda|Ash Sha‘wah|Sciáua|Sciaaua|Sha‘wah|Esc-Sciàaua|Sha‘wā",30.9869,10.5517,Libya,LY,LBY,Nālūt,Nalut,LY-NL,popularate,,1.8,,,4,Africa/Tripoli,FALSE,1434524482
"Qaryat al Ma‘ānīn","Qaryat al Ma`anin","Qaryat al Ma‘nīn|El-Maaniin",32.0675,12.5449,Libya,LY,LBY,"Al Jabal al Gharbī","Al Jabal al Gharbi",LY-JG,popularate,,4.8,,,5,Africa/Tripoli,FALSE,1434022115
"As Sulţān","As Sultan","Sultan|Es Sultan",31.1145,17.1502,Libya,LY,LBY,Surt,Surt,LY-SR,popularate,,2.3,,,5,Africa/Tripoli,FALSE,1434168422
"Qaryat ‘Ayn Bū al Qā’id","Qaryat `Ayn Bu al Qa'id","Qaryat ‘Ayn bilqāyid",32.3618,15.1154,Libya,LY,LBY,Mişrātah,Misratah,LY-MI,popularate,,22.8,,,4,Africa/Tripoli,FALSE,1434312904
"As Subayţāt","As Subaytat","As Shetát|Es-Sbetàt",26.0976,13.6930,Libya,LY,LBY,"Wādī al Ḩayāt","Wadi al Hayat",LY-WD,popularate,,0.3,,,5,Africa/Tripoli,FALSE,1434739436
"Sūq al Khamīs","Suq al Khamis","Suq al Khamīsh",32.5277,13.2198,Libya,LY,LBY,Ţarābulus,Tarabulus,LY-TB,popularate,,207.3,,,3,Africa/Tripoli,FALSE,1434484904
"Qaryat ‘Ā’ilat Zaydān","Qaryat `A'ilat Zaydan","Qaryat ‘Īt Zaydān|Qaryat ‘Ayt Zaydān|Qaryat ‘Aylat Zaydān",32.0903,23.9028,Libya,LY,LBY,"Al Buţnān","Al Butnan",LY-BU,popularate,,2.4,,,4,Africa/Tripoli,FALSE,1434484276
"Zāwiyat al ‘Amārīyīn","Zawiyat al `Amariyin","Zāwiyat al Amārtyin|Zàuiet el-Amariin",32.5917,13.9878,Libya,LY,LBY,"Al Marqab","Al Marqab",LY-MB,popularate,,77.1,,,4,Africa/Tripoli,FALSE,1434777978
Qarāqārah,Qaraqarah,Garagara,26.5493,13.2121,Libya,LY,LBY,"Wādī al Ḩayāt","Wadi al Hayat",LY-WD,popularate,,2.9,,,5,Africa/Tripoli,FALSE,1434527185
"Minţaqat al Ḩashshān","Mintaqat al Hashshan","Manţaqat al Ḩashshān",32.7425,12.9147,Libya,LY,LBY,"Al Jafārah","Al Jafarah",LY-JI,popularate,,207.3,,,3,Africa/Tripoli,FALSE,1434275419
"Al Jawsh al Kabīr","Al Jawsh al Kabir",El-Chebir,31.9944,11.6608,Libya,LY,LBY,Nālūt,Nalut,LY-NL,popularate,,1.8,,,5,Africa/Tripoli,FALSE,1434325654
Wīfāt,Wifat,Uifat|Ouifat,31.9371,11.9561,Libya,LY,LBY,"Al Jabal al Gharbī","Al Jabal al Gharbi",LY-JG,popularate,,4.8,,,5,Africa/Tripoli,FALSE,1434710880
"Awlād Manşūr","Awlad Mansur",,32.0094,12.4777,Libya,LY,LBY,"Al Jabal al Gharbī","Al Jabal al Gharbi",LY-JG,popularate,,4.8,,,5,Africa/Tripoli,FALSE,1434096852
"Awlād Manşūr","Awlad Mansur",,32.2064,13.0483,Libya,LY,LBY,"Al Jabal al Gharbī","Al Jabal al Gharbi",LY-JG,popularate,,4.8,,,5,Africa/Tripoli,TRUE,1434253227
Fayşalān,Faysalan,,32.0950,13.0136,Libya,LY,LBY,"Al Jabal al Gharbī","Al Jabal al Gharbi",LY-JG,popularate,,4.8,,,5,Africa/Tripoli,FALSE,1434143095
"Aş Şābirīyah","As Sabiriyah",,32.7283,12.6411,Libya,LY,LBY,"Az Zāwiyah","Az Zawiyah",LY-ZA,popularate,,129.3,,,4,Africa/Tripoli,FALSE,1434933845
"Ash Shiyāb","Ash Shiyab","Esc-Sceiāb|As Shīyāb|Esc-Sciiab",31.8832,11.7919,Libya,LY,LBY,"Al Jabal al Gharbī","Al Jabal al Gharbi",LY-JG,popularate,,4.8,,,4,Africa/Tripoli,FALSE,1434266174
"Aḩqāf al Jabbārāt","Ahqaf al Jabbarat",,32.6872,21.9103,Libya,LY,LBY,"Al Jabal al Akhḑar","Al Jabal al Akhdar",LY-JA,popularate,,30.1,,,4,Africa/Tripoli,FALSE,1434519244
"Ar Rayāyinah","Ar Rayayinah","Riaina|Qabīlat Awlād Bū Ḩusayn|Er-Riaina",32.0268,12.3564,Libya,LY,LBY,"Al Jabal al Gharbī","Al Jabal al Gharbi",LY-JG,popularate,,4.8,,,4,Africa/Tripoli,FALSE,1434138108
"Al Jawāhilīyah","Al Jawahiliyah","Al Jawāhilīyyah",32.2099,13.0375,Libya,LY,LBY,Ţarābulus,Tarabulus,LY-TB,popularate,,4.8,,,5,Africa/Tripoli,FALSE,1434933407
"Al Barāhimah","Al Barahimah",El-Bráhma,31.9333,12.1833,Libya,LY,LBY,"Al Jabal al Gharbī","Al Jabal al Gharbi",LY-JG,popularate,,4.8,,,5,Africa/Tripoli,FALSE,1434646952
Jālū,Jalu,Gialo,29.0333,21.5500,Libya,LY,LBY,"Al Wāḩāt","Al Wahat",LY-WA,popularate,,1.1,,,5,Africa/Tripoli,FALSE,1434431036
"Qaryat al Quşaybāt","Qaryat al Qusaybat",,32.4024,15.0902,Libya,LY,LBY,Mişrātah,Misratah,LY-MI,popularate,,22.8,,,4,Africa/Tripoli,FALSE,1434379475
"Qaşr Lībiyā","Qasr Libiya",,32.6333,21.4167,Libya,LY,LBY,"Al Jabal al Akhḑar","Al Jabal al Akhdar",LY-JA,popularate,,20.9,,,4,Africa/Tripoli,FALSE,1434707393
Tāwurghah,Tawurghah,Tauorga|Tawarghā’|Torga|Tāwurghā’,32.0119,15.1135,Libya,LY,LBY,Mişrātah,Misratah,LY-MI,popularate,,22.8,,,4,Africa/Tripoli,FALSE,1434542173
"Awlād Jābir","Awlad Jabir","Ulad Giáber",31.9491,12.1542,Libya,LY,LBY,"Al Jabal al Gharbī","Al Jabal al Gharbi",LY-JG,popularate,,4.8,,,5,Africa/Tripoli,FALSE,1434121061
Miskah,Miskah,Mísca,32.0167,12.8167,Libya,LY,LBY,"Al Jabal al Gharbī","Al Jabal al Gharbi",LY-JG,popularate,,4.8,,,5,Africa/Tripoli,FALSE,1434526838
"Al Fuqahā’","Al Fuqaha'","Fógaha|Al-Foqahā’|El Fogaha",27.8110,16.3895,Libya,LY,LBY,"Al Jufrah","Al Jufrah",LY-JU,popularate,,0.6,,,4,Africa/Tripoli,FALSE,1434884328
"Al Qarz̧abah","Al Qarzabah","Al Qarḑabah",32.1375,23.4805,Libya,LY,LBY,"Al Buţnān","Al Butnan",LY-BU,popularate,,2.4,,,5,Africa/Tripoli,FALSE,1434195513
"Al Ashhab","Al Ashhab","El Ascehab",31.8887,24.6572,Libya,LY,LBY,"Al Buţnān","Al Butnan",LY-BU,popularate,,2.4,,,5,Africa/Tripoli,FALSE,1434372523
"Qaryat al Kārrān","Qaryat al Karran",,32.3602,15.1260,Libya,LY,LBY,Mişrātah,Misratah,LY-MI,popularate,,22.8,,,4,Africa/Tripoli,FALSE,1434864426
"Qaryat al Mayāmīn","Qaryat al Mayamin","Miamín|El-Miamìn|Al Mayāmīn",32.2333,13.0539,Libya,LY,LBY,Ţarābulus,Tarabulus,LY-TB,popularate,,4.8,,,4,Africa/Tripoli,FALSE,1434062168
Wanzarīk,Wanzarik,Unegerich|Uenzerich,27.4812,13.3302,Libya,LY,LBY,"Wādī ash Shāţi’","Wadi ash Shati'",LY-WS,popularate,,0.9,,,5,Africa/Tripoli,FALSE,1434097817
Na‘īmah,Na`imah,Naima,32.4316,14.6689,Libya,LY,LBY,"Al Marqab","Al Marqab",LY-MB,popularate,,22.8,,,4,Africa/Tripoli,FALSE,1434212550
"Qabīlat Awlād Ba‘ayyū","Qabilat Awlad Ba`ayyu",,32.3695,15.0611,Libya,LY,LBY,Mişrātah,Misratah,LY-MI,popularate,,22.8,,,4,Africa/Tripoli,FALSE,1434736746
"Qaryat al Bayḑā’","Qaryat al Bayda'","Qarbat al Bayḑā’",32.1100,13.3303,Libya,LY,LBY,"Al Jabal al Gharbī","Al Jabal al Gharbi",LY-JG,popularate,,13.3,,,4,Africa/Tripoli,FALSE,1434940284
"Al Karmah","Al Karmah","Càrmet Decheilàlla|Qaryat al Karmah|Karmat Dukhayl Allāh|Borium",31.9802,19.9960,Libya,LY,LBY,Banghāzī,Banghazi,LY-BA,popularate,,61.1,,,4,Africa/Tripoli,FALSE,1434248402
"Qaryat Qārāt","Qaryat Qarat",,32.2119,13.0758,Libya,LY,LBY,Ţarābulus,Tarabulus,LY-TB,popularate,,4.8,,,5,Africa/Tripoli,FALSE,1434865842
Ki‘ām,Ki`am,Ka‘am,32.1103,13.0061,Libya,LY,LBY,"Al Jabal al Gharbī","Al Jabal al Gharbi",LY-JG,popularate,,4.8,,,5,Africa/Tripoli,FALSE,1434405077
"Ash Shaqārinah","Ash Shaqarinah","Ash Saqārinah|Scegárna|Esc Sciagarna",32.0728,12.5228,Libya,LY,LBY,"Al Jabal al Gharbī","Al Jabal al Gharbi",LY-JG,popularate,,4.8,,,4,Africa/Tripoli,FALSE,1434042271
"Qaryat Bishr","Qaryat Bishr","Qaryat Bashīr",30.2925,19.4256,Libya,LY,LBY,"Al Wāḩāt","Al Wahat",LY-WA,popularate,,1.1,,,5,Africa/Tripoli,FALSE,1434771736
"Al Ḩimādah","Al Himadah",,32.4232,20.6126,Libya,LY,LBY,Banghāzī,Banghazi,LY-BA,popularate,,61.1,,,4,Africa/Tripoli,FALSE,1434731023
"Al Burdī","Al Burdi","Al Bardī",31.7667,25.0833,Libya,LY,LBY,"Al Buţnān","Al Butnan",LY-BU,popularate,,2.4,,,5,Africa/Tripoli,FALSE,1434591745
"Posto Trucchi","Posto Trucchi",,26.0167,22.2333,Libya,LY,LBY,"Al Kufrah","Al Kufrah",LY-KF,popularate,,0.1,,,5,Africa/Tripoli,FALSE,1434144140
"At Tamīmī","At Tamimi","At Taḩīmī|Tmìmi|Sidi el-Tmimi",32.3364,23.0576,Libya,LY,LBY,Darnah,Darnah,LY-DR,popularate,,9.4,,,4,Africa/Tripoli,FALSE,1434457176
"Aţ Ţallāb","At Tallab",,24.0167,23.1667,Libya,LY,LBY,"Al Kufrah","Al Kufrah",LY-KF,popularate,,0.1,,,5,Africa/Tripoli,FALSE,1434458224
"Qabīlat Bin Musallam","Qabilat Bin Musallam","Banī Muslim|Beni Mislím|Qabīlat Banī Musallam",32.6027,14.0502,Libya,LY,LBY,"Al Marqab","Al Marqab",LY-MB,popularate,,77.1,,,4,Africa/Tripoli,FALSE,1434492936
"Al Ḩummayrah","Al Hummayrah",Hamméra|Ḩummayrah,26.1136,14.8091,Libya,LY,LBY,Murzuq,Murzuq,LY-MQ,popularate,,0.3,,,5,Africa/Tripoli,FALSE,1434133289
"As Salāmāt","As Salamat","Slamát|Es-Slamát|Es Stamat",31.8769,11.7803,Libya,LY,LBY,"Al Jabal al Gharbī","Al Jabal al Gharbi",LY-JG,popularate,,4.8,,,4,Africa/Tripoli,FALSE,1434540996
Tuwaywā,Tuwaywa,Tuiua,26.5585,13.1488,Libya,LY,LBY,"Wādī al Ḩayāt","Wadi al Hayat",LY-WD,popularate,,2.9,,,5,Africa/Tripoli,FALSE,1434286605
"Sīdī aş Şayd","Sidi as Sayd","Borgo Tazzoli|Tazzoli|Sīdī aş Şīd",32.3346,13.4794,Libya,LY,LBY,Ţarābulus,Tarabulus,LY-TB,popularate,,77.1,,,4,Africa/Tripoli,FALSE,1434735200
"Al Kuwayfīyah","Al Kuwayfiyah",El-Coèfia|Coèfia|Al-Kuwaifia,32.2016,20.1691,Libya,LY,LBY,Banghāzī,Banghazi,LY-BA,popularate,,61.1,,,4,Africa/Tripoli,FALSE,1434332288
"Qaryat Şūr A‘rābī","Qaryat Sur A`rabi","Qaryat Şūr I‘rābī",32.3887,15.1092,Libya,LY,LBY,Mişrātah,Misratah,LY-MI,popularate,,22.8,,,4,Africa/Tripoli,FALSE,1434564936
"Al Ḩanīyah","Al Haniyah",El-Hanía,32.8410,21.5209,Libya,LY,LBY,"Al Jabal al Akhḑar","Al Jabal al Akhdar",LY-JA,popularate,,30.1,,,4,Africa/Tripoli,FALSE,1434098471
"Asyādī al ‘Amārīyīn","Asyadi al `Amariyin",,32.6565,13.8318,Libya,LY,LBY,Ţarābulus,Tarabulus,LY-TB,popularate,,77.1,,,4,Africa/Tripoli,FALSE,1434865816
Wāmīs,Wamis,,31.6468,12.6964,Libya,LY,LBY,"Al Jabal al Gharbī","Al Jabal al Gharbi",LY-JG,popularate,,4.8,,,5,Africa/Tripoli,FALSE,1434000002
"Qaryat Abū Shārwal","Qaryat Abu Sharwal",,32.3923,15.1326,Libya,LY,LBY,Mişrātah,Misratah,LY-MI,popularate,,22.8,,,4,Africa/Tripoli,FALSE,1434070113
"Al Manāşīr","Al Manasir",,32.1614,12.8317,Libya,LY,LBY,"Al Jabal al Gharbī","Al Jabal al Gharbi",LY-JG,popularate,,4.8,,,5,Africa/Tripoli,FALSE,1434750510
"Aş Şafşāf","As Safsaf","Aş Şafşaf",32.7797,21.9498,Libya,LY,LBY,"Al Jabal al Akhḑar","Al Jabal al Akhdar",LY-JA,popularate,,30.1,,,4,Africa/Tripoli,FALSE,1434033113
Amzīr,Amzir,,32.0694,12.6942,Libya,LY,LBY,"Al Jabal al Gharbī","Al Jabal al Gharbi",LY-JG,popularate,,4.8,,,5,Africa/Tripoli,FALSE,1434611679
"Qaryat ad Darārifah","Qaryat ad Dararifah",,32.2175,13.0172,Libya,LY,LBY,"Al Jafārah","Al Jafarah",LY-JI,popularate,,4.8,,,5,Africa/Tripoli,FALSE,1434639731
"As Sawānī","As Sawani",,32.7167,13.0667,Libya,LY,LBY,"Al Jafārah","Al Jafarah",LY-JI,popularate,,207.3,,,3,Africa/Tripoli,FALSE,1434252450
"Umm Shuwayshah","Umm Shuwayshah","Umm Shwayshah",32.2333,13.3667,Libya,LY,LBY,Ţarābulus,Tarabulus,LY-TB,popularate,,77.1,,,4,Africa/Tripoli,FALSE,1434634638
"Qaşabat Mādī","Qasabat Madi",,32.0744,12.5366,Libya,LY,LBY,"Al Jabal al Gharbī","Al Jabal al Gharbi",LY-JG,popularate,,4.8,,,5,Africa/Tripoli,FALSE,1434355316
"Ra’s Lānūf","Ra's Lanuf",,30.5167,18.5667,Libya,LY,LBY,Surt,Surt,LY-SR,popularate,,2.3,,,5,Africa/Tripoli,FALSE,1434463366
"Al Qawātī","Al Qawati",El-Aauàti,32.0989,12.6722,Libya,LY,LBY,"Al Jabal al Gharbī","Al Jabal al Gharbi",LY-JG,popularate,,4.8,,,5,Africa/Tripoli,FALSE,1434900090
Zahrah,Zahrah,Zàhra|Furita|Fiorita,32.8667,22.2833,Libya,LY,LBY,Darnah,Darnah,LY-DR,popularate,,9.4,,,4,Africa/Tripoli,FALSE,1434316735
"Qaryat ar Ramlah","Qaryat ar Ramlah",,32.3852,15.1288,Libya,LY,LBY,Mişrātah,Misratah,LY-MI,popularate,,22.8,,,4,Africa/Tripoli,FALSE,1434461881
"Qaryat Bin Tallīs","Qaryat Bin Tallis","Qaryat Bin Tillīs|Awlād Tallīs|Ulád Tellís",31.8005,14.0717,Libya,LY,LBY,"Al Marqab","Al Marqab",LY-MB,popularate,,22.8,,,4,Africa/Tripoli,FALSE,1434287054
"Qaryat Awlād Duwāb","Qaryat Awlad Duwab","Qaryat Awlād Dhu’ayb|Qaryat Awläd Duwab",30.6767,13.2534,Libya,LY,LBY,"Al Jabal al Gharbī","Al Jabal al Gharbi",LY-JG,popularate,,4.8,,,5,Africa/Tripoli,FALSE,1434657244
"Awlād Yaḩyá","Awlad Yahya",,32.0226,12.5214,Libya,LY,LBY,"Al Jabal al Gharbī","Al Jabal al Gharbi",LY-JG,popularate,,4.8,,,5,Africa/Tripoli,FALSE,1434001939
Ghawāţ,Ghawat,Gauat,25.9000,14.0167,Libya,LY,LBY,Murzuq,Murzuq,LY-MQ,popularate,,0.3,,,5,Africa/Tripoli,FALSE,1434883426
"Al Qaryāt al Gharbīyah","Al Qaryat al Gharbiyah","Al Qaryat al Gharbīyah|Gheria el Garbia|El-Ghéria el-Garbía|Al Qaryah al Gharbīyah",30.4124,13.4185,Libya,LY,LBY,"Al Jabal al Gharbī","Al Jabal al Gharbi",LY-JG,popularate,,4.8,,,4,Africa/Tripoli,FALSE,1434163284
"Qaryat Umm ad Danānīr","Qaryat Umm ad Dananir",,31.8979,20.0539,Libya,LY,LBY,Banghāzī,Banghazi,LY-BA,popularate,,61.1,,,4,Africa/Tripoli,FALSE,1434630564
"Qaryat Jītāl","Qaryat Jital","Geitál|Jayţāl|Qaryat Jīţāl",31.8967,11.8815,Libya,LY,LBY,"Al Jabal al Gharbī","Al Jabal al Gharbi",LY-JG,popularate,,4.8,,,4,Africa/Tripoli,FALSE,1434932489
"‘Ayn Zārah","`Ayn Zarah","Miani|Ain Zara",32.8133,13.2697,Libya,LY,LBY,Ţarābulus,Tarabulus,LY-TB,popularate,,1553.1,,,3,Africa/Tripoli,FALSE,1434420742
Madrūsah,Madrusah,Medrusa,24.7854,14.5320,Libya,LY,LBY,Murzuq,Murzuq,LY-MQ,popularate,,0.3,,,5,Africa/Tripoli,FALSE,1434511148
"Qaryat Jarrūfah","Qaryat Jarrufah",Jarrūţah|Giarrúta|Jārūthah,31.8161,19.9797,Libya,LY,LBY,Banghāzī,Banghazi,LY-BA,popularate,,61.1,,,4,Africa/Tripoli,FALSE,1434842660
Baqqālah,Baqqalah,Reggāla|Beggála|Baqalah,31.8462,11.5844,Libya,LY,LBY,,,,,,1.8,,,4,Africa/Tripoli,FALSE,1434780626
"Al Lamāmīsh","Al Lamamish",El-Lamamìsc,32.1786,13.0786,Libya,LY,LBY,"Al Jabal al Gharbī","Al Jabal al Gharbi",LY-JG,popularate,,4.8,,,5,Africa/Tripoli,FALSE,1434688227
"Qabīlat Wādinah","Qabilat Wadinah","Uádna|Qabilat Wādnah|Wādinah",32.5717,14.0395,Libya,LY,LBY,"Al Marqab","Al Marqab",LY-MB,popularate,,77.1,,,4,Africa/Tripoli,FALSE,1434379181
"Qabīlat ash Shurfah","Qabilat ash Shurfah",,32.5831,14.2858,Libya,LY,LBY,"Al Marqab","Al Marqab",LY-MB,popularate,,77.1,,,4,Africa/Tripoli,FALSE,1434816946
"Qabīlat ash Shurfah","Qabilat ash Shurfah","Qabilat ash Shurtah|Khalfūn|Chalfún",32.6032,13.9707,Libya,LY,LBY,"Al Marqab","Al Marqab",LY-MB,popularate,,77.1,,,4,Africa/Tripoli,TRUE,1434562111
"Al Qadhādhimah","Al Qadhadhimah",,31.6333,20.1333,Libya,LY,LBY,Banghāzī,Banghazi,LY-BA,popularate,,61.1,,,4,Africa/Tripoli,FALSE,1434123000
"Al ‘Urbān","Al `Urban",,32.1667,13.1500,Libya,LY,LBY,"Al Jabal al Gharbī","Al Jabal al Gharbi",LY-JG,popularate,,4.8,,,5,Africa/Tripoli,FALSE,1434102692
"Qaryat Ra’s Abū Ḩammār","Qaryat Ra's Abu Hammar",,32.3649,15.1536,Libya,LY,LBY,Mişrātah,Misratah,LY-MI,popularate,,22.8,,,4,Africa/Tripoli,FALSE,1434066727
"Umm al Ḩamām","Umm al Hamam","Umm el-Hamen|Umm el Haman|Umm el-Hamàm",25.9945,13.6400,Libya,LY,LBY,Murzuq,Murzuq,LY-MQ,popularate,,0.3,,,4,Africa/Tripoli,FALSE,1434820287
Taglin,Taglin,,26.5500,12.9000,Libya,LY,LBY,"Wādī al Ḩayāt","Wadi al Hayat",LY-WD,popularate,,2.9,,,5,Africa/Tripoli,FALSE,1434547574
"Qaryat ‘Ayn az Zayt","Qaryat `Ayn az Zayt","Qaryat ‘Ayn az Zay",32.3430,15.1409,Libya,LY,LBY,Mişrātah,Misratah,LY-MI,popularate,,22.8,,,4,Africa/Tripoli,FALSE,1434749525
"Sawānī Bin Ādam","Sawani Bin Adam","Suwānī Bin Yādim|Suani Ben Adem",32.7175,13.0764,Libya,LY,LBY,"Al Jafārah","Al Jafarah",LY-JI,popularate,,207.3,,,3,Africa/Tripoli,FALSE,1434650128
"Qaryat Nābūkar","Qaryat Nabukar",,32.1603,13.0375,Libya,LY,LBY,"Al Jabal al Gharbī","Al Jabal al Gharbi",LY-JG,popularate,,4.8,,,5,Africa/Tripoli,FALSE,1434160554
"Sawānī Fassānū","Sawani Fassanu",,31.3074,12.7930,Libya,LY,LBY,"Al Jabal al Gharbī","Al Jabal al Gharbi",LY-JG,popularate,,4.8,,,5,Africa/Tripoli,FALSE,1434092156
"Qaryat al Qaţ‘","Qaryat al Qat`","El-Gátaa|El Gáta|Al Qaţ‘",31.8658,11.8943,Libya,LY,LBY,"Al Jabal al Gharbī","Al Jabal al Gharbi",LY-JG,popularate,,4.8,,,4,Africa/Tripoli,FALSE,1434692213
"Ad Dayāsīr","Ad Dayasir","Al Dayāsīr|Ed Diasìr|Ed-Dtasir",32.1456,12.9872,Libya,LY,LBY,"Al Jabal al Gharbī","Al Jabal al Gharbi",LY-JG,popularate,,4.8,,,4,Africa/Tripoli,FALSE,1434830941
"Al Kulaybah","Al Kulaybah",El-Culeba,32.0475,13.0039,Libya,LY,LBY,"Al Jabal al Gharbī","Al Jabal al Gharbi",LY-JG,popularate,,4.8,,,5,Africa/Tripoli,FALSE,1434229700
"Al Quşayr","Al Qusayr","Ghesir|El Gsir",31.9622,12.0213,Libya,LY,LBY,"Al Jabal al Gharbī","Al Jabal al Gharbi",LY-JG,popularate,,4.8,,,5,Africa/Tripoli,FALSE,1434334908
"Al Quşayr","Al Qusayr",,32.0715,12.5477,Libya,LY,LBY,"Al Jabal al Gharbī","Al Jabal al Gharbi",LY-JG,popularate,,4.8,,,5,Africa/Tripoli,TRUE,1434813843
"Qaryat al ‘Awā’idah","Qaryat al `Awa'idah",,32.3950,15.1048,Libya,LY,LBY,Mişrātah,Misratah,LY-MI,popularate,,22.8,,,4,Africa/Tripoli,FALSE,1434889165
"Awlād ‘Azzām","Awlad `Azzam",,32.1446,13.0083,Libya,LY,LBY,"Al Jabal al Gharbī","Al Jabal al Gharbi",LY-JG,popularate,,4.8,,,5,Africa/Tripoli,FALSE,1434006037
"Al Ḩarābah","Al Harabah","El-Haraba|Al Ḩarāibah|Al Ḩarāyibah",31.7739,11.5436,Libya,LY,LBY,Nālūt,Nalut,LY-NL,popularate,,1.8,,,4,Africa/Tripoli,FALSE,1434162262
"Qaryat al Qaddāḩīyah","Qaryat al Qaddahiyah","Al Qaddāḩīyah|Gheddahìa|El Ghadenia|El Gheddahia",31.3678,15.2269,Libya,LY,LBY,Mişrātah,Misratah,LY-MI,popularate,,22.8,,,4,Africa/Tripoli,FALSE,1434195648
"Zāwiyat al ‘Urqūb","Zawiyat al `Urqub",,32.8333,21.6000,Libya,LY,LBY,"Al Jabal al Akhḑar","Al Jabal al Akhdar",LY-JA,popularate,,30.1,,,4,Africa/Tripoli,FALSE,1434649207
"At Taribjah","At Taribjah","Qaryat aţ Ţaribjah",31.8738,19.9496,Libya,LY,LBY,Banghāzī,Banghazi,LY-BA,popularate,,61.1,,,4,Africa/Tripoli,FALSE,1434349065
"Qaryat ‘Ayn Abū Ghūlah","Qaryat `Ayn Abu Ghulah",,32.3559,15.1350,Libya,LY,LBY,Mişrātah,Misratah,LY-MI,popularate,,22.8,,,4,Africa/Tripoli,FALSE,1434085267
Khaḑrā’,Khadra',Verde|Chadra,32.5508,21.7823,Libya,LY,LBY,"Al Jabal al Akhḑar","Al Jabal al Akhdar",LY-JA,popularate,,30.1,,,4,Africa/Tripoli,FALSE,1434661844
Quşay‘ah,Qusay`ah,"Marconi|Al Qaşī‘ah|Al Qassiya|Al Quşay‘ah",32.4785,13.9512,Libya,LY,LBY,"Al Marqab","Al Marqab",LY-MB,popularate,,77.1,,,4,Africa/Tripoli,FALSE,1434203231
"Al Kufrah","Al Kufrah","Al Kafrah|Gufra",24.1833,23.2833,Libya,LY,LBY,"Al Kufrah","Al Kufrah",LY-KF,popularate,,0.1,,,5,Africa/Tripoli,FALSE,1434510625
"Al Maḩjūb","Al Mahjub","Qaryat al Maḩjūb",32.4333,14.9833,Libya,LY,LBY,Mişrātah,Misratah,LY-MI,popularate,,22.8,,,4,Africa/Tripoli,FALSE,1434976751
"Baldat Diqqī","Baldat Diqqi",Degghi|Daqqī,31.9461,11.6697,Libya,LY,LBY,Nālūt,Nalut,LY-NL,popularate,,1.8,,,5,Africa/Tripoli,FALSE,1434932183
"Minţaqat al Ghanīmah","Mintaqat al Ghanimah","Ghanīmah|Ghanima|Corradini|Borgo Corradini|Manţiqat al Ghanimah",32.6969,14.0427,Libya,LY,LBY,"Al Marqab","Al Marqab",LY-MB,popularate,,77.1,,,4,Africa/Tripoli,FALSE,1434674273
"Ri’āsat Difā‘ Barqah","Ri'asat Difa` Barqah",,32.0667,20.2500,Libya,LY,LBY,Banghāzī,Banghazi,LY-BA,popularate,,61.1,,,4,Africa/Tripoli,FALSE,1434739328
Jarmah,Jarmah,,26.5268,13.0723,Libya,LY,LBY,"Wādī al Ḩayāt","Wadi al Hayat",LY-WD,popularate,,2.9,,,5,Africa/Tripoli,FALSE,1434000008
"Az Zāwiyah","Az Zawiyah","Zauiet di Gianzur|Zt. D Gianzur|Zavia Jiantsur|Zàvia Gianzur|Zauiet Gianzur",31.9811,24.6572,Libya,LY,LBY,"Al Buţnān","Al Butnan",LY-BU,popularate,,2.4,,,4,Africa/Tripoli,FALSE,1434920539
Sīnāwin,Sinawin,Sīnāwan|Sinnāwin|Sinauen,31.0260,10.6024,Libya,LY,LBY,Nālūt,Nalut,LY-NL,popularate,,1.8,,,4,Africa/Tripoli,FALSE,1434260392
Tamazdah,Tamazdah,Tmézda|Tmisda|Tmazdā,31.9186,11.9483,Libya,LY,LBY,"Al Jabal al Gharbī","Al Jabal al Gharbi",LY-JG,popularate,,4.8,,,4,Africa/Tripoli,FALSE,1434458163
"Ash Shaykh Bū ‘Ujaylah","Ash Shaykh Bu `Ujaylah","Sidi Bu Agēla|Esc-Scech Bu Agéla",32.7339,12.3950,Libya,LY,LBY,"An Nuqāţ al Khams","An Nuqat al Khams",LY-NQ,popularate,,59.1,,,4,Africa/Tripoli,FALSE,1434371369
"Qaryat Qaşr al ‘Ajūz","Qaryat Qasr al `Ajuz",,32.3000,20.2667,Libya,LY,LBY,Banghāzī,Banghazi,LY-BA,popularate,,61.1,,,4,Africa/Tripoli,FALSE,1434181459
"Awlād ‘Abd ad Dā’im","Awlad `Abd ad Da'im",,31.9544,12.2523,Libya,LY,LBY,"Al Jabal al Gharbī","Al Jabal al Gharbi",LY-JG,popularate,,4.8,,,5,Africa/Tripoli,FALSE,1434485734
Ḩarqah,Harqah,Giàrfet,32.0561,12.7026,Libya,LY,LBY,"Al Jabal al Gharbī","Al Jabal al Gharbi",LY-JG,popularate,,4.8,,,5,Africa/Tripoli,FALSE,1434700943
"Qaryat al Barrānī","Qaryat al Barrani","Qaryat al Barānī ‘Awlat Maghāribah|Qaryat al Barānī ‘Alwat Maghāribah|Qaryat al Barrānī ‘Ilwat Maghāribah",31.8567,19.9856,Libya,LY,LBY,Banghāzī,Banghazi,LY-BA,popularate,,61.1,,,4,Africa/Tripoli,FALSE,1434000005
"Qaşabat ‘Akkah","Qasabat `Akkah",,32.0500,12.5873,Libya,LY,LBY,"Al Jabal al Gharbī","Al Jabal al Gharbi",LY-JG,popularate,,4.8,,,5,Africa/Tripoli,FALSE,1434309685
"Al ‘Alāwinah","Al `Alawinah",‘Aāwinah,32.0533,12.5697,Libya,LY,LBY,"Al Jabal al Gharbī","Al Jabal al Gharbi",LY-JG,popularate,,4.8,,,5,Africa/Tripoli,FALSE,1434670862
"Al Ghazālah","Al Ghazalah",,32.1462,23.3569,Libya,LY,LBY,Darnah,Darnah,LY-DR,popularate,,2.4,,,5,Africa/Tripoli,FALSE,1434000019
"Minţaqat ad Daghdūghī","Mintaqat ad Daghdughi",,32.3456,14.5253,Libya,LY,LBY,"Al Marqab","Al Marqab",LY-MB,popularate,,22.8,,,4,Africa/Tripoli,FALSE,1434391482
"Zāwiyat al ‘Izzīyāt","Zawiyat al `Izziyat","Zàuiet el-Ezzeiàt|Zāwiyat al ‘Ilzīyāt",32.2546,22.6662,Libya,LY,LBY,Darnah,Darnah,LY-DR,popularate,,9.4,,,5,Africa/Tripoli,FALSE,1434684398
"Az Zīghan","Az Zighan","Ez Zighen|Zíghen",27.3685,14.9079,Libya,LY,LBY,"Wādī ash Shāţi’","Wadi ash Shati'",LY-WS,popularate,,9.5,,,5,Africa/Tripoli,FALSE,1434958445
"Qaryat Qarārah","Qaryat Qararah",Grára,32.3801,15.1179,Libya,LY,LBY,Mişrātah,Misratah,LY-MI,popularate,,22.8,,,4,Africa/Tripoli,FALSE,1434798607
"Qaryat al Jaţāliwah","Qaryat al Jataliwah",,32.3862,15.1547,Libya,LY,LBY,Mişrātah,Misratah,LY-MI,popularate,,22.8,,,4,Africa/Tripoli,FALSE,1434152891
"Qabīlat al Malā’iţah","Qabilat al Mala'itah","Qabīlat al Malāyiţah",32.3757,15.1865,Libya,LY,LBY,Mişrātah,Misratah,LY-MI,popularate,,22.8,,,4,Africa/Tripoli,FALSE,1434217887
"Sūq al Jum‘ah","Suq al Jum`ah","El Giumaa|Al Jum‘ah|Sugh el-Giúmaa",32.4695,14.4854,Libya,LY,LBY,"Al Marqab","Al Marqab",LY-MB,popularate,,22.8,,,4,Africa/Tripoli,FALSE,1434617886
"Qaryat Ismā‘īl","Qaryat Isma`il",,32.3941,15.1404,Libya,LY,LBY,Mişrātah,Misratah,LY-MI,popularate,,22.8,,,4,Africa/Tripoli,FALSE,1434411807
"Zāwiyat as Samāḩ","Zawiyat as Samah","Manţiqat Zāwiyat as Samāḩ|Minţaqat Zāwiyat as Samāḩ",32.5753,13.9957,Libya,LY,LBY,"Al Marqab","Al Marqab",LY-MB,popularate,,77.1,,,4,Africa/Tripoli,FALSE,1434290430
"Qabīlat Warjīn","Qabilat Warjin",,32.0100,12.4633,Libya,LY,LBY,"Al Jabal al Gharbī","Al Jabal al Gharbi",LY-JG,popularate,,4.8,,,5,Africa/Tripoli,FALSE,1434305856
Nasamah,Nasamah,Nasmah,31.3833,13.2833,Libya,LY,LBY,"Al Jabal al Gharbī","Al Jabal al Gharbi",LY-JG,popularate,,4.8,,,5,Africa/Tripoli,FALSE,1434487644
