city,city_ascii,city_alt,lat,lng,country,iso2,iso3,admin_name,admin_name_ascii,admin_code,admin_type,capital,density,population,population_proper,ranking,timezone,same_name,id
Vilnius,Vilnius,Vil’nyus|Vil’no|Vilna|Vilnia|Wilno|Wilna,54.6872,25.2800,Lithuania,LT,LTU,"Vilniaus Miestas","Vilniaus Miestas",LT-57,"city municipality",primary,1450.1,716856,581475,1,Europe/Vilnius,FALSE,1440887149
Kaunas,Kaunas,Kowno|Kauno|Kauen|Kovno|Caunas|Palemonas,54.8972,23.8861,Lithuania,LT,LTU,"Kauno Miestas","Kauno Miestas",LT-15,"city municipality",admin,1943.4,393397,305120,2,Europe/Vilnius,FALSE,1440302852
Klaipėda,Klaipeda,Klaipada|Klaypeda|Memel|Kłajpeda,55.7125,21.1350,Lithuania,LT,LTU,"Klaipėdos Miestas","Klaipedos Miestas",LT-20,"city municipality",admin,1616.5,158420,158420,2,Europe/Vilnius,FALSE,1440897790
Panevėžys,Panevezys,Panevėžio|Poniewież|Poniewiesh|Panevezhis|Poniewesch|Panevezhi,55.7333,24.3500,Lithuania,LT,LTU,"Panevėžio Miestas","Panevezio Miestas",LT-32,"city municipality",admin,1628.0,124412,87913,2,Europe/Vilnius,FALSE,1440120065
Šiauliai,Siauliai,Shaulyay|Szawle|Shyaulyay|Sokniai|Šiaulių|Shavli|Schaulen,55.9333,23.3167,Lithuania,LT,LTU,"Šiaulių Miestas","Siauliu Miestas",LT-43,"city municipality",admin,1285.6,104300,104300,2,Europe/Vilnius,FALSE,1440593416
Alytus,Alytus,Alytaus|Alitus|Olita,54.4014,24.0492,Lithuania,LT,LTU,"Alytaus Miestas","Alytaus Miestas",LT-02,"city municipality",admin,1080.3,51856,51856,2,Europe/Vilnius,FALSE,1440273296
Marijampolė,Marijampole,Kapsukas|Mariyampole|Mariyampol’|Mariampol’|Pašešupiai|Mariampolė|Mariampolės|Starapolė|Marjampol,54.5472,23.3500,Lithuania,LT,LTU,Marijampolė,Marijampole,LT-25,"district municipality",admin,73.3,36807,36807,2,Europe/Vilnius,FALSE,1440180524
Mažeikiai,Mazeikiai,Mazheykyay|Mažeikių|Muravjovo|Murawlewo|Możejki,56.3167,22.3333,Lithuania,LT,LTU,Mažeikiai,Mazeikiai,LT-26,"district municipality",admin,40.2,33249,33249,2,Europe/Vilnius,FALSE,1440746512
Jonava,Jonava,"Janów|Ionava|Yonava|Jonavos Miestelis",55.0722,24.2806,Lithuania,LT,LTU,Jonava,Jonava,LT-10,"district municipality",admin,44.9,27134,27134,2,Europe/Vilnius,FALSE,1440040612
Utena,Utena,Uzjany|Utenos|Uciany|Utyana|Uciana,55.5000,25.6000,Lithuania,LT,LTU,Utena,Utena,LT-54,"district municipality",admin,32.5,25608,25608,2,Europe/Vilnius,FALSE,1440298742
Kėdainiai,Kedainiai,Kiejdany|Keydany|Keidany|Kedaynyay|Kedaynyai|Kedainių|Kedayny,55.2833,23.9667,Lithuania,LT,LTU,Kėdainiai,Kedainiai,LT-18,"district municipality",admin,27.3,23447,23447,2,Europe/Vilnius,FALSE,1440351434
Telšiai,Telsiai,Telsze|Telšių|Telshyay|Telshi|Telshay|Telšai|Telsche,55.9833,22.2500,Lithuania,LT,LTU,Telšiai,Telsiai,LT-51,"district municipality",admin,27.4,22261,22261,2,Europe/Vilnius,FALSE,1440908000
Tauragė,Taurage,Taurogi|Taurogen|Tauragės|Tauroggen,55.2522,22.2897,Lithuania,LT,LTU,Tauragė,Taurage,LT-50,"district municipality",admin,31.6,21416,21416,2,Europe/Vilnius,FALSE,1440115384
Ukmergė,Ukmerge,Vilkomir|Vilkmergė|Wilkomir|Wiłkomierz|Ukmergės,55.2500,24.7500,Lithuania,LT,LTU,Ukmergė,Ukmerge,LT-53,"district municipality",admin,24.2,21048,21048,2,Europe/Vilnius,FALSE,1440784663
Visaginas,Visaginas,Sniečkus|Snechkus,55.5980,26.4380,Lithuania,LT,LTU,Visaginas,Visaginas,LT-59,municipality,admin,337.7,19586,19586,2,Europe/Vilnius,FALSE,1440984232
Palanga,Palanga,Palangos|Polanga|Polaga|Polangen,55.9167,21.0667,Lithuania,LT,LTU,"Palangos Miestas","Palangos Miestas",LT-31,"city municipality",admin,229.5,18132,18132,2,Europe/Vilnius,FALSE,1440868798
Plungė,Plunge,Plungės|Płungiany,55.9167,21.8500,Lithuania,LT,LTU,Plungė,Plunge,LT-35,"district municipality",admin,35.6,17385,17385,2,Europe/Vilnius,FALSE,1440542185
Kretinga,Kretinga,"Kretingos|Kratinga|Myasto Kretinga|Krottingen|Kretynga",55.8900,21.2422,Lithuania,LT,LTU,Kretinga,Kretinga,LT-22,"district municipality",admin,38.5,17207,17207,2,Europe/Vilnius,FALSE,1440720895
Šilutė,Silute,Heydekrug|Heydekrug-Matzicken|Szyłokarczma|Shilute|Heidekrug,55.3500,21.4833,Lithuania,LT,LTU,Šilutė,Silute,LT-46,"district municipality",admin,32.9,16200,16200,2,Europe/Vilnius,FALSE,1440568024
Gargždai,Gargzdai,Gargzhday|Garsden|Gargždų|Gardždai|Garždai|Gorzdy,55.7128,21.4033,Lithuania,LT,LTU,Klaipėda,Klaipeda,LT-21,"district municipality",,46.6,15932,15932,3,Europe/Vilnius,FALSE,1440368270
Radviliškis,Radviliskis,Radvilai|Radviliškio|Radziwiliszki|Radvilišks|Radviliskis-Nemunelio|Radvilishkis,55.8000,23.5500,Lithuania,LT,LTU,Radviliškis,Radviliskis,LT-37,"district municipality",admin,22.1,15112,15112,2,Europe/Vilnius,FALSE,1440712589
Druskininkai,Druskininkai,Druskininkay|Druskiniki|Druśkieniki|Druskeniki,54.0167,23.9667,Lithuania,LT,LTU,Druskininkai,Druskininkai,LT-07,municipality,admin,40.1,13170,13170,2,Europe/Vilnius,FALSE,1440489111
Elektrėnai,Elektrenai,Elektrenay,54.7878,24.6711,Lithuania,LT,LTU,Elektrénai,Elektrenai,LT-08,municipality,admin,70.0,11753,11753,2,Europe/Vilnius,FALSE,1440272776
Rokiškis,Rokiskis,"Myasto Rokishkis|Rokiškio|Rokishkis|Rakiszki|Rakischki|Rakiškis|Rakishki",55.9667,25.5833,Lithuania,LT,LTU,Rokiškis,Rokiskis,LT-40,"district municipality",admin,16.6,11606,11606,2,Europe/Vilnius,FALSE,1440918695
"Aukštieji Paneriai","Aukstieji Paneriai",,54.6262,25.1810,Lithuania,LT,LTU,"Vilniaus Miestas","Vilniaus Miestas",LT-57,"city municipality",,1183.2,11149,11149,3,Europe/Vilnius,FALSE,1440349529
Kuršėnai,Kursenai,Kurshchenay|Kuržėnų|Kurszany|Kurshenay,55.9833,22.9167,Lithuania,LT,LTU,Šiauliai,Siauliai,LT-44,"district municipality",,8.9,10651,10651,3,Europe/Vilnius,FALSE,1440741018
Jurbarkas,Jurbarkas,Yurburg|Georgenburg|Jurbork|Jurbarko|Yurbarkas,55.0833,22.7667,Lithuania,LT,LTU,Jurbarkas,Jurbarkas,LT-12,"district municipality",admin,16.5,10571,10571,2,Europe/Vilnius,FALSE,1440845969
Likiškiai,Likiskiai,"Likiškis|Likishki Vel’ke|Likishkis",54.4000,23.9810,Lithuania,LT,LTU,Alytus,Alytus,LT-03,"district municipality",,17.7,10489,10489,3,Europe/Vilnius,FALSE,1440824158
Biržai,Birzai,"Myasto Birzhay|Biržų|Birzhay|Birsen|Birże|Birzhi|Birsche",56.2000,24.7500,Lithuania,LT,LTU,Biržai,Birzai,LT-06,"district municipality",admin,15.7,10444,10444,2,Europe/Vilnius,FALSE,1440132489
Vilkaviškis,Vilkaviskis,Vilkaviškio|Vilkavishkis|Wiłkowyszki|Wyłkowyszki,54.6500,23.0333,Lithuania,LT,LTU,Vilkaviškis,Vilkaviskis,LT-56,"district municipality",admin,29.1,10291,10291,2,Europe/Vilnius,FALSE,1440557692
Garliava,Garliava,Godlezo|Godlewo|Garliavos|Gorleva|Garlyava,54.8167,23.8667,Lithuania,LT,LTU,Kaunas,Kaunas,LT-16,"district municipality",,61.6,10110,10110,3,Europe/Vilnius,FALSE,1440296799
Grigiškės,Grigiskes,Grigor’yevo,54.6694,25.0917,Lithuania,LT,LTU,"Vilniaus Miestas","Vilniaus Miestas",LT-57,"city municipality",,44.9,9750,9750,3,Europe/Vilnius,FALSE,1440322258
Raseiniai,Raseiniai,Rosienie|Raseynyay|Rossienie|Reseiniai|Raseinių|Rossieny|Rossiyeny,55.3667,23.1167,Lithuania,LT,LTU,Raseiniai,Raseiniai,LT-38,"district municipality",admin,21.2,9686,9686,2,Europe/Vilnius,FALSE,1440481520
Lentvaris,Lentvaris,Landwarów|Landvaruv|Lyandvarovo|Lyandvaruv|Lentvaravas|Liudvtvaras|Liutavariškės,54.6500,25.0667,Lithuania,LT,LTU,Trakai,Trakai,LT-52,"district municipality",,44.9,9680,9680,3,Europe/Vilnius,FALSE,1440638790
Prienai,Prienai,Prenay|Prienų|Priyenay|Preny,54.6333,23.9417,Lithuania,LT,LTU,Prienai,Prienai,LT-36,"district municipality",admin,24.8,8894,8894,2,Europe/Vilnius,FALSE,1440412268
Anykščiai,Anyksciai,Anikshchyay|Anikshchay|Onikszty|Onikschty|Anykshchay|Anykščių|Onikshty|Onukszty,55.5333,25.1000,Lithuania,LT,LTU,Anykščiai,Anyksciai,LT-04,"district municipality",admin,13.6,8638,8638,2,Europe/Vilnius,FALSE,1440174702
Joniškis,Joniskis,Jonischki|Ionishkis|Yanishki|Joniškio|Janiszki|Yonishkis,56.2333,23.6000,Lithuania,LT,LTU,Joniškis,Joniskis,LT-11,"district municipality",admin,19.1,8466,8466,2,Europe/Vilnius,FALSE,1440592411
Kaišiadorys,Kaisiadorys,Koshedary|Kaišedorys|Kayshadoris|Kashedary|Kaišiadorio|Kayshadorys|Kayshyadoris|Koszedary|Kasheydarys,54.8667,24.4500,Lithuania,LT,LTU,Kaišiadorys,Kaisiadorys,LT-13,"district municipality",admin,26.8,8334,8334,2,Europe/Vilnius,FALSE,1440257941
"Naujoji Akmenė","Naujoji Akmene",Nauyëyi-Akmyane|Karpėnai|Naujogi-Akmenė,56.3167,22.9000,Lithuania,LT,LTU,Akmenė,Akmene,LT-01,"district municipality",admin,23.3,8170,8170,2,Europe/Vilnius,FALSE,1440899932
Varėna,Varena,Orany,54.2111,24.5722,Lithuania,LT,LTU,Varėna,Varena,LT-55,"district municipality",admin,9.4,8042,8042,2,Europe/Vilnius,FALSE,1440933251
Kelmė,Kelme,Kielmy|Kelmės,55.6333,22.9333,Lithuania,LT,LTU,Kelmė,Kelme,LT-19,"district municipality",admin,16.0,7512,7512,2,Europe/Vilnius,FALSE,1440476751
Šalčininkai,Salcininkai,"Velke Solečniki|Vel’ke Solechniki|Velikiye Solechniki|Bol’shiye Solechniki|Shal’chininkay|Soleczniki Wielkie",54.3167,25.3833,Lithuania,LT,LTU,Šalčininkai,Salcininkai,LT-42,"district municipality",admin,20.3,6841,6841,2,Europe/Vilnius,FALSE,1440401402
Pasvalys,Pasvalys,Poswol|Posvol|Pasvalio|Pasvalis,56.0594,24.4036,Lithuania,LT,LTU,Pasvalys,Pasvalys,LT-34,"district municipality",admin,18.4,6411,6411,2,Europe/Vilnius,FALSE,1440957197
Kupiškis,Kupiskis,"Kupiškio|Kupiszki|Kupishkis|Kupishki|Myasto Kupishkis",55.8333,24.9667,Lithuania,LT,LTU,Kupiškis,Kupiskis,LT-23,"district municipality",admin,16.0,6178,6178,2,Europe/Vilnius,FALSE,1440122297
Zarasai,Zarasai,"Novoaleksandrovsk|Ežerėnai|Zarasay|Jeziorosy|Novo Alexandrovsk|Novo Aleksandrovsko|Jeziorossy|Zarasų",55.7333,26.2500,Lithuania,LT,LTU,Zarasai,Zarasai,LT-60,"district municipality",admin,13.4,5942,5942,2,Europe/Vilnius,FALSE,1440450872
Trakai,Trakai,"Troki Nowe|Novyye Troki|Troki Nove|Troki|Trakay",54.6333,24.9333,Lithuania,LT,LTU,Trakai,Trakai,LT-52,"district municipality",admin,44.9,5912,5912,2,Europe/Vilnius,FALSE,1440324561
Širvintos,Sirvintos,Shirvintos|Širvintai|Shirvintay|Širvintų|Širvintar|Szyrwinty,55.0361,24.9694,Lithuania,LT,LTU,Širvintos,Sirvintos,LT-47,"district municipality",admin,17.9,5802,5802,2,Europe/Vilnius,FALSE,1440054141
Molėtai,Moletai,Malyaty|Maletay|Malėtai|Malaty|Moletay|Malėtų,55.2333,25.4167,Lithuania,LT,LTU,Molėtai,Moletai,LT-27,"district municipality",admin,13.2,5783,5783,2,Europe/Vilnius,FALSE,1440110307
"Kazlų Rūda","Kazlu Ruda","Kozlova-Ruda|Kazlų Rūdos|Kazlai|Kozłowa Ruda",54.7500,23.5000,Lithuania,LT,LTU,"Kazlų Rūdos","Kazlu Rudos",LT-17,municipality,admin,22.7,5507,5507,2,Europe/Vilnius,FALSE,1440371651
Šakiai,Sakiai,Szaki|Shakyay|Schaki|Shaki|Šakių,54.9500,23.0500,Lithuania,LT,LTU,Šakiai,Sakiai,LT-41,"district municipality",admin,20.0,5440,5440,2,Europe/Vilnius,FALSE,1440362808
Skuodas,Skuodas,Skuodo|Skudoas|Szkudy|Schoden,56.2667,21.5333,Lithuania,LT,LTU,Skuodas,Skuodas,LT-48,"district municipality",admin,17.9,5346,5346,2,Europe/Vilnius,FALSE,1440264405
Domeikava,Domeikava,,54.9667,23.9194,Lithuania,LT,LTU,Kaunas,Kaunas,LT-16,"district municipality",,61.6,5006,5006,3,Europe/Vilnius,FALSE,1440700906
Ignalina,Ignalina,Ignalinė|Ignalino,55.3500,26.1667,Lithuania,LT,LTU,Ignalina,Ignalina,LT-09,"district municipality",admin,11.1,4998,4998,2,Europe/Vilnius,FALSE,1440789779
Pabradė,Pabrade,"Maloye Podbrodze",54.9831,25.7664,Lithuania,LT,LTU,Švenčionys,Svencionys,LT-49,"district municipality",,14.2,4735,4735,3,Europe/Vilnius,FALSE,1440681485
Šilalė,Silale,Szyiele|Szylele|Šilalės|Shilale,55.4833,22.1833,Lithuania,LT,LTU,Šilalė,Silale,LT-45,"district municipality",admin,20.0,4699,4699,2,Europe/Vilnius,FALSE,1440106904
Švenčionėliai,Svencioneliai,"Nowo-Swięciany|Nowe Święciany|Novyye Svenchany|Novo-Sventsyany|Nove S’ventsyany|Shvenchënelyay|Novyye S’ventsyany",55.1667,26.0000,Lithuania,LT,LTU,Švenčionys,Svencionys,LT-49,"district municipality",,14.2,4613,4613,3,Europe/Vilnius,FALSE,1440431932
Nemenčinė,Nemencine,Niemenczyn|Nemenchyn|Nemenchine|Nemenchin,54.8500,25.4833,Lithuania,LT,LTU,Vilnius,Vilnius,LT-58,"district municipality",,49.0,4582,4582,3,Europe/Vilnius,FALSE,1440114185
Pakruojis,Pakruojis,Pakruoyus|Pakruojus|Pakruois|Pakruojo,55.9667,23.8667,Lithuania,LT,LTU,Pakruojis,Pakruojis,LT-30,"district municipality",admin,15.0,4490,4490,2,Europe/Vilnius,FALSE,1440570493
Švenčionys,Svencionys,Shvenchënis|Shvenchionis|Swięciany|Sventsyany,55.1333,26.1556,Lithuania,LT,LTU,Švenčionys,Svencionys,LT-49,"district municipality",admin,14.2,4480,4480,2,Europe/Vilnius,FALSE,1440170338
Vievis,Vievis,Vievio|Vevis|Yev’ye|Viyevis|Anastasevskaya|Jewie|V’yevis,54.7750,24.8083,Lithuania,LT,LTU,Elektrénai,Elektrenai,LT-08,municipality,,70.0,4214,4214,3,Europe/Vilnius,FALSE,1440439194
Raudondvaris,Raudondvaris,"Krasnyy Dvor|Czerwony Dwór|Raudondvario|Myza Krasnyy Dvor",54.9431,23.7833,Lithuania,LT,LTU,Kaunas,Kaunas,LT-16,"district municipality",,61.6,4142,4142,3,Europe/Vilnius,FALSE,1440295091
Skaidiškės,Skaidiskes,,54.6081,25.3861,Lithuania,LT,LTU,Vilnius,Vilnius,LT-58,"district municipality",,49.0,4133,4133,3,Europe/Vilnius,FALSE,1440000020
Kalvarija,Kalvarija,Kalwarja|Kalvarijos|Kalvariya,54.4167,23.2167,Lithuania,LT,LTU,Kalvarija,Kalvarija,LT-14,municipality,admin,24.6,4025,4025,2,Europe/Vilnius,FALSE,1440799248
Pervalka,Pervalka,Pervelka|Neringa|Perwelk,55.4139,21.0944,Lithuania,LT,LTU,Neringa,Neringa,LT-28,municipality,,42.6,4022,4022,3,Europe/Vilnius,FALSE,1440004190
Kybartai,Kybartai,Kibarty|Kybartų|Kibartay,54.6222,22.7667,Lithuania,LT,LTU,Vilkaviškis,Vilkaviskis,LT-56,"district municipality",,29.1,4015,4015,3,Europe/Vilnius,FALSE,1440778413
Rudamina,Rudamina,Rudomino,54.5969,25.3500,Lithuania,LT,LTU,Vilnius,Vilnius,LT-58,"district municipality",,49.0,3981,3981,3,Europe/Vilnius,FALSE,1440762170
Lazdijai,Lazdijai,Lazdyyay|Lazdiyay|Loz’dzeye|Lożdzieje,54.2333,23.5167,Lithuania,LT,LTU,Lazdijai,Lazdijai,LT-24,"district municipality",admin,14.7,3895,3895,2,Europe/Vilnius,FALSE,1440584882
Pagiriai,Pagiriai,,54.5831,25.1919,Lithuania,LT,LTU,Vilnius,Vilnius,LT-58,"district municipality",,811.9,3451,3451,3,Europe/Vilnius,FALSE,1440490056
Rietavas,Rietavas,Retowo|Rietavo|Retavas,55.7167,21.9333,Lithuania,LT,LTU,Rietavas,Rietavas,LT-39,municipality,admin,13.0,3253,3253,2,Europe/Vilnius,FALSE,1440780088
Birštonas,Birstonas,Birštonas-Kurortas|Birshtonas|Birsztany|Birštono,54.6028,24.0206,Lithuania,LT,LTU,Birštonas,Birstonas,LT-05,municipality,admin,33.4,3094,3094,2,Europe/Vilnius,FALSE,1440134144
Žiežmariai,Ziezmariai,Žižmariai|Žiežmarių|Zhiyezhmaryai|Zhezhmaryay|Žeižmariai|Zhizhmory|Żyżmory,54.8000,24.4500,Lithuania,LT,LTU,Kaišiadorys,Kaisiadorys,LT-13,"district municipality",,26.8,3034,3034,3,Europe/Vilnius,FALSE,1440200655
Akademija,Akademija,,54.8944,23.8361,Lithuania,LT,LTU,Kaunas,Kaunas,LT-16,"district municipality",,1502.9,2928,2928,3,Europe/Vilnius,FALSE,1440979239
Eišiškės,Eisiskes,"Yeyshyshki|Eyshishki|Ejszyszki|Eiszyski|Aišiškės|Malyy Eyshishki|Eyshishkes",54.1667,25.0000,Lithuania,LT,LTU,Šalčininkai,Salcininkai,LT-42,"district municipality",,20.3,2908,2908,4,Europe/Vilnius,FALSE,1440704674
Ringaudai,Ringaudai,,54.8861,23.8031,Lithuania,LT,LTU,Kaunas,Kaunas,LT-16,"district municipality",,61.6,2861,2861,4,Europe/Vilnius,FALSE,1440852782
Šventoji,Sventoji,Shventoy|Shventoyi|Šventoje|Svent|Sventa|Schibbe,56.0253,21.0817,Lithuania,LT,LTU,"Palangos Miestas","Palangos Miestas",LT-31,"city municipality",,157.7,2631,2631,3,Europe/Vilnius,FALSE,1440944917
Ariogala,Ariogala,Ariogalos|Ejragoła|Arëgala|Eiragola,55.2667,23.4667,Lithuania,LT,LTU,Raseiniai,Raseiniai,LT-38,"district municipality",,21.2,2619,2619,3,Europe/Vilnius,FALSE,1440012779
"Didžioji Reišė","Didzioji Reise",,54.8031,25.2639,Lithuania,LT,LTU,,,,,,49.0,2520,2520,3,Europe/Vilnius,FALSE,1440560475
Nemėžis,Nemezis,"Nemiežius|Nemėža|Nemiežis|Nemėžė|Nemezhis|Okolitsa Nemezh|Nemież",54.6361,25.3611,Lithuania,LT,LTU,Vilnius,Vilnius,LT-58,"district municipality",,294.3,2498,2498,3,Europe/Vilnius,FALSE,1440885397
Dembava,Dembava,,55.7310,24.4060,Lithuania,LT,LTU,Panevėžys,Panevezys,LT-33,"district municipality",,16.9,2397,2397,4,Europe/Vilnius,TRUE,1440578617
Nida,Nida,Nidden|Neringa,55.3033,21.0056,Lithuania,LT,LTU,Neringa,Neringa,LT-28,municipality,admin,28.1,2385,2385,2,Europe/Vilnius,FALSE,1440271703
Pilviškiai,Pilviskiai,Pilviškių|Pilviškai|Pil’vishkyay|Pil’vishki|Pilwiszki,54.7222,23.2222,Lithuania,LT,LTU,Vilkaviškis,Vilkaviskis,LT-56,"district municipality",,29.1,2305,2305,3,Europe/Vilnius,FALSE,1440415660
Akmenė,Akmene,Okmiany|Akmyane|Akmenės,56.3167,22.9000,Lithuania,LT,LTU,Akmenė,Akmene,LT-01,"district municipality",,23.3,2285,2285,3,Europe/Vilnius,FALSE,1440240618
Viekšniai,Vieksniai,V’yekshnyay|Vekshnyay|Vekshnya|Viyekshnyay|Wieksznie|Viekšnių,56.2333,22.5167,Lithuania,LT,LTU,Mažeikiai,Mazeikiai,LT-26,"district municipality",,40.2,2180,2180,3,Europe/Vilnius,FALSE,1440695195
Venta,Venta,,56.2000,22.7000,Lithuania,LT,LTU,Akmenė,Akmene,LT-01,"district municipality",,23.3,2155,2155,3,Europe/Vilnius,FALSE,1440798869
Avižieniai,Avizieniai,,54.7639,25.1831,Lithuania,LT,LTU,Vilnius,Vilnius,LT-58,"district municipality",,49.0,2125,2125,3,Europe/Vilnius,FALSE,1440810147
Rukla,Rukla,"Dvaras Rukla",55.0528,24.3778,Lithuania,LT,LTU,Jonava,Jonava,LT-10,"district municipality",,44.9,2098,2098,3,Europe/Vilnius,FALSE,1440502236
Valčiūnai,Valciunai,,54.5611,25.2639,Lithuania,LT,LTU,Vilnius,Vilnius,LT-58,"district municipality",,49.0,2089,2089,3,Europe/Vilnius,FALSE,1440078834
Baisogala,Baisogala,Bejsagoxa|Beisagola|Baisogalos|Baysogala|Beysagola,55.6389,23.7222,Lithuania,LT,LTU,Radviliškis,Radviliskis,LT-37,"district municipality",,22.1,2034,2034,3,Europe/Vilnius,FALSE,1440571174
Taurai,Taurai,Taurogen,55.2390,22.2500,Lithuania,LT,LTU,Tauragė,Taurage,LT-50,"district municipality",,31.6,1891,1891,4,Europe/Vilnius,FALSE,1440446355
Tytuvėnai,Tytuvenai,Zytovyany|Tytowiany|Tytavėnai|Cytowiany|Tytevėnai|Tsitovyany|Tytavėnų|Tituvenay,55.6000,23.2000,Lithuania,LT,LTU,Kelmė,Kelme,LT-19,"district municipality",,16.0,1774,1774,3,Europe/Vilnius,FALSE,1440513059
Viečiūnai,Vieciunai,Viecūnai,54.0611,24.0567,Lithuania,LT,LTU,Druskininkai,Druskininkai,LT-07,municipality,,40.1,1708,1708,3,Europe/Vilnius,FALSE,1440322109
Teleičiai,Teleiciai,,54.8440,23.8830,Lithuania,LT,LTU,Kaunas,Kaunas,LT-16,"district municipality",,1785.6,1700,1700,3,Europe/Vilnius,FALSE,1440266068
Viduklė,Vidukle,Vidukli|Viduklės|Widukle,55.4028,22.8972,Lithuania,LT,LTU,Raseiniai,Raseiniai,LT-38,"district municipality",,21.2,1678,1678,3,Europe/Vilnius,FALSE,1440109345
Rumšiškės,Rumsiskes,Rumszyszki|Rumshishkes|Rumškės|Rumshishki,54.8639,24.2167,Lithuania,LT,LTU,Kaišiadorys,Kaisiadorys,LT-13,"district municipality",,26.8,1651,1651,4,Europe/Vilnius,FALSE,1440688197
Švėkšna,Sveksna,Shvekshna|Švekšnos|Szweksznie,55.5167,21.6278,Lithuania,LT,LTU,Šilutė,Silute,LT-46,"district municipality",,32.9,1649,1649,3,Europe/Vilnius,FALSE,1440702085
Krekenava,Krekenava,Krakinów|Krakinovo|Krakindvo|Krakinov|Krekena|Krekenavos,55.5500,24.1000,Lithuania,LT,LTU,Panevėžys,Panevezys,LT-33,"district municipality",,16.9,1636,1636,3,Europe/Vilnius,FALSE,1440744862
Kvėdarna,Kvedarna,Konstantinovo|Chwejdany|Kvėdaina,55.5556,22.0000,Lithuania,LT,LTU,Šilalė,Silale,LT-45,"district municipality",,20.0,1597,1597,4,Europe/Vilnius,FALSE,1440383672
"Karmėlava II","Karmelava II",,54.9750,24.0750,Lithuania,LT,LTU,Kaunas,Kaunas,LT-16,"district municipality",,61.6,1585,1585,4,Europe/Vilnius,FALSE,1440307512
Ežerėlis,Ezerelis,Ezherelis,54.8833,23.6167,Lithuania,LT,LTU,Kaunas,Kaunas,LT-16,"district municipality",,22.7,1583,1583,3,Europe/Vilnius,FALSE,1440067442
Ramučiai,Ramuciai,,54.9472,24.0306,Lithuania,LT,LTU,Kaunas,Kaunas,LT-16,"district municipality",,61.6,1583,1583,3,Europe/Vilnius,FALSE,1440068661
Babtai,Babtai,Bobti|Babtay|Babtų|Babty|Bobty,55.0917,23.7944,Lithuania,LT,LTU,Kaunas,Kaunas,LT-16,"district municipality",,61.6,1563,1563,3,Europe/Vilnius,FALSE,1440903651
Maišiagala,Maisiagala,"Mejszagoła|Malaya Meyshagola|Maišiogals|Maišiogala|Mayshëgala|Meyshagola",54.8722,25.0667,Lithuania,LT,LTU,Vilnius,Vilnius,LT-58,"district municipality",,49.0,1562,1562,4,Europe/Vilnius,FALSE,1440679381
Juodupė,Juodupe,Yuodupe,56.0889,25.6111,Lithuania,LT,LTU,Rokiškis,Rokiskis,LT-40,"district municipality",,16.6,1549,1549,4,Europe/Vilnius,FALSE,1440169315
Josvainiai,Josvainiai,Yasvoyni|Iosvaynyay|Yosvaynyay,55.2472,23.8333,Lithuania,LT,LTU,Kėdainiai,Kedainiai,LT-18,"district municipality",,27.3,1545,1545,3,Europe/Vilnius,FALSE,1440000002
Gelgaudiškis,Gelgaudiskis,Gelgaudishkis|Gielgudyszki|Gelgudyshki|Gelgaudiškio,55.0833,22.9833,Lithuania,LT,LTU,Šakiai,Sakiai,LT-41,"district municipality",,20.0,1522,1522,3,Europe/Vilnius,FALSE,1440902842
Tirkšliai,Tirksliai,Tyrkszle|Tirkshlyay|Tirkšlių,56.2639,22.3061,Lithuania,LT,LTU,Mažeikiai,Mazeikiai,LT-26,"district municipality",,40.2,1507,1507,4,Europe/Vilnius,FALSE,1440023981
Darbėnai,Darbenai,Darbėnų|Dorbiany|Dorbyany|Darbenay,56.0222,21.2583,Lithuania,LT,LTU,Kretinga,Kretinga,LT-22,"district municipality",,38.5,1461,1461,4,Europe/Vilnius,FALSE,1440743072
Mickūnai,Mickunai,Mitskuny|Mikūnai|Mickuny|Mitskunay,54.7028,25.5111,Lithuania,LT,LTU,Vilnius,Vilnius,LT-58,"district municipality",,49.0,1420,1420,4,Europe/Vilnius,FALSE,1440471151
"Žemaičių Naumiestis","Zemaiciu Naumiestis","Naumiesčio|Zhemaychyu-Naumiyestis|Nowe Miasto|Zhemaychyu-Naumestis|Naumiestis Taurag",55.3583,21.7000,Lithuania,LT,LTU,Šilutė,Silute,LT-46,"district municipality",,32.9,1373,1373,4,Europe/Vilnius,FALSE,1440465473
Skaudvilė,Skaudvile,Skaudvilės|Skoudvile,55.4075,22.5825,Lithuania,LT,LTU,Tauragė,Taurage,LT-50,"district municipality",,31.6,1370,1370,3,Europe/Vilnius,FALSE,1440919752
Kulautuva,Kulautuva,"Dachi Kolotovo|Dachios Kolotovo",54.9389,23.6500,Lithuania,LT,LTU,Kaunas,Kaunas,LT-16,"district municipality",,61.6,1364,1364,3,Europe/Vilnius,FALSE,1440895124
Kužiai,Kuziai,Kiziny|Kuzhyay|Kužių,55.9972,23.1444,Lithuania,LT,LTU,Šiauliai,Siauliai,LT-44,"district municipality",,50.3,1332,1332,3,Europe/Vilnius,FALSE,1440554094
Vilainiai,Vilainiai,,55.3000,24.0031,Lithuania,LT,LTU,Kėdainiai,Kedainiai,LT-18,"district municipality",,27.3,1330,1330,3,Europe/Vilnius,FALSE,1440380414
"Kudirkos Naumiestis","Kudirkos Naumiestis","Naum’yestis|Naumiyestis|Naumiesčio|Kudirkos-Naumestis|Wladislawow|Naumiestis|Naumestis|Władysławow|Naumiestis Šakiu",54.7667,22.8667,Lithuania,LT,LTU,Šakiai,Sakiai,LT-41,"district municipality",,29.1,1329,1329,3,Europe/Vilnius,FALSE,1440831524
Padvariai,Padvariai,Padvarey,55.9081,21.2831,Lithuania,LT,LTU,Kretinga,Kretinga,LT-22,"district municipality",,38.5,1308,1308,3,Europe/Vilnius,FALSE,1440286807
Didžiasalis,Didziasalis,"Didzhyasalis|Vel’ka Ves’",55.3194,26.6806,Lithuania,LT,LTU,Ignalina,Ignalina,LT-09,"district municipality",,11.1,1299,1299,3,Europe/Vilnius,TRUE,1440384808
Priekulė,Priekule,Prekule|Prökuls|Priyekule,55.5556,21.3194,Lithuania,LT,LTU,Klaipėda,Klaipeda,LT-21,"district municipality",,46.6,1251,1251,3,Europe/Vilnius,FALSE,1440902999
Salantai,Salantai,Salanty|Salantų|Salantay|Skilándžiai,56.0667,21.5667,Lithuania,LT,LTU,Kretinga,Kretinga,LT-22,"district municipality",,38.5,1251,1251,3,Europe/Vilnius,FALSE,1440000000
Žagarė,Zagare,Zhagare|Žagarės|Zagory,56.3667,23.2500,Lithuania,LT,LTU,Joniškis,Joniskis,LT-11,"district municipality",,19.1,1247,1247,3,Europe/Vilnius,FALSE,1440294656
Riešė,Riese,Zhesha|Rzesza|Riyeshe|Resha,54.8081,25.2389,Lithuania,LT,LTU,Vilnius,Vilnius,LT-58,"district municipality",,49.0,1234,1234,3,Europe/Vilnius,FALSE,1440344000
Galgiai,Galgiai,Gal’vyay|Galgi|Galviai,54.7189,25.4169,Lithuania,LT,LTU,Vilnius,Vilnius,LT-58,"district municipality",,1183.2,1230,1230,3,Europe/Vilnius,FALSE,1440327565
"Senieji Trakai","Senieji Trakai","Seneyi Trakay|Staryye Troki|Troki Stare",54.6167,24.9667,Lithuania,LT,LTU,Trakai,Trakai,LT-52,"district municipality",,44.9,1219,1219,3,Europe/Vilnius,FALSE,1440387004
Lapės,Lapes,"Łopie|Lopi|Mažieji Lapiai|Lapių",54.9778,24.0111,Lithuania,LT,LTU,Kaunas,Kaunas,LT-16,"district municipality",,61.6,1218,1218,4,Europe/Vilnius,FALSE,1440887257
Linkuva,Linkuva,Linkuvos,56.0833,23.9667,Lithuania,LT,LTU,Pakruojis,Pakruojis,LT-30,"district municipality",,15.0,1217,1217,3,Europe/Vilnius,FALSE,1440092266
Matuizos,Matuizos,Matuza|Matuyzay|Matuizai|Matuzy|Matujzy|Matuyzos,54.2833,24.6833,Lithuania,LT,LTU,Varėna,Varena,LT-55,"district municipality",,9.4,1201,1201,3,Europe/Vilnius,FALSE,1440536397
Ramygala,Ramygala,Remygala|Remigoła|Ramigala|Ramygalos,55.5111,24.3028,Lithuania,LT,LTU,Panevėžys,Panevezys,LT-33,"district municipality",,16.9,1198,1198,3,Europe/Vilnius,FALSE,1440591249
Balbieriškis,Balbieriskis,Balwierzyszki|Bal’verzhishki|Balbieriškio|Barbiēriškis|Bal’biyerishkis|Bal’berishkis,54.5139,23.8917,Lithuania,LT,LTU,Prienai,Prienai,LT-36,"district municipality",,31.5,1196,1196,4,Europe/Vilnius,FALSE,1440448415
Simnas,Simnas,"Posëlok Simno|Simno",54.4000,23.6500,Lithuania,LT,LTU,Alytus,Alytus,LT-03,"district municipality",,17.7,1192,1192,3,Europe/Vilnius,FALSE,1440472234
Ylakiai,Ylakiai,"Myasto Ilakyay|Ylakina|Iłłoki|Ilakiai|Ilakyay",56.2806,21.8500,Lithuania,LT,LTU,Skuodas,Skuodas,LT-48,"district municipality",,17.9,1165,1165,3,Europe/Vilnius,FALSE,1440949186
Piniava,Piniava,Pinyava|Piniavos,55.7810,24.3610,Lithuania,LT,LTU,Panevėžys,Panevezys,LT-33,"district municipality",,16.9,1158,1158,4,Europe/Vilnius,FALSE,1440191515
Kairiai,Kairiai,Kayryay|Kairių|Kairinn,55.9167,23.4389,Lithuania,LT,LTU,Šiauliai,Siauliai,LT-44,"district municipality",,50.3,1158,1158,3,Europe/Vilnius,FALSE,1440443327
Laukuva,Laukuva,Ławkswo|Laukuvos,55.6194,22.2333,Lithuania,LT,LTU,Šilalė,Silale,LT-45,"district municipality",,20.0,1140,1140,3,Europe/Vilnius,FALSE,1440633239
Rusnė,Rusne,Rus|Russ,55.2972,21.3778,Lithuania,LT,LTU,Šilutė,Silute,LT-46,"district municipality",,32.9,1131,1131,4,Europe/Vilnius,FALSE,1440095247
Veiveriai,Veiveriai,Veyvery|Veiverių|Vievery|Veyveryay,54.7639,23.7250,Lithuania,LT,LTU,Prienai,Prienai,LT-36,"district municipality",,24.8,1100,1100,3,Europe/Vilnius,FALSE,1440160028
Dovilai,Dovilai,Davilay|Dawillen,55.6778,21.3556,Lithuania,LT,LTU,Klaipėda,Klaipeda,LT-21,"district municipality",,46.6,1100,1100,3,Europe/Vilnius,FALSE,1440595741
Užtiltė,Uztilte,Užtilte,55.7390,25.8280,Lithuania,LT,LTU,Zarasai,Zarasai,LT-60,"district municipality",,13.4,1100,1100,4,Europe/Vilnius,FALSE,1440938336
Vidiškės,Vidiskes,Pshiyaz’n’|Vidiškiai|Przyjaźń|Vidishkyay|Vidiškis,55.3750,26.2111,Lithuania,LT,LTU,Ignalina,Ignalina,LT-09,"district municipality",,11.1,1084,1084,3,Europe/Vilnius,FALSE,1440051334
Gineitiškės,Gineitiskes,,54.7389,25.2000,Lithuania,LT,LTU,Vilnius,Vilnius,LT-58,"district municipality",,49.0,1082,1082,3,Europe/Vilnius,FALSE,1440371150
Tryškiai,Tryskiai,Tryszki|Tryškių|Trishkyay|Trishki,56.0530,22.5810,Lithuania,LT,LTU,Telšiai,Telsiai,LT-51,"district municipality",,27.4,1060,1060,4,Europe/Vilnius,FALSE,1440356215
Meškuičiai,Meskuiciai,Meshkutse|Meshchkuychay|Meshkuychyay|Meshchkuichay|Meškuičių|Meškučiai,56.0694,23.4750,Lithuania,LT,LTU,Šiauliai,Siauliai,LT-44,"district municipality",,50.3,1056,1056,4,Europe/Vilnius,FALSE,1440327812
Liudvinavas,Liudvinavas,Lyudvinav|Ludwinów|Ludvinavas|Liudvinavo|Lyudvinov|Lyudvinavas,54.4833,23.3528,Lithuania,LT,LTU,Marijampolė,Marijampole,LT-25,"district municipality",,73.3,1055,1055,3,Europe/Vilnius,FALSE,1440681367
Veisiejai,Veisiejai,Viesee|Veyseye|Veisėjai|Wiejsieje|Veisėjų|Veysyay|Veyseyay,54.1000,23.7000,Lithuania,LT,LTU,Lazdijai,Lazdijai,LT-24,"district municipality",,14.7,1054,1054,3,Europe/Vilnius,FALSE,1440018848
Kretingalė,Kretingale,Kretingėlė|Kretinga|Crottingen,55.8361,21.1861,Lithuania,LT,LTU,Klaipėda,Klaipeda,LT-21,"district municipality",,46.6,1047,1047,4,Europe/Vilnius,FALSE,1440635902
Miklusėnai,Miklusenai,Miklusėnų|Miklusyany,54.4417,23.9972,Lithuania,LT,LTU,Alytus,Alytus,LT-03,"district municipality",,17.7,1044,1044,3,Europe/Vilnius,FALSE,1440102965
Mokolai,Mokolai,Mokolų|Mokaly|Mokolay,54.5720,23.3390,Lithuania,LT,LTU,Marijampolė,Marijampole,LT-25,"district municipality",,73.3,1031,1031,4,Europe/Vilnius,FALSE,1440494718
Jieznas,Jieznas,Jezno|Jeznas|Iyeznas|Yeznas,54.6000,24.1667,Lithuania,LT,LTU,Prienai,Prienai,LT-36,"district municipality",,24.8,1024,1024,4,Europe/Vilnius,FALSE,1440084047
Plateliai,Plateliai,Platelyai|Platelių|Plotele|Platelyay,56.0500,21.8167,Lithuania,LT,LTU,Plungė,Plunge,LT-35,"district municipality",,35.6,1021,1021,3,Europe/Vilnius,FALSE,1440241539
Papilė,Papile,Papilės|Popelyany|Popielany,56.1528,22.7842,Lithuania,LT,LTU,Akmenė,Akmene,LT-01,"district municipality",,23.3,1007,1007,4,Europe/Vilnius,FALSE,1440308796
Drąsučiai,Drasuciai,Paringuvis,56.0330,22.9810,Lithuania,LT,LTU,Šiauliai,Siauliai,LT-44,"district municipality",,50.3,1004,1004,4,Europe/Vilnius,FALSE,1440752698
Guostagalis,Guostagalis,Gustagalis|Guostagalių|Guostagalio,56.1220,24.0670,Lithuania,LT,LTU,Pakruojis,Pakruojis,LT-30,"district municipality",,15.0,1000,1000,4,Europe/Vilnius,FALSE,1440466827
Girkalnis,Girkalnis,Girkalnio|Girtokoł|Girtakol’,55.3111,23.2028,Lithuania,LT,LTU,Raseiniai,Raseiniai,LT-38,"district municipality",,21.2,997,997,3,Europe/Vilnius,FALSE,1440513926
Vainutas,Vainutas,Wojnuta|Vaynutas|Vainuto|Voinuty,55.3639,21.8667,Lithuania,LT,LTU,Šilutė,Silute,LT-46,"district municipality",,32.9,993,993,3,Europe/Vilnius,FALSE,1440634376
"Baltoji Vokė","Baltoji Voke",,54.4500,25.1333,Lithuania,LT,LTU,Šalčininkai,Salcininkai,LT-42,"district municipality",,20.3,991,991,3,Europe/Vilnius,FALSE,1440265755
Klovainiai,Klovainiai,Klovaynyay|Klovany|Kławany|Klovainių,55.9333,23.9500,Lithuania,LT,LTU,Pakruojis,Pakruojis,LT-30,"district municipality",,15.0,980,980,3,Europe/Vilnius,FALSE,1440977114
Igliauka,Igliauka,Igłówka|Igliaukos|Igliakos|Iglyuvka|Iglyauka|Ilglauka,54.5719,23.6531,Lithuania,LT,LTU,Marijampolė,Marijampole,LT-25,"district municipality",,73.3,979,979,3,Europe/Vilnius,FALSE,1440622875
Aukstadvaris,Aukstadvaris,"Visoki Dvor|Wysaki Dwor|Aukštdvaris|Aukštadvaris|Aukshtadvaris|Aukšdvaris|Aukstadvario|Aukštdvarys|Wysoki Dwór",54.5810,24.5280,Lithuania,LT,LTU,Trakai,Trakai,LT-52,"district municipality",,44.9,977,977,4,Europe/Vilnius,FALSE,1440232521
Joniškėlis,Joniskelis,Joniškiai|Ioganishkely|Ionishkelis|Johaniszkiele|Yonishkelis|Joniškelio,56.0250,24.1694,Lithuania,LT,LTU,Pasvalys,Pasvalys,LT-34,"district municipality",,18.4,977,977,3,Europe/Vilnius,FALSE,1440553800
Macikai,Macikai,Matsikay,55.3558,21.5206,Lithuania,LT,LTU,Šilutė,Silute,LT-46,"district municipality",,32.9,967,967,4,Europe/Vilnius,FALSE,1440523917
Merkinė,Merkine,Merecz|Merkinės,54.1639,24.1861,Lithuania,LT,LTU,Varėna,Varena,LT-55,"district municipality",,9.4,963,963,4,Europe/Vilnius,FALSE,1440957988
Žeimelis,Zeimelis,Žeimys|Žeimelio|Zheymelis|Zheyme,56.2667,23.9833,Lithuania,LT,LTU,Pakruojis,Pakruojis,LT-30,"district municipality",,15.0,953,953,4,Europe/Vilnius,FALSE,1440360115
Saugos,Saugos,Saugay|Saugen|Saugai,55.4633,21.4562,Lithuania,LT,LTU,Šilutė,Silute,LT-46,"district municipality",,32.9,945,945,4,Europe/Vilnius,FALSE,1440595763
Butrimonys,Butrimonys,Butrimonių|Butrimonis|Butrimantsy|Butrimantsi|Butrymańce|Butrimance,54.5028,24.2528,Lithuania,LT,LTU,Alytus,Alytus,LT-03,"district municipality",,17.7,941,941,3,Europe/Vilnius,FALSE,1440300768
Daugai,Daugai,Daugų|Daugi|Daugay|Dauge,54.3667,24.3500,Lithuania,LT,LTU,,,,,,17.7,940,940,3,Europe/Vilnius,FALSE,1440532338
Šėta,Seta,Szaty|Sheta|Shaty|Šetos,55.2806,24.2528,Lithuania,LT,LTU,Kėdainiai,Kedainiai,LT-18,"district municipality",,32.7,935,935,4,Europe/Vilnius,FALSE,1440537254
Kartena,Kartena,Korciany|Kartėnos,55.9194,21.4694,Lithuania,LT,LTU,Kretinga,Kretinga,LT-22,"district municipality",,38.5,931,931,3,Europe/Vilnius,FALSE,1440206676
Rozalimas,Rozalimas,Razalimas|Rozalinas|Rozalin,55.8917,23.8833,Lithuania,LT,LTU,Pakruojis,Pakruojis,LT-30,"district municipality",,15.0,928,928,3,Europe/Vilnius,FALSE,1440194136
Noreikiškės,Noreikiskes,,54.8860,23.8470,Lithuania,LT,LTU,Kaunas,Kaunas,LT-16,"district municipality",,1276.0,926,926,3,Europe/Vilnius,FALSE,1440794811
Bukiškis,Bukiskis,Bukiškės,54.7611,25.2081,Lithuania,LT,LTU,Vilnius,Vilnius,LT-58,"district municipality",,49.0,922,922,3,Europe/Vilnius,FALSE,1440676920
Paberžė,Paberze,Podbrzezie|Podbereze|Pabreže|Podberez’ye|Paberzhe,54.9469,25.2389,Lithuania,LT,LTU,Vilnius,Vilnius,LT-58,"district municipality",,49.0,919,919,3,Europe/Vilnius,FALSE,1440617266
Mosėdis,Mosedis,Masiady|Mosėdžio,56.1667,21.5833,Lithuania,LT,LTU,Skuodas,Skuodas,LT-48,"district municipality",,17.9,916,916,4,Europe/Vilnius,FALSE,1440248881
Alsėdžiai,Alsedziai,Alsėdžių|Al’sedzhyay|Olsiady|Alsedzhay,56.0280,22.0440,Lithuania,LT,LTU,Plungė,Plunge,LT-35,"district municipality",,35.6,896,896,4,Europe/Vilnius,FALSE,1440071124
Rastinėnai,Rastinenai,,54.7639,25.0439,Lithuania,LT,LTU,Vilnius,Vilnius,LT-58,"district municipality",,49.0,887,887,3,Europe/Vilnius,FALSE,1440042175
Svėdasai,Svedasai,Svėdasys|Svedasų|Shvedasay|Swiadoście|Svedasay,55.6667,25.3667,Lithuania,LT,LTU,Anykščiai,Anyksciai,LT-04,"district municipality",,13.6,884,884,4,Europe/Vilnius,FALSE,1440885510
Subačius,Subacius,,55.7667,24.7500,Lithuania,LT,LTU,Kupiškis,Kupiskis,LT-23,"district municipality",,16.0,877,877,3,Europe/Vilnius,FALSE,1440750273
Virbalis,Virbalis,Wirballen|Wierzbowo|Wierzbołowo,54.6333,22.8167,Lithuania,LT,LTU,Vilkaviškis,Vilkaviskis,LT-56,"district municipality",,29.1,870,870,3,Europe/Vilnius,FALSE,1440100219
Seda,Seda,Sedos|Siady,56.1667,22.0833,Lithuania,LT,LTU,Mažeikiai,Mazeikiai,LT-26,"district municipality",,40.2,869,869,3,Europe/Vilnius,FALSE,1440802900
Kalnėnai,Kalnenai,,56.3110,22.3090,Lithuania,LT,LTU,Mažeikiai,Mazeikiai,LT-26,"district municipality",,40.2,868,868,4,Europe/Vilnius,FALSE,1440295009
Skaistgirys,Skaistgirys,Skaystgiris|Skaizgiruko|Skaizgiris|Skaisgiris|Skaisgirys,56.3083,23.3833,Lithuania,LT,LTU,Joniškis,Joniskis,LT-11,"district municipality",,19.1,862,862,3,Europe/Vilnius,FALSE,1440776462
Žeimiai,Zeimiai,Zheymy|Žeimių|Žeimis|Žeimė|Jeimi|Zheymyay,55.1806,24.2222,Lithuania,LT,LTU,Jonava,Jonava,LT-10,"district municipality",,44.9,860,860,3,Europe/Vilnius,FALSE,1440593262
Griškabūdis,Griskabudis,"Gryszkabuda|Griškabūdžio|Grishka Buda|Grishkabudy|Bluwisz|Grishkabudis",54.8528,23.1667,Lithuania,LT,LTU,Šakiai,Sakiai,LT-41,"district municipality",,20.0,857,857,4,Europe/Vilnius,FALSE,1440389193
Varniai,Varniai,Medininkai|Varnyay|Wornie|Varnių,55.7333,22.3667,Lithuania,LT,LTU,Telšiai,Telsiai,LT-51,"district municipality",,27.4,854,854,3,Europe/Vilnius,FALSE,1440573512
Šveicarija,Sveicarija,,55.0472,24.2611,Lithuania,LT,LTU,Jonava,Jonava,LT-10,"district municipality",,44.9,848,848,3,Europe/Vilnius,FALSE,1440998220
Smalininkai,Smalininkai,Smolniki|Schmalleningken|Smalininkay|Shmalleningken|Smalininkų,55.0833,22.5667,Lithuania,LT,LTU,Jurbarkas,Jurbarkas,LT-12,"district municipality",,16.5,847,847,3,Europe/Vilnius,FALSE,1440228910
Užusaliai,Uzusaliai,Aleksandrovskaja|Užusalis|Užusalio|Uzhusalyay|Uzhusali|Aleksandrovskaya|Užusalių,54.9833,24.1972,Lithuania,LT,LTU,Jonava,Jonava,LT-10,"district municipality",,44.9,844,844,3,Europe/Vilnius,FALSE,1440023771
Krakės,Krakes,Krakių|Kroki|Krake,55.4083,23.7250,Lithuania,LT,LTU,Kėdainiai,Kedainiai,LT-18,"district municipality",,27.3,841,841,3,Europe/Vilnius,FALSE,1440952487
Veiviržėnai,Veivirzenai,Veviržėnų|Wewirzany|Vevirzhany|Vevirženai|Veyvirzhenay,55.6028,21.5917,Lithuania,LT,LTU,Klaipėda,Klaipeda,LT-21,"district municipality",,46.6,840,840,4,Europe/Vilnius,FALSE,1440919747
Kintai,Kintai,Kinty|Kinten|Kintay,55.4222,21.2667,Lithuania,LT,LTU,Šilutė,Silute,LT-46,"district municipality",,32.9,833,833,3,Europe/Vilnius,FALSE,1440546864
Obeliai,Obeliai,"Obyalyay|Obelyay|Obelių|Abele|Myasto Obelyay|Abeli",55.9333,25.8000,Lithuania,LT,LTU,Rokiškis,Rokiskis,LT-40,"district municipality",,16.6,814,814,3,Europe/Vilnius,FALSE,1440624024
Vabalninkas,Vabalninkas,Vabalninko|Vabalninkai|Wobolniki|Vobol’niki|Zabalninkas,55.9667,24.7500,Lithuania,LT,LTU,Biržai,Birzai,LT-06,"district municipality",,15.7,797,797,3,Europe/Vilnius,FALSE,1440893603
Puskelniai,Puskelniai,Puskel’ne|Puskelnėliai|Puskalnių,54.6060,23.4000,Lithuania,LT,LTU,Marijampolė,Marijampole,LT-25,"district municipality",,73.3,786,786,4,Europe/Vilnius,FALSE,1440591702
Pajūris,Pajuris,Poyurzhe|Poyursh|Pajūrio|Pojurze|Payuris|Budriai,55.4444,22.0278,Lithuania,LT,LTU,Šilalė,Silale,LT-45,"district municipality",,20.0,784,784,4,Europe/Vilnius,FALSE,1440357366
Neravai,Neravai,Naravai,54.0361,24.0250,Lithuania,LT,LTU,Druskininkai,Druskininkai,LT-07,municipality,,40.1,782,782,3,Europe/Vilnius,FALSE,1440447555
Lenkimai,Lenkimai,Lenkimų|Lenkimy|Lenkimay,56.1917,21.3167,Lithuania,LT,LTU,Skuodas,Skuodas,LT-48,"district municipality",,13.8,779,779,3,Europe/Vilnius,FALSE,1440463958
Ilgakiemis,Ilgakiemis,Ilgakiemio|Ilgakemis,54.7750,23.8750,Lithuania,LT,LTU,Kaunas,Kaunas,LT-16,"district municipality",,61.6,775,775,4,Europe/Vilnius,FALSE,1440767063
Pažagieniai,Pazagieniai,Pozhageni|Pažagienė,55.7000,24.3830,Lithuania,LT,LTU,Panevėžys,Panevezys,LT-33,"district municipality",,1322.4,774,774,3,Europe/Vilnius,FALSE,1440177856
Skirsnemunė,Skirsnemune,Skirstymoni|Skirstymon|Skirsnemunės,55.1000,22.9000,Lithuania,LT,LTU,Jurbarkas,Jurbarkas,LT-12,"district municipality",,16.5,772,772,3,Europe/Vilnius,FALSE,1440391725
Šumskas,Sumskas,Szumsk|Shumsk|Shumskas,54.6111,25.7222,Lithuania,LT,LTU,Vilnius,Vilnius,LT-58,"district municipality",,49.0,765,765,4,Europe/Vilnius,FALSE,1440284581
Bendoriai,Bendoriai,Bendorai,54.7961,25.1981,Lithuania,LT,LTU,Vilnius,Vilnius,LT-58,"district municipality",,49.0,764,764,3,Europe/Vilnius,FALSE,1440198557
Liūdynė,Liudyne,,55.6920,24.4560,Lithuania,LT,LTU,Panevėžys,Panevezys,LT-33,"district municipality",,16.9,762,762,4,Europe/Vilnius,FALSE,1440989894
Kutiškiai,Kutiskiai,Kutyshkyay,55.8310,23.4890,Lithuania,LT,LTU,Radviliškis,Radviliskis,LT-37,"district municipality",,22.1,759,759,4,Europe/Vilnius,FALSE,1440563596
Akademija,Akademija,,55.3972,23.8611,Lithuania,LT,LTU,Kėdainiai,Kedainiai,LT-18,"district municipality",,27.3,752,752,4,Europe/Vilnius,FALSE,1440658483
Vaivadai,Vaivadai,,55.7600,24.4000,Lithuania,LT,LTU,Panevėžys,Panevezys,LT-33,"district municipality",,16.9,752,752,4,Europe/Vilnius,FALSE,1440490939
Šiaulėnai,Siaulenai,Shaulenay|Szawlany|Šiaulėnų|Shavlyany|Shyaulenay,55.6810,23.4060,Lithuania,LT,LTU,Radviliškis,Radviliskis,LT-37,"district municipality",,22.1,751,751,4,Europe/Vilnius,FALSE,1440119640
Nemakščiai,Nemaksciai,Nyamakshchay|Nemokščiai|Nemakščių|Niemokszty|Nemakshchyay|Niemoniuny,55.4306,22.7694,Lithuania,LT,LTU,Raseiniai,Raseiniai,LT-38,"district municipality",,21.2,748,748,4,Europe/Vilnius,FALSE,1440971746
Stakliškės,Stakliskes,Stokliszki|Stoklishki|Stakliškių|Staklishkes,54.5917,24.3194,Lithuania,LT,LTU,Prienai,Prienai,LT-36,"district municipality",,24.8,747,747,3,Europe/Vilnius,FALSE,1440995027
Perloja,Perloja,Perlojus|Perloya|Perlojos|Perlajaus|Przełaje|Prelai,54.2144,24.4144,Lithuania,LT,LTU,Varėna,Varena,LT-55,"district municipality",,9.4,744,744,3,Europe/Vilnius,FALSE,1440890742
Bezdonys,Bezdonys,Bezdany|Bezdonis,54.8044,25.5192,Lithuania,LT,LTU,Vilnius,Vilnius,LT-58,"district municipality",,49.0,743,743,3,Europe/Vilnius,FALSE,1440344878
Paluknys,Paluknys,Paluknė|Połuknie|Połuknia|Polukne,54.5000,24.9861,Lithuania,LT,LTU,Trakai,Trakai,LT-52,"district municipality",,44.9,742,742,4,Europe/Vilnius,FALSE,1440621373
Linksmakalnis,Linksmakalnis,"Fol’vark Lyustberg|Luisberg",54.7579,23.9285,Lithuania,LT,LTU,Kaunas,Kaunas,LT-16,"district municipality",,24.8,737,737,3,Europe/Vilnius,FALSE,1440046470
Vandžiogala,Vandziogala,"Wendziagoła|Vendzyagola|Vendžiogalos|se Veandžiogala|Vandzhëgala",55.1194,23.9611,Lithuania,LT,LTU,Kaunas,Kaunas,LT-16,"district municipality",,61.6,736,736,4,Europe/Vilnius,FALSE,1440110302
Kaltinėnai,Kaltinenai,Koltynyany|Kołtyniany|Kaltinėnų|Kaltinenay,55.5667,22.4500,Lithuania,LT,LTU,Šilalė,Silale,LT-45,"district municipality",,20.0,728,728,4,Europe/Vilnius,FALSE,1440799333
Skriaudžiai,Skriaudziai,Skriaudžių|Skravdze,54.7419,23.6639,Lithuania,LT,LTU,Prienai,Prienai,LT-36,"district municipality",,24.8,727,727,4,Europe/Vilnius,FALSE,1440368474
Dūseikiai,Duseikiai,Duseykyay,55.9780,22.4610,Lithuania,LT,LTU,Telšiai,Telsiai,LT-51,"district municipality",,27.4,727,727,4,Europe/Vilnius,FALSE,1440058598
Veliuona,Veliuona,Velivana|Veliouna|Wielona|Veliuonos|Wileny|Veliona,55.0822,23.2711,Lithuania,LT,LTU,Jurbarkas,Jurbarkas,LT-12,"district municipality",,16.5,726,726,3,Europe/Vilnius,FALSE,1440657935
Bernatoniai,Bernatoniai,,55.7810,24.2920,Lithuania,LT,LTU,Panevėžys,Panevezys,LT-33,"district municipality",,16.9,720,720,4,Europe/Vilnius,FALSE,1440643330
Juodkrantė,Juodkrante,Shvartsort|Schwarzort|Yuodkrante,55.5500,21.1167,Lithuania,LT,LTU,Neringa,Neringa,LT-28,municipality,,28.1,720,720,3,Europe/Vilnius,FALSE,1440684778
"Didžiosios Kabiškės","Didziosios Kabiskes",,54.8722,25.4528,Lithuania,LT,LTU,Vilnius,Vilnius,LT-58,"district municipality",,49.0,716,716,3,Europe/Vilnius,FALSE,1440531463
Vaiteliai,Vaiteliai,Vayteley,55.7940,21.3720,Lithuania,LT,LTU,Klaipėda,Klaipeda,LT-21,"district municipality",,43.5,712,712,4,Europe/Vilnius,FALSE,1440403872
Pavartyčiai,Pavartyciai,Pavartyčių|Pavartichyay,55.7720,23.7310,Lithuania,LT,LTU,Radviliškis,Radviliskis,LT-37,"district municipality",,22.1,711,711,4,Europe/Vilnius,FALSE,1440951058
Panevėžiukas,Paneveziukas,Panevėžiuko|Ponevezhik,55.1440,23.7890,Lithuania,LT,LTU,Kaunas,Kaunas,LT-16,"district municipality",,61.6,705,705,4,Europe/Vilnius,FALSE,1440983245
Pandėlys,Pandelys,Pandėlis|Ponedeli|Ponedele|Pandelio,56.0167,25.2167,Lithuania,LT,LTU,Rokiškis,Rokiskis,LT-40,"district municipality",,16.6,695,695,3,Europe/Vilnius,FALSE,1440473468
Pašyšiai,Pasysiai,Pashishyay|Pazhizhen,55.3000,21.6690,Lithuania,LT,LTU,Šilutė,Silute,LT-46,"district municipality",,32.9,693,693,4,Europe/Vilnius,FALSE,1440925661
Naudžiai,Naudziai,,54.5310,25.3270,Lithuania,LT,LTU,,,,,,49.0,691,691,4,Europe/Vilnius,FALSE,1440941831
Adutiškis,Adutiskis,Khodutsishki|Hoduciszki|Godutishki|Adutishkis,55.1556,26.5861,Lithuania,LT,LTU,Švenčionys,Svencionys,LT-49,"district municipality",,14.2,689,689,3,Europe/Vilnius,FALSE,1440763658
Dotnuva,Dotnuva,Dotnavos|Dotnovo|Datnow|Dotnava,55.3500,23.9000,Lithuania,LT,LTU,Kėdainiai,Kedainiai,LT-18,"district municipality",,27.3,687,687,3,Europe/Vilnius,FALSE,1440686101
Dūkštas,Dukstas,Dukshtas|Dukszty|Dukshty,55.5222,26.3194,Lithuania,LT,LTU,Ignalina,Ignalina,LT-09,"district municipality",,11.1,682,682,3,Europe/Vilnius,FALSE,1440658429
Tverai,Tverai,Tveray|Tver|Tverų,55.7333,22.1444,Lithuania,LT,LTU,Rietavas,Rietavas,LT-39,municipality,,13.0,680,680,3,Europe/Vilnius,FALSE,1440473621
Seirijai,Seirijai,Serze|Seyriyay|Sereje|Seirijų,54.2306,23.8139,Lithuania,LT,LTU,Lazdijai,Lazdijai,LT-24,"district municipality",,14.7,679,679,3,Europe/Vilnius,FALSE,1440762045
Grinkiškis,Grinkiskis,Grinkishkis|Grinkishki|Grinkiškio|Grynkiszki,55.5556,23.6333,Lithuania,LT,LTU,Radviliškis,Radviliskis,LT-37,"district municipality",,22.1,678,678,4,Europe/Vilnius,FALSE,1440289605
Skemai,Skemai,Skiemonys|Skemenis|Skemay,55.9810,25.7110,Lithuania,LT,LTU,Rokiškis,Rokiskis,LT-40,"district municipality",,16.6,678,678,4,Europe/Vilnius,FALSE,1440000082
Šateikiai,Sateikiai,Šateikių|Šateikai|Shateykey|Shateiki|Shateykyay|Sheteykey,56.0000,21.6778,Lithuania,LT,LTU,Plungė,Plunge,LT-35,"district municipality",,35.6,676,676,4,Europe/Vilnius,FALSE,1440061314
Bajorai,Bajorai,,55.9860,25.6060,Lithuania,LT,LTU,Rokiškis,Rokiskis,LT-40,"district municipality",,16.6,671,671,4,Europe/Vilnius,FALSE,1440404637
Šilėnai,Silenai,Šilėnų|Shilany|Shilyany|Shilenay,55.8608,23.4213,Lithuania,LT,LTU,Šiauliai,Siauliai,LT-44,"district municipality",,561.0,665,665,3,Europe/Vilnius,FALSE,1440930853
Lygumai,Lygumai,Lygumų|Ligumay|Ligum,56.0056,23.6583,Lithuania,LT,LTU,Pakruojis,Pakruojis,LT-30,"district municipality",,15.0,664,664,3,Europe/Vilnius,FALSE,1440476159
Kruonis,Kruonis,Kroni|Kruonio|Krone,54.7583,24.2444,Lithuania,LT,LTU,Kaišiadorys,Kaisiadorys,LT-13,"district municipality",,26.8,661,661,4,Europe/Vilnius,FALSE,1440229869
Pumpėnai,Pumpenai,Pampėnai|Pumpenay|Pompiany|Pompyany|Pumpenų,55.9333,24.3417,Lithuania,LT,LTU,Pasvalys,Pasvalys,LT-34,"district municipality",,18.4,661,661,3,Europe/Vilnius,FALSE,1440782005
Bukonys,Bukonys,Bukonyay|Bukonis|Bukańce|Bukanitse|Bukonių|Bukoniai,55.2222,24.3722,Lithuania,LT,LTU,Jonava,Jonava,LT-10,"district municipality",,44.9,657,657,3,Europe/Vilnius,FALSE,1440862795
Želsva,Zelsva,Želsuos|Zhel’stvo,54.4310,23.4030,Lithuania,LT,LTU,Marijampolė,Marijampole,LT-25,"district municipality",,73.3,653,653,4,Europe/Vilnius,FALSE,1440664996
Kražiai,Kraziai,Krazhay|Krozhi|Kroże|Kražių|Krazhyay,55.6000,22.6833,Lithuania,LT,LTU,Kelmė,Kelme,LT-19,"district municipality",,16.0,650,650,4,Europe/Vilnius,FALSE,1440213561
Trakiškiai,Trakiskiai,Trakiškių|Trakishkyay|Trakishki,54.5610,23.4060,Lithuania,LT,LTU,Marijampolė,Marijampole,LT-25,"district municipality",,73.3,648,648,4,Europe/Vilnius,FALSE,1440680604
Mostiškės,Mostiskes,,54.7719,25.6669,Lithuania,LT,LTU,Vilnius,Vilnius,LT-58,"district municipality",,49.0,647,647,3,Europe/Vilnius,FALSE,1440200470
Krakiai,Krakiai,Krakių|Krakyay,56.2833,22.4000,Lithuania,LT,LTU,Mažeikiai,Mazeikiai,LT-26,"district municipality",,40.2,642,642,3,Europe/Vilnius,FALSE,1440572083
Marcinkonys,Marcinkonys,Marcinkańce|Martsinkonis|Martsinkantsy|Mareinkonys|Martsinkantse,54.0611,24.4000,Lithuania,LT,LTU,Varėna,Varena,LT-55,"district municipality",,9.4,640,640,3,Europe/Vilnius,FALSE,1440804161
Endriejavas,Endriejavas,Yendreyavas|Endriyeyavas|Andrzejewo,55.6972,21.7222,Lithuania,LT,LTU,Klaipėda,Klaipeda,LT-21,"district municipality",,46.6,640,640,4,Europe/Vilnius,FALSE,1440953218
Staniūnai,Staniunai,,55.7140,24.4000,Lithuania,LT,LTU,Panevėžys,Panevezys,LT-33,"district municipality",,1322.4,638,638,3,Europe/Vilnius,FALSE,1440701864
Šiluva,Siluva,Szydłowo|Šilava|Šidlava|Shiluva|Shidlovo|Šidlavas,55.5306,23.2250,Lithuania,LT,LTU,Raseiniai,Raseiniai,LT-38,"district municipality",,21.2,635,635,4,Europe/Vilnius,FALSE,1440999173
Eigirdžiai,Eigirdziai,Eygirdzhyay|Ejgirdzie|Eigirdžių,56.0081,22.3689,Lithuania,LT,LTU,Telšiai,Telsiai,LT-51,"district municipality",,27.4,630,630,4,Europe/Vilnius,FALSE,1440512103
Luokė,Luoke,Luokės|Luoka|Lukniki,55.8939,22.5250,Lithuania,LT,LTU,Telšiai,Telsiai,LT-51,"district municipality",,27.4,629,629,4,Europe/Vilnius,FALSE,1440441976
Kuliai,Kuliai,Kuli|Kuley|Kule|Kulių|Kulyay,55.8000,21.6531,Lithuania,LT,LTU,Plungė,Plunge,LT-35,"district municipality",,35.6,625,625,3,Europe/Vilnius,FALSE,1440466473
Radikiai,Radikiai,,54.9670,23.9470,Lithuania,LT,LTU,Kaunas,Kaunas,LT-16,"district municipality",,61.6,625,625,4,Europe/Vilnius,FALSE,1440268527
Žibartoniai,Zibartoniai,Žibartonių|Zhibortony,55.5310,23.9640,Lithuania,LT,LTU,Panevėžys,Panevezys,LT-33,"district municipality",,16.9,621,621,4,Europe/Vilnius,FALSE,1440637737
Šilagalys,Silagalys,Šilagalis|Šilagalio|Shilagalis,55.6690,24.3690,Lithuania,LT,LTU,Panevėžys,Panevezys,LT-33,"district municipality",,66.0,621,621,4,Europe/Vilnius,FALSE,1440812842
Naisiai,Naisiai,Naysyay,56.0220,23.5140,Lithuania,LT,LTU,Šiauliai,Siauliai,LT-44,"district municipality",,50.3,618,618,4,Europe/Vilnius,FALSE,1440777308
"Adakavas I","Adakavas I",Adakavo|Adakai|Adakavas,55.4030,22.6560,Lithuania,LT,LTU,Tauragė,Taurage,LT-50,"district municipality",,31.6,617,617,4,Europe/Vilnius,FALSE,1440448689
Babrungas,Babrungas,,55.9333,21.8667,Lithuania,LT,LTU,Plungė,Plunge,LT-35,"district municipality",,35.6,616,616,3,Europe/Vilnius,FALSE,1440177551
Luksnėnai,Luksnenai,,54.3972,23.9306,Lithuania,LT,LTU,Alytus,Alytus,LT-03,"district municipality",,17.7,614,614,3,Europe/Vilnius,FALSE,1440130757
Antežeriai,Antezeriai,,54.7390,25.1750,Lithuania,LT,LTU,Vilnius,Vilnius,LT-58,"district municipality",,49.0,614,614,4,Europe/Vilnius,FALSE,1440038056
Kruopiai,Kruopiai,Krupopiai|Krupe|Kruopių|Kruopyay,56.2417,23.0194,Lithuania,LT,LTU,Akmenė,Akmene,LT-01,"district municipality",,23.3,614,614,3,Europe/Vilnius,FALSE,1440041246
Pakuonis,Pakuonis,Pokojnie|Pakuonio,54.7167,24.0500,Lithuania,LT,LTU,Prienai,Prienai,LT-36,"district municipality",,24.8,608,608,3,Europe/Vilnius,FALSE,1440697195
Užventis,Uzventis,Užvenčio|Uzhventis|Użwenty,55.7833,22.6500,Lithuania,LT,LTU,Kelmė,Kelme,LT-19,"district municipality",,16.0,608,608,3,Europe/Vilnius,FALSE,1440856630
Plikiai,Plikiai,Plicken|Plikyay|Plikai|Plikių,55.7889,21.2778,Lithuania,LT,LTU,Klaipėda,Klaipeda,LT-21,"district municipality",,46.6,607,607,3,Europe/Vilnius,FALSE,1440325613
Šilgaliai,Silgaliai,Shilgalyay|Shillgalen,55.1670,21.8140,Lithuania,LT,LTU,Pagégiai,Pagegiai,LT-29,municipality,,15.2,606,606,4,Europe/Vilnius,FALSE,1440329226
Jakai,Jakai,,55.7000,21.2194,Lithuania,LT,LTU,Klaipėda,Klaipeda,LT-21,"district municipality",,1204.0,603,603,3,Europe/Vilnius,FALSE,1440262781
Netičkampis,Netickampis,Netychkampe|Netiškampio|Netičkampio,54.5030,23.3720,Lithuania,LT,LTU,Marijampolė,Marijampole,LT-25,"district municipality",,73.3,602,602,4,Europe/Vilnius,FALSE,1440134166
Tauragnai,Tauragnai,Tauragunay|Tauragnay|Tauraginai|Tauraginos|Tauragnų|Taurognue|Tauroginie,55.4439,25.8139,Lithuania,LT,LTU,Utena,Utena,LT-54,"district municipality",,32.5,602,602,3,Europe/Vilnius,FALSE,1440515225
Seredžius,Seredzius,Seredzhyus|Seredzhus|Srednike|Sredniki|Seredžiaūs,55.0833,23.4167,Lithuania,LT,LTU,Jurbarkas,Jurbarkas,LT-12,"district municipality",,50.9,590,590,4,Europe/Vilnius,FALSE,1440626661
Kriukai,Kriukai,Kryukyay|Kruki|Kryukay|Kriukų,56.3000,23.8278,Lithuania,LT,LTU,Joniškis,Joniskis,LT-11,"district municipality",,19.1,590,590,3,Europe/Vilnius,FALSE,1440335390
Veršiai,Versiai,Vershe,54.8611,23.0689,Lithuania,LT,LTU,Šakiai,Sakiai,LT-41,"district municipality",,20.0,589,589,4,Europe/Vilnius,FALSE,1440146799
Turgeliai,Turgeliai,Turgiele|Turgelyay|Turgeli|Turgele,54.4556,25.5083,Lithuania,LT,LTU,Šalčininkai,Salcininkai,LT-42,"district municipality",,20.3,588,588,4,Europe/Vilnius,FALSE,1440488391
Sintautai,Sintautai,Syntovty|Sintautay|Sintovty|Syntowty|Sintautų,54.8778,22.9944,Lithuania,LT,LTU,Šakiai,Sakiai,LT-41,"district municipality",,20.0,586,586,3,Europe/Vilnius,FALSE,1440474866
Lavoriškės,Lavoriskes,Lavorishkes|Lavarushkyay|Lavarishki|Lovoriškės|Lavariškės|Lawaryszki|Lavariškiai,54.7081,25.6389,Lithuania,LT,LTU,Vilnius,Vilnius,LT-58,"district municipality",,49.0,585,585,3,Europe/Vilnius,FALSE,1440334463
Vėliučionys,Veliucionys,Veliučionys,54.6500,25.4500,Lithuania,LT,LTU,Vilnius,Vilnius,LT-58,"district municipality",,49.0,581,581,4,Europe/Vilnius,FALSE,1440095341
Dieveniškės,Dieveniskes,Dziewieniszki|Devenishki|Dieveniškis|Dievenishkes|Devenishkes|Devyanishkes,54.1944,25.6250,Lithuania,LT,LTU,Šalčininkai,Salcininkai,LT-42,"district municipality",,20.3,578,578,4,Europe/Vilnius,FALSE,1440399531
Kamajai,Kamajai,Kamayay|Kamajys|Komaje|Kamajų,55.8167,25.5000,Lithuania,LT,LTU,Rokiškis,Rokiskis,LT-40,"district municipality",,16.6,577,577,4,Europe/Vilnius,FALSE,1440572977
Pajevonys,Pajevonys,Pajevonio|Pajavonys|Pajavonio|Payevonis|Payavonis|Kunigiškiai|Poyevon’,54.5311,22.8281,Lithuania,LT,LTU,Vilkaviškis,Vilkaviskis,LT-56,"district municipality",,29.1,576,576,4,Europe/Vilnius,FALSE,1440184742
Anavilis,Anavilis,Šuneliai,54.9419,25.2281,Lithuania,LT,LTU,Vilnius,Vilnius,LT-58,"district municipality",,49.0,575,575,3,Europe/Vilnius,FALSE,1440713411
Pagynė,Pagyne,Poginie|Pogini,55.1170,23.8170,Lithuania,LT,LTU,Kaunas,Kaunas,LT-16,"district municipality",,61.6,573,573,4,Europe/Vilnius,FALSE,1440720060
"Naujieji Elmininkai","Naujieji Elmininkai",,55.5472,25.1500,Lithuania,LT,LTU,Anykščiai,Anyksciai,LT-04,"district municipality",,13.6,573,573,3,Europe/Vilnius,FALSE,1440829636
Pagramantis,Pagramantis,,55.3639,22.2306,Lithuania,LT,LTU,Tauragė,Taurage,LT-50,"district municipality",,31.6,569,569,3,Europe/Vilnius,FALSE,1440330325
Šniūraičiai,Sniuraiciai,,55.8719,23.4919,Lithuania,LT,LTU,Radviliškis,Radviliskis,LT-37,"district municipality",,35.6,569,569,4,Europe/Vilnius,FALSE,1440490546
Paežeriai,Paezeriai,Paežerių|Payezheryay|Pažeriai|Poyeziory,54.6389,22.9750,Lithuania,LT,LTU,Vilkaviškis,Vilkaviskis,LT-56,"district municipality",,29.1,569,569,4,Europe/Vilnius,FALSE,1440349618
Meškalaukis,Meskalaukis,Meškalaukio|Meshkadaukis|Meshkalaukis|Myashkalaukis,56.0170,24.2060,Lithuania,LT,LTU,Pasvalys,Pasvalys,LT-34,"district municipality",,18.4,566,566,4,Europe/Vilnius,FALSE,1440402383
Čekiškė,Cekiske,Chekishki|Čekiškés|Chyakishke|Chekishke|Czekiszki,55.1583,23.5250,Lithuania,LT,LTU,Kaunas,Kaunas,LT-16,"district municipality",,61.6,559,559,4,Europe/Vilnius,FALSE,1440234156
Jotainiai,Jotainiai,"Jotainiai Pirmieji|Iotaynyay|Iotayne|Jotainių",55.5500,24.4110,Lithuania,LT,LTU,Panevėžys,Panevezys,LT-33,"district municipality",,16.9,558,558,4,Europe/Vilnius,FALSE,1440140353
Nevarėnai,Nevarenai,Niewierany|Nevarany|Nevarėnų|Nevarenay,56.1111,22.2831,Lithuania,LT,LTU,Telšiai,Telsiai,LT-51,"district municipality",,27.4,552,552,4,Europe/Vilnius,FALSE,1440056407
Alovė,Alove,Oława|Olava|Alovės,54.3500,24.1722,Lithuania,LT,LTU,Alytus,Alytus,LT-03,"district municipality",,17.7,552,552,4,Europe/Vilnius,FALSE,1440532377
Vepriai,Vepriai,Vepryay|Vepry|Veprių|Vepri|Wieprze,55.1506,24.5742,Lithuania,LT,LTU,Ukmergė,Ukmerge,LT-53,"district municipality",,24.2,549,549,3,Europe/Vilnius,FALSE,1440326652
Glitiškės,Glitiskes,,54.9861,25.2250,Lithuania,LT,LTU,Vilnius,Vilnius,LT-58,"district municipality",,49.0,549,549,3,Europe/Vilnius,FALSE,1440189332
Gižai,Gizai,Gižų|Gizhay|Gizhe,54.6003,23.2250,Lithuania,LT,LTU,Vilkaviškis,Vilkaviskis,LT-56,"district municipality",,29.1,548,548,4,Europe/Vilnius,FALSE,1440946790
Sasnava,Sasnava,Sasnova|Sasnavos,54.6472,23.4611,Lithuania,LT,LTU,Marijampolė,Marijampole,LT-25,"district municipality",,73.3,546,546,4,Europe/Vilnius,FALSE,1440231852
Smilgiai,Smilgiai,Smilgių|Smilgis|Smilgyay,55.8028,24.0167,Lithuania,LT,LTU,Panevėžys,Panevezys,LT-33,"district municipality",,16.9,544,544,3,Europe/Vilnius,FALSE,1440492495
Lioliai,Lioliai,Liolių|Liolyay|Lëlyay,55.5583,22.9556,Lithuania,LT,LTU,Kelmė,Kelme,LT-19,"district municipality",,16.0,544,544,3,Europe/Vilnius,FALSE,1440796158
Zavišonys,Zavisonys,,54.3990,25.3550,Lithuania,LT,LTU,Šalčininkai,Salcininkai,LT-42,"district municipality",,20.3,539,539,4,Europe/Vilnius,FALSE,1440596629
Žasliai,Zasliai,Zhaslyay|Žaslių|Zhosli|Żośle|Zhayslyay,54.8639,24.5889,Lithuania,LT,LTU,Kaišiadorys,Kaisiadorys,LT-13,"district municipality",,26.8,536,536,3,Europe/Vilnius,FALSE,1440860986
Šepeta,Sepeta,,55.8060,25.0360,Lithuania,LT,LTU,Kupiškis,Kupiskis,LT-23,"district municipality",,16.0,535,535,4,Europe/Vilnius,FALSE,1440137266
Raguva,Raguva,Rogov|Raguvos|Rogovo|Ragowo|Rogów,55.5639,24.6222,Lithuania,LT,LTU,Panevėžys,Panevezys,LT-33,"district municipality",,16.9,533,533,3,Europe/Vilnius,FALSE,1440628808
Sidabravas,Sidabravas,Szczedrobowo|Sidabravos|Sidabrava,55.6972,23.9278,Lithuania,LT,LTU,Radviliškis,Radviliskis,LT-37,"district municipality",,22.1,532,532,3,Europe/Vilnius,FALSE,1440310544
Pakiršinys,Pakirsinys,"Pokarshine|Pakiršinys Pirmasis",55.6530,23.7690,Lithuania,LT,LTU,Radviliškis,Radviliskis,LT-37,"district municipality",,22.1,532,532,4,Europe/Vilnius,FALSE,1440198946
Grūšlauke,Gruslauke,Grūšlaukė|Grushlavki|Gruschlawki|Grushlaukis|Grušlaukio|Grushlauke|Gruszławki|Grušlaukis,56.0719,21.4081,Lithuania,LT,LTU,Kretinga,Kretinga,LT-22,"district municipality",,38.5,530,530,4,Europe/Vilnius,FALSE,1440106834
Dupulčiai,Dupulciai,Medsedzhey,55.8750,21.2970,Lithuania,LT,LTU,Kretinga,Kretinga,LT-22,"district municipality",,38.5,528,528,4,Europe/Vilnius,FALSE,1440839999
Barstyčiai,Barstyciai,Barstyčių|Barstichiyay|Barszczyce|Barstichyay|Borshchitse|Borszczyce,56.1639,21.8667,Lithuania,LT,LTU,Skuodas,Skuodas,LT-48,"district municipality",,17.9,528,528,4,Europe/Vilnius,FALSE,1440338670
Katyčiai,Katyciai,Koadjuthen|Katichyay|Coadjuthen|Koadyuten,55.2889,21.8278,Lithuania,LT,LTU,Šilutė,Silute,LT-46,"district municipality",,32.9,526,526,4,Europe/Vilnius,FALSE,1440152836
Upytė,Upyte,Upite|Upita|Upytės,55.6500,24.2167,Lithuania,LT,LTU,Panevėžys,Panevezys,LT-33,"district municipality",,16.9,525,525,3,Europe/Vilnius,FALSE,1440757353
Bariūnai,Bariunai,Baryunay|Bariūnų,56.2530,23.6670,Lithuania,LT,LTU,Joniškis,Joniskis,LT-11,"district municipality",,19.1,520,520,4,Europe/Vilnius,FALSE,1440004238
Salakas,Salakas,Sołoki|Salako,55.5778,26.1333,Lithuania,LT,LTU,Zarasai,Zarasai,LT-60,"district municipality",,13.4,519,519,4,Europe/Vilnius,FALSE,1440029278
Onuškis,Onuskis,Onuškės|Onushkis|Hanuszyszki|Onuškio|Ganushishki|Oniškis,54.4861,24.5917,Lithuania,LT,LTU,Trakai,Trakai,LT-52,"district municipality",,44.9,519,519,4,Europe/Vilnius,FALSE,1440141731
Vadokliai,Vadokliai,Vadoklių|Vadoklia|Wodakle|Vadoklyay,55.4944,24.4694,Lithuania,LT,LTU,Panevėžys,Panevezys,LT-33,"district municipality",,16.9,519,519,3,Europe/Vilnius,FALSE,1440385948
Paliepiai,Paliepiai,Palepyay,55.3778,22.9694,Lithuania,LT,LTU,Raseiniai,Raseiniai,LT-38,"district municipality",,21.2,518,518,3,Europe/Vilnius,FALSE,1440658482
Linkavičiai,Linkaviciai,,56.1140,24.0420,Lithuania,LT,LTU,Pakruojis,Pakruojis,LT-30,"district municipality",,15.0,517,517,4,Europe/Vilnius,FALSE,1440292400
Deltuva,Deltuva,Dziewałtów|Deltuvos|Konstantinovo,55.2390,24.6690,Lithuania,LT,LTU,Ukmergė,Ukmerge,LT-53,"district municipality",,24.2,513,513,3,Europe/Vilnius,FALSE,1440206690
Sudervė,Suderve,Suderwa|Suderva,54.7811,25.0939,Lithuania,LT,LTU,Vilnius,Vilnius,LT-58,"district municipality",,49.0,511,511,3,Europe/Vilnius,FALSE,1440398251
Micaičiai,Micaiciai,Micaičių|Mitsaychyay,55.9750,22.9170,Lithuania,LT,LTU,Šiauliai,Siauliai,LT-44,"district municipality",,50.3,511,511,4,Europe/Vilnius,FALSE,1440086140
Raudonė,Raudone,Raudonyany|Raudonių|Raudonės,55.1000,23.1333,Lithuania,LT,LTU,Jurbarkas,Jurbarkas,LT-12,"district municipality",,16.5,510,510,4,Europe/Vilnius,FALSE,1440276012
Alvitas,Alvitas,Ol’vita|Alvito|Olwita,54.6361,22.9281,Lithuania,LT,LTU,Vilkaviškis,Vilkaviskis,LT-56,"district municipality",,29.1,509,509,4,Europe/Vilnius,FALSE,1440961510
Siesikai,Siesikai,Sesikay|Siesiki|Siesikų|Siyesikay|Sesiki|Sessiki,55.2939,24.5031,Lithuania,LT,LTU,Ukmergė,Ukmerge,LT-53,"district municipality",,24.2,508,508,3,Europe/Vilnius,FALSE,1440126816
Medininkai,Medininkai,Miedniki|Medniki|Medninkay|Medninkai|Medininkay,54.5389,25.6500,Lithuania,LT,LTU,Vilnius,Vilnius,LT-58,"district municipality",,49.0,508,508,3,Europe/Vilnius,FALSE,1440164882
Vilkija,Vilkija,Vilki|Wilki|Vilkijos|Vil’kiya,55.0500,23.5833,Lithuania,LT,LTU,Kaunas,Kaunas,LT-16,"district municipality",,61.6,506,506,4,Europe/Vilnius,FALSE,1440550907
Bajorai,Bajorai,,54.7611,25.2361,Lithuania,LT,LTU,Vilnius,Vilnius,LT-58,"district municipality",,49.0,503,503,4,Europe/Vilnius,TRUE,1440658023
Jokūbavas,Jokubavas,Jokūbiškė|Jokūbavos|Jokubavo|Yokubavas|Lakubov|Yakubovo|Iokubavas|Yokubishki,55.8278,21.3417,Lithuania,LT,LTU,Kretinga,Kretinga,LT-22,"district municipality",,38.5,502,502,4,Europe/Vilnius,FALSE,1440128299
Karkliniai,Karkliniai,,54.5306,23.1639,Lithuania,LT,LTU,Vilkaviškis,Vilkaviskis,LT-56,"district municipality",,29.1,502,502,3,Europe/Vilnius,FALSE,1440298860
Gerduvėnai,Gerduvenai,Gerduvenay,55.7310,21.4310,Lithuania,LT,LTU,Klaipėda,Klaipeda,LT-21,"district municipality",,46.6,501,501,4,Europe/Vilnius,FALSE,1440092493
"Naujosios Kietaviškės","Naujosios Kietaviskes",,54.7640,24.6080,Lithuania,LT,LTU,Elektrénai,Elektrenai,LT-08,municipality,,26.8,499,499,4,Europe/Vilnius,FALSE,1440085967
Žarėnai,Zarenai,Zorany|Zharenai|Žarėnų|Zharenay,55.8389,22.2031,Lithuania,LT,LTU,Telšiai,Telsiai,LT-51,"district municipality",,27.4,499,499,4,Europe/Vilnius,FALSE,1440186920
Parudaminys,Parudaminys,Porudomino|Porudamino|Parudamanas|Parudaminis,54.5250,25.2640,Lithuania,LT,LTU,Vilnius,Vilnius,LT-58,"district municipality",,49.0,498,498,4,Europe/Vilnius,FALSE,1440561386
Ramučiai,Ramuciai,Ramuchay|Ramučių,56.3330,22.8810,Lithuania,LT,LTU,Akmenė,Akmene,LT-01,"district municipality",,23.3,490,490,4,Europe/Vilnius,FALSE,1440734854
Aristava,Aristava,Lukšiakaimis|Lukshakaymis|Arvystai,55.2919,24.0889,Lithuania,LT,LTU,Kėdainiai,Kedainiai,LT-18,"district municipality",,27.3,489,489,3,Europe/Vilnius,FALSE,1440305369
Betygala,Betygala,Betygalos|Betigala|Betigola,55.3611,23.3667,Lithuania,LT,LTU,Raseiniai,Raseiniai,LT-38,"district municipality",,21.2,488,488,3,Europe/Vilnius,FALSE,1440691000
Laižuva,Laizuva,Layzhuva|Laizhev|Laižuvos,56.3811,22.5611,Lithuania,LT,LTU,Mažeikiai,Mazeikiai,LT-26,"district municipality",,40.2,485,485,4,Europe/Vilnius,FALSE,1440279462
Kavarskas,Kavarskas,Kovarsko|Kovarsk|Kowarsk|Kovarskas,55.4333,24.9167,Lithuania,LT,LTU,Anykščiai,Anyksciai,LT-04,"district municipality",,13.6,485,485,3,Europe/Vilnius,FALSE,1440315474
Ukrinai,Ukrinai,Ukrinų|Ukrinos|Ukrinay,56.3000,22.1000,Lithuania,LT,LTU,Mažeikiai,Mazeikiai,LT-26,"district municipality",,40.2,484,484,3,Europe/Vilnius,FALSE,1440107217
Dusetos,Dusetos,Dustos|Dusiaty|Dusetų|Dusetai|Duseta,55.7500,25.8500,Lithuania,LT,LTU,Zarasai,Zarasai,LT-60,"district municipality",,13.4,479,479,3,Europe/Vilnius,FALSE,1440050211
Kapčiamiestis,Kapciamiestis,Kapchyamiyestis|Kapchamestis|Kopciowo|Kapčiamiesčio|Kapchyamestis,54.0000,23.6583,Lithuania,LT,LTU,Lazdijai,Lazdijai,LT-24,"district municipality",,14.7,478,478,4,Europe/Vilnius,FALSE,1440417283
Sablauskiai,Sablauskiai,Soblawki|Sablauskyay|Sablauskai|Sablauskių,56.2472,22.8694,Lithuania,LT,LTU,Akmenė,Akmene,LT-01,"district municipality",,23.3,477,477,3,Europe/Vilnius,FALSE,1440178332
Pociūnėliai,Pociuneliai,Potsuneli|Počiūnėlių,55.5694,23.8694,Lithuania,LT,LTU,Radviliškis,Radviliskis,LT-37,"district municipality",,22.1,475,475,4,Europe/Vilnius,FALSE,1440780226
Petrašiūnai,Petrasiunai,Petrashyunyay,56.0231,23.9394,Lithuania,LT,LTU,Pakruojis,Pakruojis,LT-30,"district municipality",,15.0,475,475,4,Europe/Vilnius,FALSE,1440064354
Kaulakiai,Kaulakiai,Kaulakai,55.4280,23.2580,Lithuania,LT,LTU,Raseiniai,Raseiniai,LT-38,"district municipality",,21.2,473,473,4,Europe/Vilnius,FALSE,1440824593
Barzdai,Barzdai,Barzdų|Barzday|Barzdy,54.7806,23.1944,Lithuania,LT,LTU,Šakiai,Sakiai,LT-41,"district municipality",,20.0,472,472,3,Europe/Vilnius,FALSE,1440373572
Slavikai,Slavikai,Sloviki|Slavikų|Slavikay|Slavkai,54.9580,22.7420,Lithuania,LT,LTU,Šakiai,Sakiai,LT-41,"district municipality",,18.1,472,472,4,Europe/Vilnius,FALSE,1440835358
Balninkai,Balninkai,Balninku|Bal’ninkay|Balnikų|Bol’niki|Balinkai,55.2939,25.1189,Lithuania,LT,LTU,Molėtai,Moletai,LT-27,"district municipality",,13.2,470,470,3,Europe/Vilnius,FALSE,1440965456
Maldėnai,Maldenai,,54.6500,22.9560,Lithuania,LT,LTU,Vilkaviškis,Vilkaviskis,LT-56,"district municipality",,29.1,469,469,4,Europe/Vilnius,FALSE,1440652060
Paliūniškis,Paliuniskis,Pinigėliai|Palyunishki,55.7920,24.4440,Lithuania,LT,LTU,Panevėžys,Panevezys,LT-33,"district municipality",,16.9,469,469,4,Europe/Vilnius,FALSE,1440549411
Judrėnai,Judrenai,Judrėnų|Yudrenay,55.5861,21.8028,Lithuania,LT,LTU,Klaipėda,Klaipeda,LT-21,"district municipality",,46.6,468,468,4,Europe/Vilnius,FALSE,1440885612
Šunskai,Sunskai,Šunskų|Shunskay|Shumsk|Szumsk,54.6417,23.3250,Lithuania,LT,LTU,Marijampolė,Marijampole,LT-25,"district municipality",,73.3,468,468,4,Europe/Vilnius,FALSE,1440262730
Jasiuliškis,Jasiuliskis,,55.3170,24.8440,Lithuania,LT,LTU,Ukmergė,Ukmerge,LT-53,"district municipality",,24.2,467,467,4,Europe/Vilnius,FALSE,1440305766
Alanta,Alanta,Owanta|Aluntos|Alunta,55.3500,25.2833,Lithuania,LT,LTU,Molėtai,Moletai,LT-27,"district municipality",,13.2,464,464,3,Europe/Vilnius,FALSE,1440511037
Pajiešmeniai,Pajiesmeniai,Payeshmyanyay,56.1111,24.4889,Lithuania,LT,LTU,Pasvalys,Pasvalys,LT-34,"district municipality",,18.4,463,463,4,Europe/Vilnius,FALSE,1440016126
Butrimonys,Butrimonys,Butrymańce|Butrimantsy|Butrimonis,54.2472,25.1667,Lithuania,LT,LTU,Šalčininkai,Salcininkai,LT-42,"district municipality",,20.3,462,462,4,Europe/Vilnius,FALSE,1440058238
Žilinai,Zilinai,Žilinų|Zilinay|Zhilinay,54.3919,24.6361,Lithuania,LT,LTU,Varėna,Varena,LT-55,"district municipality",,9.4,459,459,3,Europe/Vilnius,FALSE,1440949727
Sūdava,Sudava,,54.7330,23.0110,Lithuania,LT,LTU,Vilkaviškis,Vilkaviskis,LT-56,"district municipality",,29.1,459,459,4,Europe/Vilnius,FALSE,1440041503
Laugaliai,Laugaliai,,55.7129,21.3646,Lithuania,LT,LTU,Klaipėda,Klaipeda,LT-21,"district municipality",,46.6,458,458,4,Europe/Vilnius,FALSE,1440985049
Želva,Zelva,Pozelwa|Želvos|Zhyalva|Zhelva,55.2189,25.0969,Lithuania,LT,LTU,Ukmergė,Ukmerge,LT-53,"district municipality",,24.2,457,457,4,Europe/Vilnius,FALSE,1440903159
Skaisčiūnai,Skaisciunai,Skainčiūnai,54.5530,23.2860,Lithuania,LT,LTU,Marijampolė,Marijampole,LT-25,"district municipality",,73.3,457,457,4,Europe/Vilnius,FALSE,1440268021
Kuigaliai,Kuigaliai,Kuygalyay,55.1814,24.0972,Lithuania,LT,LTU,Jonava,Jonava,LT-10,"district municipality",,44.9,455,455,3,Europe/Vilnius,FALSE,1440292404
Verpena,Verpena,Verpenay,55.6560,22.9190,Lithuania,LT,LTU,Kelmė,Kelme,LT-19,"district municipality",,16.0,452,452,4,Europe/Vilnius,FALSE,1440961514
Kalnelis,Kalnelis,Mikolaičiunai|Kal’nyalis,56.2440,23.5470,Lithuania,LT,LTU,Joniškis,Joniskis,LT-11,"district municipality",,19.1,451,451,4,Europe/Vilnius,FALSE,1440050896
Gudeliai,Gudeliai,"Gudelių|Gudeliai Antrieji|Gudelyay|Gudele",54.5278,23.6861,Lithuania,LT,LTU,Marijampolė,Marijampole,LT-25,"district municipality",,73.3,447,447,3,Europe/Vilnius,FALSE,1440252032
Perekšliai,Pereksliai,Perekshli,55.7670,24.0830,Lithuania,LT,LTU,Panevėžys,Panevezys,LT-33,"district municipality",,16.9,446,446,4,Europe/Vilnius,FALSE,1440298358
Pylimai,Pylimai,,54.7580,24.8420,Lithuania,LT,LTU,Elektrénai,Elektrenai,LT-08,municipality,,70.0,445,445,4,Europe/Vilnius,FALSE,1440074380
Šaukotas,Saukotas,Šaukoto|Shavkoty,55.5806,23.4194,Lithuania,LT,LTU,Radviliškis,Radviliskis,LT-37,"district municipality",,22.1,445,445,3,Europe/Vilnius,FALSE,1440143694
Alkiškiai,Alkiskiai,Alkishkyay|Alkiškių,56.2667,22.8389,Lithuania,LT,LTU,Akmenė,Akmene,LT-01,"district municipality",,23.3,444,444,3,Europe/Vilnius,FALSE,1440385544
Kivyliai,Kivyliai,Kivilyay|Kivylių,56.3500,22.7500,Lithuania,LT,LTU,Akmenė,Akmene,LT-01,"district municipality",,23.3,443,443,3,Europe/Vilnius,FALSE,1440626247
Šimonys,Simonys,Szymańce|Šimonių|Shimonis,55.7389,25.1444,Lithuania,LT,LTU,Kupiškis,Kupiskis,LT-23,"district municipality",,16.0,441,441,4,Europe/Vilnius,FALSE,1440904654
Raubonys,Raubonys,Raubonių|Raubonyay|Rauboniai|Raubonis,56.1310,24.4780,Lithuania,LT,LTU,Pasvalys,Pasvalys,LT-34,"district municipality",,18.4,441,441,4,Europe/Vilnius,FALSE,1440890120
Šilai,Silai,Shilay|Šilų|Shily,55.4925,24.6063,Lithuania,LT,LTU,Panevėžys,Panevezys,LT-33,"district municipality",,16.9,441,441,3,Europe/Vilnius,FALSE,1440873796
Židikai,Zidikai,Židikų|Zhidikay|Zhidiki|Zhidikai|Zidikiai,56.3167,22.0167,Lithuania,LT,LTU,Mažeikiai,Mazeikiai,LT-26,"district municipality",,40.2,440,440,4,Europe/Vilnius,FALSE,1440620841
"Keturiasdešimt Totorių","Keturiasdesimt Totoriu","Totorkaimis|Sorok Tatary",54.5611,25.1669,Lithuania,LT,LTU,Vilnius,Vilnius,LT-58,"district municipality",,49.0,438,438,3,Europe/Vilnius,FALSE,1440662286
Vištytis,Vistytis,Wisztyniec|Vištyčio|Vishtyney|Vishtitis,54.4583,22.7194,Lithuania,LT,LTU,Vilkaviškis,Vilkaviskis,LT-56,"district municipality",,27.1,436,436,4,Europe/Vilnius,FALSE,1440274947
Šukioniai,Sukioniai,"Šukioniai Pirmieji|Šukoniai|Shukionis",55.9417,23.7167,Lithuania,LT,LTU,Pakruojis,Pakruojis,LT-30,"district municipality",,15.0,436,436,3,Europe/Vilnius,FALSE,1440698189
"Mažieji Būdežeriai","Mazieji Budezeriai",,54.6280,23.0470,Lithuania,LT,LTU,Vilkaviškis,Vilkaviskis,LT-56,"district municipality",,29.1,434,434,4,Europe/Vilnius,FALSE,1440729303
Pikeliškės,Pikeliskes,Pikieliszki|Pikilishki|Pikeliškiai,54.8781,25.2419,Lithuania,LT,LTU,Vilnius,Vilnius,LT-58,"district municipality",,49.0,434,434,3,Europe/Vilnius,FALSE,1440643502
Dapkiškiai,Dapkiskiai,Dabkishki|Dapkishkyay,55.2778,22.2417,Lithuania,LT,LTU,Tauragė,Taurage,LT-50,"district municipality",,31.6,432,432,4,Europe/Vilnius,FALSE,1440352099
Ustukiai,Ustukiai,Ustukyay|Ustukių,56.0780,24.3640,Lithuania,LT,LTU,Pasvalys,Pasvalys,LT-34,"district municipality",,18.4,432,432,4,Europe/Vilnius,FALSE,1440791739
Paluobiai,Paluobiai,Polobe|Paluobių|Paluobė,54.8810,23.2610,Lithuania,LT,LTU,Šakiai,Sakiai,LT-41,"district municipality",,20.0,432,432,4,Europe/Vilnius,FALSE,1440729172
Kalnas,Kalnas,,55.9780,24.3500,Lithuania,LT,LTU,Pasvalys,Pasvalys,LT-34,"district municipality",,18.4,431,431,4,Europe/Vilnius,FALSE,1440019410
Pašilė,Pasile,Poshile|Pašilės|Poszylany,56.2500,21.9420,Lithuania,LT,LTU,Skuodas,Skuodas,LT-48,"district municipality",,17.9,430,430,4,Europe/Vilnius,FALSE,1440672843
Vėriškiai,Veriskiai,Veriškių|Verishkyay,55.7250,23.7140,Lithuania,LT,LTU,Radviliškis,Radviliskis,LT-37,"district municipality",,22.1,430,430,4,Europe/Vilnius,FALSE,1440772193
Trakiškis,Trakiskis,,55.7330,24.5080,Lithuania,LT,LTU,Panevėžys,Panevezys,LT-33,"district municipality",,16.9,430,430,4,Europe/Vilnius,FALSE,1440731347
Matlaukys,Matlaukys,Matlaukis,54.5780,22.7310,Lithuania,LT,LTU,Vilkaviškis,Vilkaviskis,LT-56,"district municipality",,29.1,429,429,4,Europe/Vilnius,FALSE,1440455156
Eržvilkas,Erzvilkas,Erzwilki|Eržvilko|Erjvilki|Erzhvilki|Erzhvilkas,55.2639,22.7083,Lithuania,LT,LTU,Jurbarkas,Jurbarkas,LT-12,"district municipality",,16.5,429,429,4,Europe/Vilnius,FALSE,1440647671
Juškonys,Juskonys,Yushkonis|Juškoniai,55.2389,24.2389,Lithuania,LT,LTU,Jonava,Jonava,LT-10,"district municipality",,44.9,425,425,3,Europe/Vilnius,FALSE,1440650653
Liepiai,Liepiai,Liyepyay|Liepių|Lepyay,55.1806,24.3056,Lithuania,LT,LTU,Jonava,Jonava,LT-10,"district municipality",,44.9,425,425,3,Europe/Vilnius,FALSE,1440391070
Rudausiai,Rudausiai,,54.9080,25.5860,Lithuania,LT,LTU,Vilnius,Vilnius,LT-58,"district municipality",,49.0,424,424,4,Europe/Vilnius,FALSE,1440101465
Gailiūnai,Gailiunai,Gaylyuny|Gainunay|Gailiūnų,54.0472,24.0028,Lithuania,LT,LTU,Druskininkai,Druskininkai,LT-07,municipality,,40.1,424,424,3,Europe/Vilnius,FALSE,1440211290
Daujėnai,Daujenai,Dauyenay|Daujėnų|Dowiany,55.9750,24.5194,Lithuania,LT,LTU,Pasvalys,Pasvalys,LT-34,"district municipality",,18.4,423,423,4,Europe/Vilnius,FALSE,1440917181
Šiaudiniškiai,Siaudiniskiai,,54.6610,22.8470,Lithuania,LT,LTU,Vilkaviškis,Vilkaviskis,LT-56,"district municipality",,29.1,422,422,4,Europe/Vilnius,FALSE,1440205158
Kriviliai,Kriviliai,Kriuiliai,54.1500,24.7833,Lithuania,LT,LTU,Varėna,Varena,LT-55,"district municipality",,9.4,421,421,3,Europe/Vilnius,FALSE,1440575804
Batėgala,Bategala,,55.0444,24.1111,Lithuania,LT,LTU,Jonava,Jonava,LT-10,"district municipality",,44.9,419,419,3,Europe/Vilnius,FALSE,1440238982
Kena,Kena,Kiena|Kinė,54.6500,25.6333,Lithuania,LT,LTU,Vilnius,Vilnius,LT-58,"district municipality",,49.0,418,418,3,Europe/Vilnius,FALSE,1440338028
Kriaunos,Kriaunos,Krewno|Kriaunų|Kryaunos|Kreuno|Kriaunai,55.8530,25.7940,Lithuania,LT,LTU,Rokiškis,Rokiskis,LT-40,"district municipality",,16.6,417,417,4,Europe/Vilnius,FALSE,1440495070
Ringuvėnai,Ringuvenai,"Ringuvėnų|Gut Ryngowiany|Ryngovo",56.0140,22.9080,Lithuania,LT,LTU,Šiauliai,Siauliai,LT-44,"district municipality",,50.3,417,417,4,Europe/Vilnius,FALSE,1440635402
Piktupėnai,Piktupenai,Piktupönen|Piktupenay|Pitkupenay|Piktupenen,55.1530,21.9860,Lithuania,LT,LTU,Pagégiai,Pagegiai,LT-29,municipality,,15.2,416,416,4,Europe/Vilnius,FALSE,1440797058
Musninkai,Musninkai,Musninkų|Musnikų|Musninkay|Muśniki,54.9469,24.8419,Lithuania,LT,LTU,Širvintos,Sirvintos,LT-47,"district municipality",,17.9,415,415,3,Europe/Vilnius,FALSE,1440832865
Vankiškiai,Vankiskiai,Vankiškių|Vankiškis|Ivankovo,54.3690,23.8830,Lithuania,LT,LTU,Alytus,Alytus,LT-03,"district municipality",,17.7,415,415,4,Europe/Vilnius,FALSE,1440094457
Stungiai,Stungiai,Stungay|Stungyay|Stungių,56.3440,23.3080,Lithuania,LT,LTU,Joniškis,Joniskis,LT-11,"district municipality",,19.1,415,415,4,Europe/Vilnius,FALSE,1440297208
Vižančiai,Vizanciai,Vižaněiai|Vyžančių|Vizhanchyay,56.3390,21.8580,Lithuania,LT,LTU,Skuodas,Skuodas,LT-48,"district municipality",,17.9,415,415,4,Europe/Vilnius,FALSE,1440982617
Videniškiai,Videniskiai,Videnishkyay|Videnishki|Videniškių|Videnishkis|Videniškis,55.2167,25.2778,Lithuania,LT,LTU,Molėtai,Moletai,LT-27,"district municipality",,13.2,415,415,3,Europe/Vilnius,FALSE,1440955874
Vydeniai,Vydeniai,Wideniańce|Vydėnai|Videnyay|Videnyantsy,54.1833,24.7333,Lithuania,LT,LTU,Varėna,Varena,LT-55,"district municipality",,9.4,413,413,3,Europe/Vilnius,FALSE,1440288129
Tetirvinai,Tetirvinai,Tetervinai|Tetirvinų|Tyatirvinay|Tetirvinay,56.1140,24.3500,Lithuania,LT,LTU,Pasvalys,Pasvalys,LT-34,"district municipality",,18.4,412,412,4,Europe/Vilnius,FALSE,1440518947
Jūžintai,Juzintai,Yuzhintai|Jūžintų|Yuzhinty|Yuzhintay,55.7750,25.6750,Lithuania,LT,LTU,Rokiškis,Rokiskis,LT-40,"district municipality",,16.6,412,412,4,Europe/Vilnius,FALSE,1440926558
Linkaučiai,Linkauciai,,55.4690,24.1530,Lithuania,LT,LTU,Panevėžys,Panevezys,LT-33,"district municipality",,16.9,411,411,4,Europe/Vilnius,FALSE,1440263550
Padovinys,Padovinys,Podavine|Padovinis|Padovenio,54.5000,23.4580,Lithuania,LT,LTU,Marijampolė,Marijampole,LT-25,"district municipality",,73.3,411,411,4,Europe/Vilnius,FALSE,1440623286
Sudeikiai,Sudeikiai,Sudeikių|Sudeiki|Sudeykyay,55.5831,25.6811,Lithuania,LT,LTU,Utena,Utena,LT-54,"district municipality",,32.5,407,407,3,Europe/Vilnius,FALSE,1440731922
Troškūnai,Troskunai,Troškūnų|Troshkuny|Traszkuny|Troshkunay|Trashkury|Troshkunai,55.5861,24.8694,Lithuania,LT,LTU,Anykščiai,Anyksciai,LT-04,"district municipality",,13.6,407,407,3,Europe/Vilnius,FALSE,1440179379
Vainiūnai,Vainiunai,,55.6580,23.7860,Lithuania,LT,LTU,Radviliškis,Radviliskis,LT-37,"district municipality",,22.1,406,406,4,Europe/Vilnius,FALSE,1440422727
Kulva,Kulva,Kulvos,55.1083,24.1778,Lithuania,LT,LTU,Jonava,Jonava,LT-10,"district municipality",,44.9,405,405,3,Europe/Vilnius,FALSE,1440744964
Debeikiai,Debeikiai,Debeikių|Dobeyki|Dobejki|Debeykyay,55.5806,25.3222,Lithuania,LT,LTU,Anykščiai,Anyksciai,LT-04,"district municipality",,13.6,404,404,3,Europe/Vilnius,FALSE,1440415243
Pakalniškės,Pakalniskes,Pokal’nishki|Pakalniskių,54.7530,24.7580,Lithuania,LT,LTU,Elektrénai,Elektrenai,LT-08,municipality,,70.0,404,404,4,Europe/Vilnius,FALSE,1440507513
Kalnujai,Kalnujai,Kalnujų|Kolnuy,55.3281,23.0939,Lithuania,LT,LTU,Raseiniai,Raseiniai,LT-38,"district municipality",,21.2,402,402,4,Europe/Vilnius,FALSE,1440152571
Mikoliškis,Mikoliskis,Mikhalishki|Mikališkis,55.9000,24.2360,Lithuania,LT,LTU,Pasvalys,Pasvalys,LT-34,"district municipality",,18.4,402,402,4,Europe/Vilnius,FALSE,1440587307
Užunevėžiai,Uzuneveziai,,55.5560,24.6220,Lithuania,LT,LTU,Panevėžys,Panevezys,LT-33,"district municipality",,16.9,402,402,4,Europe/Vilnius,FALSE,1440930680
Karčemos,Karcemos,Karchyamay|Karčemų|Karčemai|Karchemay|Karčiamai,55.7830,23.6030,Lithuania,LT,LTU,Radviliškis,Radviliskis,LT-37,"district municipality",,22.1,402,402,4,Europe/Vilnius,FALSE,1440867487
Gudžiai,Gudziai,Gudzi,54.3167,24.4500,Lithuania,LT,LTU,Varėna,Varena,LT-55,"district municipality",,9.4,400,400,3,Europe/Vilnius,FALSE,1440892119
Daukniūnai,Daukniunai,Daukniūnų|Dauknyunay,55.7670,24.2220,Lithuania,LT,LTU,Panevėžys,Panevezys,LT-33,"district municipality",,16.9,400,400,4,Europe/Vilnius,FALSE,1440058861
Pašeimeniai,Paseimeniai,,54.5470,23.0720,Lithuania,LT,LTU,Vilkaviškis,Vilkaviskis,LT-56,"district municipality",,29.1,400,400,4,Europe/Vilnius,FALSE,1440724981
Gardamas,Gardamas,Gardamų,55.4083,21.6611,Lithuania,LT,LTU,Šilutė,Silute,LT-46,"district municipality",,32.9,398,398,3,Europe/Vilnius,FALSE,1440373132
Paverpenis,Paverpenis,Butkiai|Paverpyay,55.6530,22.9670,Lithuania,LT,LTU,Kelmė,Kelme,LT-19,"district municipality",,16.0,398,398,4,Europe/Vilnius,FALSE,1440405934
Užupiai,Uzupiai,Užupių|Uzhupe,54.3580,24.1250,Lithuania,LT,LTU,Alytus,Alytus,LT-03,"district municipality",,17.7,398,398,4,Europe/Vilnius,FALSE,1440731397
Turmantas,Turmantas,Turmont|Turmuntas,55.6944,26.4611,Lithuania,LT,LTU,Zarasai,Zarasai,LT-60,"district municipality",,14.5,397,397,3,Europe/Vilnius,FALSE,1440137930
Medingėnai,Medingenai,Medingenų|Medingenay,55.8139,22.0667,Lithuania,LT,LTU,Rietavas,Rietavas,LT-39,municipality,,13.2,396,396,4,Europe/Vilnius,FALSE,1440279380
Linkaičiai,Linkaiciai,Linkaychyay|Linkaičių,55.7720,23.5830,Lithuania,LT,LTU,Radviliškis,Radviliskis,LT-37,"district municipality",,22.1,396,396,4,Europe/Vilnius,FALSE,1440572097
Kairiškiai,Kairiskiai,Kajryszla|Kairiškių|Kayrishkyay,56.1280,22.5890,Lithuania,LT,LTU,Akmenė,Akmene,LT-01,"district municipality",,23.5,396,396,4,Europe/Vilnius,FALSE,1440968326
Rudiliai,Rudiliai,Rudilyay|Rudilių|Rudelyay,55.7610,24.9000,Lithuania,LT,LTU,Kupiškis,Kupiskis,LT-23,"district municipality",,16.0,395,395,4,Europe/Vilnius,FALSE,1440801339
Katinai,Katinai,Katyne,55.6000,24.4140,Lithuania,LT,LTU,Panevėžys,Panevezys,LT-33,"district municipality",,16.9,392,392,4,Europe/Vilnius,FALSE,1440317234
Bartninkai,Bartninkai,Bartininkai|Bartininkay|Bartinki|Bartininkų,54.5011,23.0256,Lithuania,LT,LTU,Vilkaviškis,Vilkaviskis,LT-56,"district municipality",,29.1,390,390,4,Europe/Vilnius,FALSE,1440528663
Bazilionai,Bazilionai,Padubisio|Bernotai|Bazilënay|Padubysys|Padubysis|Padubysio,55.7944,23.1389,Lithuania,LT,LTU,Šiauliai,Siauliai,LT-44,"district municipality",,50.3,390,390,3,Europe/Vilnius,FALSE,1440590544
Slabada,Slabada,Sloboda,55.3920,23.0420,Lithuania,LT,LTU,Raseiniai,Raseiniai,LT-38,"district municipality",,21.2,389,389,4,Europe/Vilnius,FALSE,1440635711
Obelaukiai,Obelaukiai,Obyalaukyay,56.1920,24.8360,Lithuania,LT,LTU,Biržai,Birzai,LT-06,"district municipality",,15.7,387,387,4,Europe/Vilnius,FALSE,1440160565
Serdokai,Serdokai,,54.6310,23.0890,Lithuania,LT,LTU,Vilkaviškis,Vilkaviskis,LT-56,"district municipality",,29.1,386,386,4,Europe/Vilnius,FALSE,1440491795
Papyvesiai,Papyvesiai,Papivesių|Papievesiai|Papwesiai|Popivesyay|Popuvesyay,56.0860,24.4530,Lithuania,LT,LTU,Pasvalys,Pasvalys,LT-34,"district municipality",,18.4,386,386,4,Europe/Vilnius,FALSE,1440644604
Blinstrubiškiai,Blinstrubiskiai,"Blinstrubiškių|Blinstrubiškiai Pirmieji|Blinstrubishkyay",55.3919,22.9281,Lithuania,LT,LTU,Raseiniai,Raseiniai,LT-38,"district municipality",,21.2,385,385,4,Europe/Vilnius,FALSE,1440027357
Kariotiškės,Kariotiskes,,54.6750,25.0140,Lithuania,LT,LTU,Trakai,Trakai,LT-52,"district municipality",,44.9,385,385,4,Europe/Vilnius,FALSE,1440391954
Pavoverė,Pavovere,Powiewiórka|Poveviorka|Padverė,54.9750,25.8500,Lithuania,LT,LTU,Švenčionys,Svencionys,LT-49,"district municipality",,14.2,384,384,4,Europe/Vilnius,FALSE,1440997752
Kunigiškiai,Kunigiskiai,Kunigishki|Kunigishkyay,55.2560,22.4220,Lithuania,LT,LTU,Tauragė,Taurage,LT-50,"district municipality",,31.6,384,384,4,Europe/Vilnius,FALSE,1440103217
Ažuožeriai,Azuozeriai,,55.5028,25.0333,Lithuania,LT,LTU,Anykščiai,Anyksciai,LT-04,"district municipality",,13.6,383,383,3,Europe/Vilnius,FALSE,1440846631
Griniai,Griniai,Prine,55.5470,22.8110,Lithuania,LT,LTU,Kelmė,Kelme,LT-19,"district municipality",,16.0,383,383,4,Europe/Vilnius,FALSE,1440229767
Šakyna,Sakyna,Shakina|Shakinay|Šakynos|Szakinów,56.1778,23.1222,Lithuania,LT,LTU,Šiauliai,Siauliai,LT-44,"district municipality",,50.3,382,382,4,Europe/Vilnius,FALSE,1440388495
Vatušiai,Vatusiai,Vatušių|Vatushey,55.7190,21.9470,Lithuania,LT,LTU,Rietavas,Rietavas,LT-39,municipality,,13.0,382,382,4,Europe/Vilnius,FALSE,1440448482
Tetėnai,Tetenai,"Okalitsa Tetyantsy|Tetenay",54.3061,24.9639,Lithuania,LT,LTU,Šalčininkai,Salcininkai,LT-42,"district municipality",,20.3,381,381,4,Europe/Vilnius,FALSE,1440214423
Skirgiškės,Skirgiskes,,54.8381,25.3711,Lithuania,LT,LTU,Vilnius,Vilnius,LT-58,"district municipality",,49.0,381,381,3,Europe/Vilnius,FALSE,1440661187
Pikeliai,Pikeliai,Pikelių|Pikelyay,56.4169,22.1111,Lithuania,LT,LTU,Mažeikiai,Mazeikiai,LT-26,"district municipality",,37.1,378,378,3,Europe/Vilnius,FALSE,1440777475
Upyna,Upyna,Upyno|Upina|Upynas|Upinas,55.4500,22.4389,Lithuania,LT,LTU,Šilalė,Silale,LT-45,"district municipality",,20.0,375,375,3,Europe/Vilnius,FALSE,1440050648
Žilpamūšis,Zilpamusis,Sokiai|Zhilpamushis,56.1580,24.4420,Lithuania,LT,LTU,Pasvalys,Pasvalys,LT-34,"district municipality",,18.4,375,375,4,Europe/Vilnius,FALSE,1440189254
Pėžaičiai,Pezaiciai,Pöszeiten|Pezhaychey,55.5830,21.4920,Lithuania,LT,LTU,Klaipėda,Klaipeda,LT-21,"district municipality",,46.6,374,374,4,Europe/Vilnius,FALSE,1440484610
Kurkliai,Kurkliai,Kurkle|Kurklyay|Kurklių|Kurkli,55.4111,25.0667,Lithuania,LT,LTU,Anykščiai,Anyksciai,LT-04,"district municipality",,13.6,374,374,3,Europe/Vilnius,FALSE,1440584460
Šliktinė,Sliktine,,56.1220,21.7640,Lithuania,LT,LTU,Skuodas,Skuodas,LT-48,"district municipality",,17.9,373,373,4,Europe/Vilnius,FALSE,1440299497
Strielčiai,Strielciai,Strzhel’tse,54.6750,23.9470,Lithuania,LT,LTU,Prienai,Prienai,LT-36,"district municipality",,24.8,373,373,4,Europe/Vilnius,FALSE,1440074359
Troškučiai,Troskuciai,,56.3130,22.2790,Lithuania,LT,LTU,Mažeikiai,Mazeikiai,LT-26,"district municipality",,40.2,371,371,4,Europe/Vilnius,FALSE,1440131395
Voveriškiai,Voveriskiai,Vorverishkyay,55.9360,23.2440,Lithuania,LT,LTU,Šiauliai,Siauliai,LT-44,"district municipality",,50.3,370,370,4,Europe/Vilnius,FALSE,1440125628
Einoraičiai,Einoraiciai,Eynorachyay,55.8190,23.3170,Lithuania,LT,LTU,Šiauliai,Siauliai,LT-44,"district municipality",,50.3,370,370,4,Europe/Vilnius,FALSE,1440024027
Teneniai,Teneniai,Teninay|Teneni|Tyanyanyay|Tenenai|Tenenyay|Tenėnių,55.4611,21.9139,Lithuania,LT,LTU,Šilalė,Silale,LT-45,"district municipality",,20.0,369,369,3,Europe/Vilnius,FALSE,1440544337
Veriškės,Veriskes,,54.8970,25.4810,Lithuania,LT,LTU,Vilnius,Vilnius,LT-58,"district municipality",,49.0,369,369,4,Europe/Vilnius,FALSE,1440341345
Rinkūnai,Rinkunai,,55.9670,24.4250,Lithuania,LT,LTU,Pasvalys,Pasvalys,LT-34,"district municipality",,18.4,367,367,4,Europe/Vilnius,FALSE,1440614539
Reivyčiai,Reivyciai,Reivyčių|Rieviečiai|Reivičiai|Reyvichay,56.3420,22.3280,Lithuania,LT,LTU,Mažeikiai,Mazeikiai,LT-26,"district municipality",,40.2,367,367,4,Europe/Vilnius,FALSE,1440648681
Kvetkai,Kvetkai,Kvetki|Kvetkay|Kvietkų|Kvietkai,56.1333,25.1333,Lithuania,LT,LTU,Biržai,Birzai,LT-06,"district municipality",,15.7,366,366,3,Europe/Vilnius,FALSE,1440015164
Karkažiškė,Karkaziske,Korkożyszki|Korkozhishki|Karkožiškis|Karkažiškės|Karkazhishke,54.9500,25.7470,Lithuania,LT,LTU,Švenčionys,Svencionys,LT-49,"district municipality",,14.2,365,365,4,Europe/Vilnius,FALSE,1440783684
Taujėnai,Taujenai,Tauyenay|Taujėnų|Taunenay|Towiany|Tovyany,55.3919,24.7639,Lithuania,LT,LTU,Ukmergė,Ukmerge,LT-53,"district municipality",,24.2,365,365,3,Europe/Vilnius,FALSE,1440888557
Gasčiūnai,Gasciunai,Gashchyunay,56.1470,23.6250,Lithuania,LT,LTU,Joniškis,Joniskis,LT-11,"district municipality",,19.1,364,364,4,Europe/Vilnius,FALSE,1440028175
Puodžiai,Puodziai,,54.3561,24.6389,Lithuania,LT,LTU,Varėna,Varena,LT-55,"district municipality",,9.4,363,363,3,Europe/Vilnius,FALSE,1440410322
Varpučiai,Varpuciai,,55.7140,24.2560,Lithuania,LT,LTU,Panevėžys,Panevezys,LT-33,"district municipality",,16.9,363,363,4,Europe/Vilnius,FALSE,1440880084
Pelaičiai,Pelaiciai,Palaychey,55.7030,21.9330,Lithuania,LT,LTU,Rietavas,Rietavas,LT-39,municipality,,13.0,362,362,4,Europe/Vilnius,FALSE,1440048928
Panoviai,Panoviai,Ponove|Panovyay,54.9030,22.8440,Lithuania,LT,LTU,Šakiai,Sakiai,LT-41,"district municipality",,16.5,361,361,4,Europe/Vilnius,FALSE,1440900437
Klampučiai,Klampuciai,,54.5780,22.9610,Lithuania,LT,LTU,Vilkaviškis,Vilkaviskis,LT-56,"district municipality",,29.1,361,361,4,Europe/Vilnius,FALSE,1440474405
Panoteriai,Panoteriai,Panoterių|Panaterių|Panoteryay|Kaplice,55.1944,24.4278,Lithuania,LT,LTU,Jonava,Jonava,LT-10,"district municipality",,44.9,360,360,3,Europe/Vilnius,FALSE,1440374016
Užuperkasis,Uzuperkasis,,54.3500,24.8500,Lithuania,LT,LTU,Varėna,Varena,LT-55,"district municipality",,9.4,359,359,3,Europe/Vilnius,FALSE,1440090367
"Sena Pašaminė","Sena Pasamine",,55.2110,26.0580,Lithuania,LT,LTU,Švenčionys,Svencionys,LT-49,"district municipality",,14.2,359,359,4,Europe/Vilnius,FALSE,1440306220
Vilučiai,Viluciai,,55.7030,25.5250,Lithuania,LT,LTU,Utena,Utena,LT-54,"district municipality",,32.5,359,359,4,Europe/Vilnius,FALSE,1440821706
Pagiriai,Pagiriai,Pagirys|Pagiryay|Pagiryai|Pagirių|Pogiry|Pagiris,55.3611,24.4000,Lithuania,LT,LTU,Kėdainiai,Kedainiai,LT-18,"district municipality",,27.3,358,358,4,Europe/Vilnius,FALSE,1440951432
Ūdekai,Udekai,Udekay|Udyakay|Udekių|Udekiai|Udeka,56.1560,24.0220,Lithuania,LT,LTU,Pakruojis,Pakruojis,LT-30,"district municipality",,15.0,357,357,4,Europe/Vilnius,FALSE,1440356429
Stirnėnai,Stirnenai,,54.7170,23.1000,Lithuania,LT,LTU,Vilkaviškis,Vilkaviskis,LT-56,"district municipality",,29.1,357,357,4,Europe/Vilnius,FALSE,1440161286
Šedbarai,Sedbarai,Shadbary|Shadbaray,55.6560,23.2560,Lithuania,LT,LTU,Kelmė,Kelme,LT-19,"district municipality",,16.0,357,357,4,Europe/Vilnius,FALSE,1440233418
Stačiūnai,Staciunai,Stačiūnų|Stachyunay|Stachiunay,55.9390,23.6310,Lithuania,LT,LTU,Pakruojis,Pakruojis,LT-30,"district municipality",,15.0,356,356,4,Europe/Vilnius,FALSE,1440307501
Viršužiglis,Virsuziglis,Vershozhigle|Viršužeglio|Viršužeglis|Viršužegliai|Virshuzhiglis,54.8280,24.1830,Lithuania,LT,LTU,Kaunas,Kaunas,LT-16,"district municipality",,61.6,356,356,4,Europe/Vilnius,FALSE,1440180361
Kiduliai,Kiduliai,Kidule|Kidulyay,55.0639,22.7889,Lithuania,LT,LTU,Šakiai,Sakiai,LT-41,"district municipality",,20.0,354,354,4,Europe/Vilnius,FALSE,1440470903
Daukšaičiai,Dauksaiciai,,55.5690,21.6390,Lithuania,LT,LTU,Klaipėda,Klaipeda,LT-21,"district municipality",,46.6,354,354,4,Europe/Vilnius,FALSE,1440533840
Vilkiautinis,Vilkiautinis,Vilkiautinių|Vil’kyautinis,54.1167,24.0167,Lithuania,LT,LTU,Varėna,Varena,LT-55,"district municipality",,20.8,353,353,3,Europe/Vilnius,FALSE,1440135700
Daugailiai,Daugailiai,Daugaylyay|Daugailių|Dowgiele|Daugiele,55.5889,25.8361,Lithuania,LT,LTU,Utena,Utena,LT-54,"district municipality",,32.5,351,351,3,Europe/Vilnius,FALSE,1440959774
Rukai,Rukai,Rūkų|Rukay|Ruki,56.1780,21.6690,Lithuania,LT,LTU,Skuodas,Skuodas,LT-48,"district municipality",,17.9,351,351,4,Europe/Vilnius,FALSE,1440678403
Keleriškiai,Keleriskiai,Kyalyarishkyay,55.2778,23.9194,Lithuania,LT,LTU,Kėdainiai,Kedainiai,LT-18,"district municipality",,27.3,351,351,3,Europe/Vilnius,FALSE,1440743816
Pakertai,Pakertai,,54.7690,24.4390,Lithuania,LT,LTU,Kaišiadorys,Kaisiadorys,LT-13,"district municipality",,26.8,351,351,4,Europe/Vilnius,FALSE,1440697249
Vaidlonys,Vaidlonys,,55.5890,24.8560,Lithuania,LT,LTU,Anykščiai,Anyksciai,LT-04,"district municipality",,13.6,351,351,4,Europe/Vilnius,FALSE,1440889349
Pašvitinys,Pasvitinys,Poshvityn|Pašvitinio|Pašvintinys|Pashvitinis|Pašvintinio,56.1611,23.8167,Lithuania,LT,LTU,Pakruojis,Pakruojis,LT-30,"district municipality",,15.0,350,350,4,Europe/Vilnius,FALSE,1440058437
Graziškiai,Graziskiai,Gražiškių|Grazhishki|Grazhishkyay|Gražiškiai,54.4694,22.9222,Lithuania,LT,LTU,Vilkaviškis,Vilkaviskis,LT-56,"district municipality",,29.1,349,349,4,Europe/Vilnius,FALSE,1440419526
Pramedžiava,Pramedziava,,55.2610,23.2140,Lithuania,LT,LTU,Raseiniai,Raseiniai,LT-38,"district municipality",,21.2,348,348,4,Europe/Vilnius,FALSE,1440274317
Šilai,Silai,,55.1222,24.3306,Lithuania,LT,LTU,Jonava,Jonava,LT-10,"district municipality",,44.9,347,347,4,Europe/Vilnius,FALSE,1440041766
Nevėžis,Nevezis,,55.6420,24.5920,Lithuania,LT,LTU,Panevėžys,Panevezys,LT-33,"district municipality",,16.9,346,346,4,Europe/Vilnius,FALSE,1440600171
Valavičiai,Valaviciai,Valaičiai,54.4920,23.2030,Lithuania,LT,LTU,Marijampolė,Marijampole,LT-25,"district municipality",,73.3,346,346,4,Europe/Vilnius,FALSE,1440037757
Pakalniškiai,Pakalniskiai,"Pakalniškių|Pakalniškiai I|Pakalnishkyay|Pakalniškiai Pirmieji",55.7690,23.8440,Lithuania,LT,LTU,Radviliškis,Radviliskis,LT-37,"district municipality",,22.1,345,345,4,Europe/Vilnius,FALSE,1440585796
Daugeliškiai,Daugeliskiai,Daugeliškis|Dovgalishki|Daugėliškiai,55.1000,23.5390,Lithuania,LT,LTU,Kaunas,Kaunas,LT-16,"district municipality",,61.6,345,345,4,Europe/Vilnius,FALSE,1440211460
Pakumulšiai,Pakumulsiai,,56.0000,22.8810,Lithuania,LT,LTU,Šiauliai,Siauliai,LT-44,"district municipality",,50.3,345,345,4,Europe/Vilnius,FALSE,1440286696
Daugėlaičiai,Daugelaiciai,,55.7440,23.5000,Lithuania,LT,LTU,Radviliškis,Radviliskis,LT-37,"district municipality",,22.1,345,345,4,Europe/Vilnius,FALSE,1440415993
Pakapė,Pakape,Pakapės,55.7830,23.2720,Lithuania,LT,LTU,Šiauliai,Siauliai,LT-44,"district municipality",,50.3,344,344,4,Europe/Vilnius,FALSE,1440590645
Alizava,Alizava,Alizavos,55.9722,25.0000,Lithuania,LT,LTU,Kupiškis,Kupiskis,LT-23,"district municipality",,16.0,344,344,3,Europe/Vilnius,FALSE,1440448215
Saldutiškis,Saldutiskis,Syłgudyszki|Saldatiškio|Trunkuny|Saldutishkis,55.3528,25.8139,Lithuania,LT,LTU,Utena,Utena,LT-54,"district municipality",,32.5,343,343,4,Europe/Vilnius,FALSE,1440532347
Kazitiškis,Kazitiskis,Kozaczyzna|Kozachizna|Kazitishkis|Kazachizna|Sabališkė,55.4417,26.1444,Lithuania,LT,LTU,Ignalina,Ignalina,LT-09,"district municipality",,11.1,343,343,3,Europe/Vilnius,FALSE,1440958148
Kaukolikai,Kaukolikai,Kaukoliki|Kaukolikay|Kaukolikyay|Kaukolikų,56.2330,21.7190,Lithuania,LT,LTU,Skuodas,Skuodas,LT-48,"district municipality",,17.9,342,342,3,Europe/Vilnius,FALSE,1440610984
Pačkėnai,Packenai,,55.4530,25.6110,Lithuania,LT,LTU,Utena,Utena,LT-54,"district municipality",,32.5,340,340,4,Europe/Vilnius,FALSE,1440565338
Žarėnai,Zarenai,"Žarėnai Latveliai|Latveliai|Žarėnų|Zharenay",56.1750,23.0440,Lithuania,LT,LTU,Šiauliai,Siauliai,LT-44,"district municipality",,50.2,340,340,4,Europe/Vilnius,FALSE,1440438329
Bertužiai,Bertuziai,Bertuzhyay,55.9140,23.3970,Lithuania,LT,LTU,Šiauliai,Siauliai,LT-44,"district municipality",,50.3,339,339,4,Europe/Vilnius,FALSE,1440286911
Žiobiškis,Ziobiskis,Žiobiškio|Zhëbishkis|Zhiobishkis|Żabiszki,56.0190,25.4720,Lithuania,LT,LTU,Rokiškis,Rokiskis,LT-40,"district municipality",,16.6,339,339,4,Europe/Vilnius,FALSE,1440895404
Mažeikoniai,Mazeikoniai,Mazheykonay|Mazheykenay|Mazheykonyay,56.0030,23.8580,Lithuania,LT,LTU,Pakruojis,Pakruojis,LT-30,"district municipality",,15.0,338,338,4,Europe/Vilnius,FALSE,1440081639
Vileikiškiai,Vileikiskiai,,54.9890,24.8780,Lithuania,LT,LTU,Širvintos,Sirvintos,LT-47,"district municipality",,17.9,338,338,4,Europe/Vilnius,FALSE,1440476214
Stabintiškės,Stabintiskes,Stabintsishkes|Stabintishkes|Stabinčiškės|Stabinčiškių|Stabiniškės,54.9000,24.5940,Lithuania,LT,LTU,Kaišiadorys,Kaisiadorys,LT-13,"district municipality",,26.8,337,337,4,Europe/Vilnius,FALSE,1440056890
Vaisodžiai,Vaisodziai,,54.4475,24.1226,Lithuania,LT,LTU,Alytus,Alytus,LT-03,"district municipality",,17.7,337,337,4,Europe/Vilnius,FALSE,1440522139
Kareivonys,Kareivonys,Kareivonių|Koreyvyantsy,54.7500,24.5890,Lithuania,LT,LTU,Elektrénai,Elektrenai,LT-08,municipality,,26.8,335,335,4,Europe/Vilnius,FALSE,1440598892
Karvys,Karvys,Korwie|Korve|Karvė|Korviai,54.8778,25.1333,Lithuania,LT,LTU,Vilnius,Vilnius,LT-58,"district municipality",,49.0,335,335,4,Europe/Vilnius,FALSE,1440513759
Žaiginys,Zaiginys,Žoginie|Žaiginis|Žaiginio|Zhayginis,55.4917,23.3333,Lithuania,LT,LTU,Raseiniai,Raseiniai,LT-38,"district municipality",,21.2,335,335,4,Europe/Vilnius,FALSE,1440897119
Ziniūnai,Ziniunai,Zinyunay,56.2220,23.5780,Lithuania,LT,LTU,Joniškis,Joniskis,LT-11,"district municipality",,19.1,335,335,4,Europe/Vilnius,FALSE,1440311966
Teiberiai,Teiberiai,,54.7080,23.0250,Lithuania,LT,LTU,Vilkaviškis,Vilkaviskis,LT-56,"district municipality",,29.1,334,334,4,Europe/Vilnius,FALSE,1440271318
Trūdai,Trudai,,55.1500,26.0310,Lithuania,LT,LTU,Švenčionys,Svencionys,LT-49,"district municipality",,14.2,333,333,4,Europe/Vilnius,FALSE,1440768138
Paprūdžiai,Paprudziai,,54.5670,23.8560,Lithuania,LT,LTU,Prienai,Prienai,LT-36,"district municipality",,24.8,331,331,4,Europe/Vilnius,FALSE,1440589761
Pašušvys,Pasusvys,Poshushve|Pašušvio|Pašiušvys|Pašušvis|Pašušys,55.5833,23.5917,Lithuania,LT,LTU,Radviliškis,Radviliskis,LT-37,"district municipality",,22.1,331,331,4,Europe/Vilnius,FALSE,1440659991
Rečionys,Recionys,,55.3000,24.7890,Lithuania,LT,LTU,Ukmergė,Ukmerge,LT-53,"district municipality",,24.2,330,330,4,Europe/Vilnius,FALSE,1440816925
Purvėnai,Purvenai,Purvyany,54.1719,24.9219,Lithuania,LT,LTU,Šalčininkai,Salcininkai,LT-42,"district municipality",,20.3,330,330,4,Europe/Vilnius,FALSE,1440846971
Šventragis,Sventragis,Sventragis|Sventaragis,54.5440,23.6470,Lithuania,LT,LTU,Marijampolė,Marijampole,LT-25,"district municipality",,73.3,329,329,4,Europe/Vilnius,FALSE,1440362695
Dituva,Dituva,Ditava,55.5970,21.2890,Lithuania,LT,LTU,Klaipėda,Klaipeda,LT-21,"district municipality",,46.6,329,329,4,Europe/Vilnius,FALSE,1440627783
Užkalniai,Uzkalniai,Uzhkal’nyay|Ushkal’ne,55.4560,22.7220,Lithuania,LT,LTU,Raseiniai,Raseiniai,LT-38,"district municipality",,21.2,327,327,4,Europe/Vilnius,FALSE,1440284709
Rubikiai,Rubikiai,Rubikai|Rubiki|Rubikių,55.5167,25.2500,Lithuania,LT,LTU,Anykščiai,Anyksciai,LT-04,"district municipality",,13.6,326,326,3,Europe/Vilnius,FALSE,1440281610
Čiobiškis,Ciobiskis,Czabiszki|Čiobiškio|Chuobishkis|Chobashkis|Chiobishkis|Chebishkis|Čiubiškis|Čiobiškių|Chabishi,54.9530,24.6530,Lithuania,LT,LTU,Širvintos,Sirvintos,LT-47,"district municipality",,26.8,325,325,4,Europe/Vilnius,FALSE,1440944753
Jauniūnai,Jauniunai,Yaunyunay|Jauniūnų|Yavnelyay,56.1061,23.4919,Lithuania,LT,LTU,Joniškis,Joniskis,LT-11,"district municipality",,19.1,324,324,4,Europe/Vilnius,FALSE,1440571593
Talačkoniai,Talackoniai,Talačkonis|Talachkonyay|Talačkonių,56.0220,24.3560,Lithuania,LT,LTU,Pasvalys,Pasvalys,LT-34,"district municipality",,18.4,324,324,4,Europe/Vilnius,FALSE,1440666027
Pilsūdai,Pilsudai,,55.4140,22.5170,Lithuania,LT,LTU,Tauragė,Taurage,LT-50,"district municipality",,31.6,324,324,4,Europe/Vilnius,FALSE,1440727294
Stonaičiai,Stonaiciai,,55.8890,21.7190,Lithuania,LT,LTU,Plungė,Plunge,LT-35,"district municipality",,35.6,324,324,4,Europe/Vilnius,FALSE,1440363374
Aukštikalniai,Aukstikalniai,,56.0750,24.4170,Lithuania,LT,LTU,Pasvalys,Pasvalys,LT-34,"district municipality",,18.4,323,323,4,Europe/Vilnius,FALSE,1440551043
Stupurai,Stupurai,Stupuray,56.1220,23.5830,Lithuania,LT,LTU,Joniškis,Joniskis,LT-11,"district municipality",,19.1,322,322,4,Europe/Vilnius,FALSE,1440545269
Kreivalaužiai,Kreivalauziai,,54.8580,25.4250,Lithuania,LT,LTU,Vilnius,Vilnius,LT-58,"district municipality",,49.0,321,321,4,Europe/Vilnius,FALSE,1440376789
"Stragnai II","Stragnai II",Stragnai|Stragna,55.5530,21.3310,Lithuania,LT,LTU,Klaipėda,Klaipeda,LT-21,"district municipality",,46.6,321,321,3,Europe/Vilnius,FALSE,1440333402
Kybeikiai,Kybeikiai,Kybeikių|Kibeyki|Kibeykyay,54.6110,22.7470,Lithuania,LT,LTU,Vilkaviškis,Vilkaviskis,LT-56,"district municipality",,29.1,321,321,4,Europe/Vilnius,FALSE,1440021125
Varputėnai,Varputenai,Varputėnų|Varputenay,55.8810,22.8830,Lithuania,LT,LTU,Šiauliai,Siauliai,LT-44,"district municipality",,50.3,320,320,4,Europe/Vilnius,FALSE,1440798820
"Didieji Selviai","Didieji Selviai","Didieji Šelviai",54.6860,23.0140,Lithuania,LT,LTU,Vilkaviškis,Vilkaviskis,LT-56,"district municipality",,29.1,320,320,4,Europe/Vilnius,FALSE,1440738505
Radeikiai,Radeikiai,Radeykyay|Radeikių,55.5560,25.7440,Lithuania,LT,LTU,Utena,Utena,LT-54,"district municipality",,32.5,319,319,4,Europe/Vilnius,FALSE,1440343279
Ramoniškiai,Ramoniskiai,,54.6750,23.2780,Lithuania,LT,LTU,Vilkaviškis,Vilkaviskis,LT-56,"district municipality",,29.1,318,318,4,Europe/Vilnius,FALSE,1440026288
Požečiai,Pozeciai,,55.3310,23.4220,Lithuania,LT,LTU,Raseiniai,Raseiniai,LT-38,"district municipality",,21.2,318,318,4,Europe/Vilnius,FALSE,1440229272
Ferma,Ferma,,56.2420,22.4970,Lithuania,LT,LTU,Mažeikiai,Mazeikiai,LT-26,"district municipality",,40.2,318,318,4,Europe/Vilnius,FALSE,1440733295
Norgėlai,Norgelai,Norgėlių|Norgelay|Noragėlių,55.9720,24.1110,Lithuania,LT,LTU,Pasvalys,Pasvalys,LT-34,"district municipality",,18.4,317,317,4,Europe/Vilnius,FALSE,1440522954
Pavandenė,Pavandene,Pavandenys|Pavandenio|Pavandenis,55.7689,22.4861,Lithuania,LT,LTU,Telšiai,Telsiai,LT-51,"district municipality",,27.4,317,317,4,Europe/Vilnius,FALSE,1440500795
Plikiškiai,Plikiskiai,Pliskiškių|Plikishkyay|Plikiškių,56.3361,23.6639,Lithuania,LT,LTU,Joniškis,Joniskis,LT-11,"district municipality",,19.1,315,315,3,Europe/Vilnius,FALSE,1440115680
Germaniškis,Germaniskis,Gyarmanishkis,56.3750,24.6470,Lithuania,LT,LTU,Biržai,Birzai,LT-06,"district municipality",,14.0,313,313,4,Europe/Vilnius,FALSE,1440174915
Mikalauka,Mikalauka,Mykolynė,54.4331,23.2669,Lithuania,LT,LTU,Kalvarija,Kalvarija,LT-14,municipality,,24.6,312,312,4,Europe/Vilnius,FALSE,1440988205
"Smiltynai I","Smiltynai I",Smiltynai,54.9640,23.9810,Lithuania,LT,LTU,Kaunas,Kaunas,LT-16,"district municipality",,61.6,311,311,4,Europe/Vilnius,FALSE,1440720966
Viekšnaliai,Vieksnaliai,Vekshnelyay|Viekšneliai|Viyekshnalyay,55.8420,22.5110,Lithuania,LT,LTU,Telšiai,Telsiai,LT-51,"district municipality",,27.4,310,310,4,Europe/Vilnius,FALSE,1440972094
Vidkiemis,Vidkiemis,,55.0690,22.5500,Lithuania,LT,LTU,Jurbarkas,Jurbarkas,LT-12,"district municipality",,11.8,310,310,4,Europe/Vilnius,FALSE,1440428023
Prienai,Prienai,Prenay|Preny,54.8720,25.7920,Lithuania,LT,LTU,Švenčionys,Svencionys,LT-49,"district municipality",,14.2,309,309,4,Europe/Vilnius,FALSE,1440022486
Panemunis,Panemunis,Panemun’|Pameniškis|Ponemuni|Ponemuna|Panemunio,56.0611,25.2778,Lithuania,LT,LTU,Rokiškis,Rokiskis,LT-40,"district municipality",,16.6,308,308,3,Europe/Vilnius,FALSE,1440354320
Radžiūnai,Radziunai,Radziūnų|Radzyuny,54.3610,23.9860,Lithuania,LT,LTU,Alytus,Alytus,LT-03,"district municipality",,17.7,307,307,4,Europe/Vilnius,FALSE,1440909759
Darsūniškis,Darsuniskis,Darsunishkis|Dersunishki|Darsūniškių,54.7367,24.1200,Lithuania,LT,LTU,Kaišiadorys,Kaisiadorys,LT-13,"district municipality",,25.8,307,307,4,Europe/Vilnius,FALSE,1440620889
Dargužiai,Darguziai,Darguzhyay|Darguzhi,54.3861,24.8833,Lithuania,LT,LTU,Varėna,Varena,LT-55,"district municipality",,9.4,307,307,3,Europe/Vilnius,FALSE,1440764888
"Didieji Baušiai","Didieji Bausiai","Didžieji Baušiai",54.3250,25.4250,Lithuania,LT,LTU,Šalčininkai,Salcininkai,LT-42,"district municipality",,20.3,306,306,4,Europe/Vilnius,FALSE,1440462051
Maštalieriai,Mastalieriai,,54.4330,23.7560,Lithuania,LT,LTU,Alytus,Alytus,LT-03,"district municipality",,17.7,305,305,4,Europe/Vilnius,FALSE,1440468186
Krikštonys,Krikstonys,Krykshtany|Krikštoniai|Krikštonių|Krikshtonyay,54.2170,23.9250,Lithuania,LT,LTU,Lazdijai,Lazdijai,LT-24,"district municipality",,14.7,304,304,4,Europe/Vilnius,FALSE,1440976503
Suviekas,Suviekas,Suviekų|Suvieko|Suvekas|Suviyenas|Suviyekas,55.8390,26.0890,Lithuania,LT,LTU,Zarasai,Zarasai,LT-60,"district municipality",,13.4,304,304,4,Europe/Vilnius,FALSE,1440624131
Žerkšciai,Zerksciai,,56.1667,22.6833,Lithuania,LT,LTU,Akmenė,Akmene,LT-01,"district municipality",,23.3,303,303,3,Europe/Vilnius,FALSE,1440691390
Žeimiai,Zeimiai,,55.2860,24.6810,Lithuania,LT,LTU,Ukmergė,Ukmerge,LT-53,"district municipality",,24.2,303,303,4,Europe/Vilnius,FALSE,1440562625
Tarvydai,Tarvydai,Tarviday,55.3110,21.5970,Lithuania,LT,LTU,Šilutė,Silute,LT-46,"district municipality",,32.9,302,302,4,Europe/Vilnius,FALSE,1440554465
Mikėnai,Mikenai,,55.4920,24.4860,Lithuania,LT,LTU,Panevėžys,Panevezys,LT-33,"district municipality",,16.9,301,301,4,Europe/Vilnius,FALSE,1440659381
Netoniai,Netoniai,Netonys|Netonių|Netany,54.9420,23.7110,Lithuania,LT,LTU,Kaunas,Kaunas,LT-16,"district municipality",,61.6,300,300,4,Europe/Vilnius,FALSE,1440990733
Terešiškės,Teresiskes,"Terešiškės Senosios|Staryye Tarashishki|Terešiškės Naujosios|Terešiškės Naujos|Novyye Tarashishki",54.4860,25.2470,Lithuania,LT,LTU,Vilnius,Vilnius,LT-58,"district municipality",,44.2,300,300,4,Europe/Vilnius,FALSE,1440023900
Pabiržė,Pabirze,Pabiržės|Pabirzhe|Pabirzhay,56.1889,24.6417,Lithuania,LT,LTU,Biržai,Birzai,LT-06,"district municipality",,15.7,300,300,4,Europe/Vilnius,FALSE,1440461843
Lukonys,Lukonys,Lukantse,55.7970,24.7720,Lithuania,LT,LTU,Kupiškis,Kupiskis,LT-23,"district municipality",,16.0,299,299,4,Europe/Vilnius,FALSE,1440401962
Nairiai,Nairiai,Nayryay,56.2060,24.1500,Lithuania,LT,LTU,Pasvalys,Pasvalys,LT-34,"district municipality",,18.4,299,299,4,Europe/Vilnius,FALSE,1440059602
Lieplaukė,Lieplauke,Leplauke|Liyeplauke|Lieplaukės,55.9670,22.1060,Lithuania,LT,LTU,Telšiai,Telsiai,LT-51,"district municipality",,27.4,297,297,4,Europe/Vilnius,FALSE,1440577739
Rudamina,Rudamina,Rudomin|Rudaminos|Urdomin,54.2889,23.4500,Lithuania,LT,LTU,Lazdijai,Lazdijai,LT-24,"district municipality",,14.7,296,296,3,Europe/Vilnius,FALSE,1440119646
