city,city_ascii,city_alt,lat,lng,country,iso2,iso3,admin_name,admin_name_ascii,admin_code,admin_type,capital,density,population,population_proper,ranking,timezone,same_name,id
Luxembourg,Luxembourg,"Letzeburg|Lucilinburhuc|Lëtzebuerg|Luxemburg|Stadt Luxemburg|Ville de Luxembourg|Stad Lëtzebuerg",49.6117,6.1319,Luxembourg,LU,LUX,Luxembourg,Luxembourg,LU-LU,canton,primary,2580.3,132780,132780,1,Europe/Luxembourg,FALSE,1442262731
Esch-sur-Alzette,Esch-sur-Alzette,Esch|Esch-Uelzecht|Esch-an-der-Alzig|Esch-an-der-Alzette,49.4969,5.9806,Luxembourg,LU,LUX,Esch-sur-Alzette,Esch-sur-Alzette,LU-ES,canton,admin,2552.3,36625,36625,2,Europe/Luxembourg,FALSE,1442192663
Dudelange,Dudelange,Dudelingen,49.4833,6.0833,Luxembourg,LU,LUX,Esch-sur-Alzette,Esch-sur-Alzette,LU-ES,canton,minor,883.6,21953,21953,3,Europe/Luxembourg,FALSE,1442627138
Differdange,Differdange,Differdingen,49.5222,5.8917,Luxembourg,LU,LUX,Esch-sur-Alzette,Esch-sur-Alzette,LU-ES,canton,minor,1071.8,15455,15455,3,Europe/Luxembourg,FALSE,1442264411
Belvaux,Belvaux,Beles,49.5167,5.9333,Luxembourg,LU,LUX,Esch-sur-Alzette,Esch-sur-Alzette,LU-ES,canton,,596.3,7826,7826,3,Europe/Luxembourg,FALSE,1442736816
Rodange,Rodange,,49.5467,5.8397,Luxembourg,LU,LUX,Esch-sur-Alzette,Esch-sur-Alzette,LU-ES,canton,,1582.6,7485,7485,3,Europe/Luxembourg,FALSE,1442461593
Niedercorn,Niedercorn,Niederkorn,49.5333,5.9000,Luxembourg,LU,LUX,Esch-sur-Alzette,Esch-sur-Alzette,LU-ES,canton,,1071.8,7354,7354,3,Europe/Luxembourg,FALSE,1442047773
Diekirch,Diekirch,,49.8681,6.1567,Luxembourg,LU,LUX,Diekirch,Diekirch,LU-DI,canton,admin,533.5,7047,7047,2,Europe/Luxembourg,FALSE,1442382721
Soleuvre,Soleuvre,Zolver|Zolwer,49.5333,5.9333,Luxembourg,LU,LUX,Esch-sur-Alzette,Esch-sur-Alzette,LU-ES,canton,,596.3,6248,6248,3,Europe/Luxembourg,FALSE,1442886695
Bascharage,Bascharage,Niederkerschen,49.5667,5.9167,Luxembourg,LU,LUX,Capellen,Capellen,LU-CA,canton,minor,311.1,5955,5955,3,Europe/Luxembourg,FALSE,1442556101
Steinfort,Steinfort,,49.6600,5.9156,Luxembourg,LU,LUX,Capellen,Capellen,LU-CA,canton,minor,482.8,5871,5871,3,Europe/Luxembourg,FALSE,1442825743
Echternach,Echternach,Iechternach,49.8117,6.4217,Luxembourg,LU,LUX,Echternach,Echternach,LU-EC,canton,admin,286.5,5870,5870,2,Europe/Luxembourg,FALSE,1442794725
Rumelange,Rumelange,Rumelingen,49.4597,6.0306,Luxembourg,LU,LUX,Esch-sur-Alzette,Esch-sur-Alzette,LU-ES,canton,minor,833.4,5692,5692,3,Europe/Luxembourg,FALSE,1442912029
Kayl,Kayl,,49.4861,6.0389,Luxembourg,LU,LUX,Esch-sur-Alzette,Esch-sur-Alzette,LU-ES,canton,minor,490.5,5658,5658,3,Europe/Luxembourg,FALSE,1442304367
Wiltz,Wiltz,Wilz|Wolz,49.9661,5.9325,Luxembourg,LU,LUX,Wiltz,Wiltz,LU-WI,canton,admin,271.7,5427,5427,2,Europe/Luxembourg,FALSE,1442345477
Mondorf-les-Bains,Mondorf-les-Bains,Bains,49.5069,6.2806,Luxembourg,LU,LUX,Remich,Remich,LU-RM,canton,minor,397.1,5424,5424,3,Europe/Luxembourg,FALSE,1442368398
Grevenmacher,Grevenmacher,Gréiwemaacher,49.6806,6.4417,Luxembourg,LU,LUX,Grevenmacher,Grevenmacher,LU-GR,canton,admin,222.7,4981,4981,2,Europe/Berlin,FALSE,1442392954
Frisange,Frisange,,49.5150,6.1917,Luxembourg,LU,LUX,Esch-sur-Alzette,Esch-sur-Alzette,LU-ES,canton,minor,266.5,4912,4912,3,Europe/Luxembourg,FALSE,1442673476
Obercorn,Obercorn,Oberkorn,49.5167,5.9000,Luxembourg,LU,LUX,Esch-sur-Alzette,Esch-sur-Alzette,LU-ES,canton,,1071.8,4613,4613,3,Europe/Luxembourg,FALSE,1442535199
Béreldange,Bereldange,,49.6500,6.1333,Luxembourg,LU,LUX,Luxembourg,Luxembourg,LU-LU,canton,,858.2,4454,4454,3,Europe/Luxembourg,FALSE,1442367766
Remich,Remich,Réimech,49.5444,6.3667,Luxembourg,LU,LUX,Remich,Remich,LU-RM,canton,admin,759.0,4015,4015,2,Europe/Luxembourg,FALSE,1442971283
Tétange,Tetange,,49.4833,6.0500,Luxembourg,LU,LUX,Esch-sur-Alzette,Esch-sur-Alzette,LU-ES,canton,,490.5,4010,4010,3,Europe/Luxembourg,FALSE,1442628761
Sandweiler,Sandweiler,,49.6133,6.2189,Luxembourg,LU,LUX,Luxembourg,Luxembourg,LU-LU,canton,minor,390.8,3667,3667,3,Europe/Luxembourg,FALSE,1442611405
Junglinster,Junglinster,,49.7111,6.2514,Luxembourg,LU,LUX,Grevenmacher,Grevenmacher,LU-GR,canton,minor,128.1,3576,3576,3,Europe/Luxembourg,FALSE,1442912470
Wasserbillig,Wasserbillig,,49.7167,6.5000,Luxembourg,LU,LUX,Grevenmacher,Grevenmacher,LU-GR,canton,,186.3,3160,3160,3,Europe/Berlin,FALSE,1442133009
Bridel,Bridel,,49.6575,6.0806,Luxembourg,LU,LUX,Capellen,Capellen,LU-CA,canton,,586.7,3152,3152,3,Europe/Luxembourg,FALSE,1442723358
Lamadelaine,Lamadelaine,Rollingen|Lamadeleine,49.5500,5.8500,Luxembourg,LU,LUX,Esch-sur-Alzette,Esch-sur-Alzette,LU-ES,canton,,1583.0,3122,3122,3,Europe/Luxembourg,FALSE,1442735453
Helmsange,Helmsange,,49.6500,6.1333,Luxembourg,LU,LUX,Luxembourg,Luxembourg,LU-LU,canton,,957.9,3000,3000,3,Europe/Luxembourg,FALSE,1442248442
Hesperange,Hesperange,,49.5708,6.1514,Luxembourg,LU,LUX,Luxembourg,Luxembourg,LU-LU,canton,minor,678.7,2804,2804,3,Europe/Luxembourg,FALSE,1442343146
Fentange,Fentange,,49.5667,6.1500,Luxembourg,LU,LUX,Luxembourg,Luxembourg,LU-LU,canton,,678.7,2627,2627,3,Europe/Luxembourg,FALSE,1442673064
Itzig,Itzig,,49.5833,6.1667,Luxembourg,LU,LUX,Luxembourg,Luxembourg,LU-LU,canton,,678.7,2360,2360,3,Europe/Luxembourg,FALSE,1442050286
Alzingen,Alzingen,Altzingen,49.5667,6.1667,Luxembourg,LU,LUX,Luxembourg,Luxembourg,LU-LU,canton,,678.7,2224,2224,3,Europe/Luxembourg,FALSE,1442781389
Vianden,Vianden,Veianen,49.9000,6.2000,Luxembourg,LU,LUX,Vianden,Vianden,LU-VD,canton,admin,188.8,2161,2161,2,Europe/Luxembourg,FALSE,1442979391
Rollingen,Rollingen,,49.7400,6.1128,Luxembourg,LU,LUX,Mersch,Mersch,LU-ME,canton,,167.5,2155,2155,3,Europe/Luxembourg,FALSE,1442252177
Eischen,Eischen,,49.6844,5.8781,Luxembourg,LU,LUX,Capellen,Capellen,LU-CA,canton,,224.9,2086,2086,3,Europe/Luxembourg,FALSE,1442389792
Schieren,Schieren,,49.8306,6.0986,Luxembourg,LU,LUX,Diekirch,Diekirch,LU-DI,canton,minor,132.8,2062,2062,3,Europe/Luxembourg,FALSE,1442803152
Clemency,Clemency,Küntzig|Kuentzig,49.5958,5.8750,Luxembourg,LU,LUX,Capellen,Capellen,LU-CA,canton,,138.9,2018,2018,3,Europe/Luxembourg,FALSE,1442133826
Roodt-sur-Syre,Roodt-sur-Syre,Roodt,49.6667,6.3000,Luxembourg,LU,LUX,Grevenmacher,Grevenmacher,LU-GR,canton,,157.8,2017,2017,3,Europe/Luxembourg,FALSE,1442405787
Capellen,Capellen,Kapellen,49.6444,5.9897,Luxembourg,LU,LUX,Capellen,Capellen,LU-CA,canton,admin,281.2,1986,1986,2,Europe/Luxembourg,FALSE,1442533571
Gonderange,Gonderange,,49.6917,6.2492,Luxembourg,LU,LUX,Grevenmacher,Grevenmacher,LU-GR,canton,,128.1,1965,1965,3,Europe/Luxembourg,FALSE,1442247229
Heisdorf,Heisdorf,Heisdorf-sur-Alzette,49.6730,6.1390,Luxembourg,LU,LUX,Luxembourg,Luxembourg,LU-LU,canton,,614.9,1830,1830,3,Europe/Luxembourg,FALSE,1442707904
Hautcharage,Hautcharage,Oberkerschen,49.5761,5.9100,Luxembourg,LU,LUX,Capellen,Capellen,LU-CA,canton,,305.1,1797,1797,3,Europe/Luxembourg,FALSE,1442629604
Hobscheid,Hobscheid,,49.6883,5.9150,Luxembourg,LU,LUX,Capellen,Capellen,LU-CA,canton,minor,224.9,1793,1793,3,Europe/Luxembourg,FALSE,1442991705
Larochette,Larochette,Fels,49.7836,6.2194,Luxembourg,LU,LUX,Mersch,Mersch,LU-ME,canton,minor,136.0,1671,1671,3,Europe/Luxembourg,FALSE,1442298359
Aspelt,Aspelt,,49.5167,6.2167,Luxembourg,LU,LUX,Esch-sur-Alzette,Esch-sur-Alzette,LU-ES,canton,,275.8,1667,1667,3,Europe/Luxembourg,FALSE,1442391038
Dalheim,Dalheim,,49.5431,6.2583,Luxembourg,LU,LUX,Remich,Remich,LU-RM,canton,minor,104.9,1635,1635,3,Europe/Luxembourg,FALSE,1442563259
Canach,Canach,,49.6000,6.3333,Luxembourg,LU,LUX,Remich,Remich,LU-RM,canton,,123.2,1634,1634,3,Europe/Luxembourg,FALSE,1442966620
Schouweiler,Schouweiler,,49.5833,5.9500,Luxembourg,LU,LUX,Capellen,Capellen,LU-CA,canton,,244.8,1603,1603,3,Europe/Luxembourg,FALSE,1442448890
Contern,Contern,,49.5847,6.2264,Luxembourg,LU,LUX,Luxembourg,Luxembourg,LU-LU,canton,minor,201.9,1587,1587,3,Europe/Luxembourg,FALSE,1442500284
Mertert,Mertert,,49.7014,6.4806,Luxembourg,LU,LUX,Grevenmacher,Grevenmacher,LU-GR,canton,minor,164.0,1533,1533,3,Europe/Berlin,FALSE,1442664754
Crauthem,Crauthem,Krauthem,49.5333,6.1500,Luxembourg,LU,LUX,Esch-sur-Alzette,Esch-sur-Alzette,LU-ES,canton,,249.1,1525,1525,3,Europe/Luxembourg,FALSE,1442141403
Bergem,Bergem,,49.5167,6.0500,Luxembourg,LU,LUX,Esch-sur-Alzette,Esch-sur-Alzette,LU-ES,canton,,314.1,1515,1515,3,Europe/Luxembourg,FALSE,1442223688
Clervaux,Clervaux,Clerf|Klerf|Cliärref,50.0500,6.0333,Luxembourg,LU,LUX,Clervaux,Clervaux,LU-CL,canton,admin,94.8,1468,1468,2,Europe/Luxembourg,FALSE,1442118762
Warken,Warken,,49.8500,6.1000,Luxembourg,LU,LUX,Diekirch,Diekirch,LU-DI,canton,,510.0,1444,1444,3,Europe/Luxembourg,FALSE,1442941961
Berdorf,Berdorf,,49.8208,6.3486,Luxembourg,LU,LUX,Echternach,Echternach,LU-EC,canton,minor,85.5,1439,1439,3,Europe/Luxembourg,FALSE,1442395146
Medernach,Medernach,,49.8100,6.2150,Luxembourg,LU,LUX,Diekirch,Diekirch,LU-DI,canton,minor,103.3,1417,1417,3,Europe/Luxembourg,FALSE,1442876783
Moutfort,Moutfort,,49.5861,6.2583,Luxembourg,LU,LUX,Luxembourg,Luxembourg,LU-LU,canton,,201.9,1406,1406,3,Europe/Luxembourg,FALSE,1442921510
Weiswampach,Weiswampach,,50.1372,6.0750,Luxembourg,LU,LUX,Clervaux,Clervaux,LU-CL,canton,minor,46.0,1386,1386,3,Europe/Luxembourg,FALSE,1442192062
Olm,Olm,,49.6500,6.0000,Luxembourg,LU,LUX,Capellen,Capellen,LU-CA,canton,,203.1,1375,1375,3,Europe/Luxembourg,FALSE,1442613579
Tuntange,Tuntange,Tuntingen,49.7178,6.0103,Luxembourg,LU,LUX,Mersch,Mersch,LU-ME,canton,minor,71.1,1321,1321,3,Europe/Luxembourg,FALSE,1442507144
Koerich,Koerich,Körich,49.6667,5.9500,Luxembourg,LU,LUX,Capellen,Capellen,LU-CA,canton,minor,167.2,1314,1314,3,Europe/Luxembourg,FALSE,1442673756
Bettendorf,Bettendorf,,49.8833,6.2167,Luxembourg,LU,LUX,Diekirch,Diekirch,LU-DI,canton,minor,122.9,1293,1293,3,Europe/Luxembourg,FALSE,1442119148
Bettange-sur-Mess,Bettange-sur-Mess,Bettange-sur-Messe|Bettange,49.5833,5.9833,Luxembourg,LU,LUX,Capellen,Capellen,LU-CA,canton,,244.8,1277,1277,3,Europe/Luxembourg,FALSE,1442179172
Garnich,Garnich,,49.6150,5.9506,Luxembourg,LU,LUX,Capellen,Capellen,LU-CA,canton,minor,123.3,1277,1277,3,Europe/Luxembourg,FALSE,1442735213
Berchem,Berchem,Bercham,49.5333,6.1333,Luxembourg,LU,LUX,Esch-sur-Alzette,Esch-sur-Alzette,LU-ES,canton,,249.1,1272,1272,3,Europe/Luxembourg,FALSE,1442484974
Heffingen,Heffingen,,49.7667,6.2333,Luxembourg,LU,LUX,Mersch,Mersch,LU-ME,canton,minor,110.3,1164,1164,3,Europe/Luxembourg,FALSE,1442957639
Müllendorf,Mullendorf,Muellendorf,49.6833,6.1333,Luxembourg,LU,LUX,Luxembourg,Luxembourg,LU-LU,canton,,244.7,1142,1142,3,Europe/Luxembourg,FALSE,1442449971
Hosingen,Hosingen,,50.0139,6.0903,Luxembourg,LU,LUX,Clervaux,Clervaux,LU-CL,canton,minor,25.2,1142,1142,3,Europe/Luxembourg,FALSE,1442361114
Nospelt,Nospelt,,49.6833,6.0167,Luxembourg,LU,LUX,Capellen,Capellen,LU-CA,canton,,203.1,1121,1121,3,Europe/Luxembourg,FALSE,1442272047
Pontpierre,Pontpierre,Steinbrucken,49.5333,6.0333,Luxembourg,LU,LUX,Esch-sur-Alzette,Esch-sur-Alzette,LU-ES,canton,,305.3,1120,1120,3,Europe/Luxembourg,FALSE,1442820845
Kleinbettingen,Kleinbettingen,,49.6458,5.9155,Luxembourg,LU,LUX,Capellen,Capellen,LU-CA,canton,,364.5,1107,1107,3,Europe/Luxembourg,FALSE,1442833407
Weiler-la-Tour,Weiler-la-Tour,,49.5425,6.1997,Luxembourg,LU,LUX,Luxembourg,Luxembourg,LU-LU,canton,minor,158.4,1094,1094,3,Europe/Luxembourg,FALSE,1442605915
Gilsdorf,Gilsdorf,,49.8667,6.1833,Luxembourg,LU,LUX,Diekirch,Diekirch,LU-DI,canton,,156.3,1088,1088,3,Europe/Luxembourg,FALSE,1442156381
Beringen,Beringen,,49.7600,6.1200,Luxembourg,LU,LUX,Mersch,Mersch,LU-ME,canton,,167.5,1055,1055,3,Europe/Luxembourg,FALSE,1442095648
Noertzange,Noertzange,,49.5167,6.0500,Luxembourg,LU,LUX,Esch-sur-Alzette,Esch-sur-Alzette,LU-ES,canton,,464.4,1045,1045,3,Europe/Luxembourg,FALSE,1442022597
Dippach,Dippach,,49.5875,5.9833,Luxembourg,LU,LUX,Capellen,Capellen,LU-CA,canton,minor,244.8,1037,1037,3,Europe/Luxembourg,FALSE,1442531377
Berbourg,Berbourg,,49.7333,6.4000,Luxembourg,LU,LUX,Grevenmacher,Grevenmacher,LU-GR,canton,,82.4,1032,1032,3,Europe/Luxembourg,FALSE,1442358743
Reckange,Reckange,Reckange-lès-Mersch,49.7516,6.0858,Luxembourg,LU,LUX,Mersch,Mersch,LU-ME,canton,,167.5,1027,1027,3,Europe/Luxembourg,FALSE,1442922547
Grosbous,Grosbous,,49.8333,5.9667,Luxembourg,LU,LUX,Redange,Redange,LU-RD,canton,minor,65.1,991,991,3,Europe/Luxembourg,FALSE,1442261540
Ehlerange,Ehlerange,,49.5167,5.9667,Luxembourg,LU,LUX,Esch-sur-Alzette,Esch-sur-Alzette,LU-ES,canton,,724.2,970,970,3,Europe/Luxembourg,FALSE,1442837789
Bivange,Bivange,Bivingen,49.5500,6.1333,Luxembourg,LU,LUX,Esch-sur-Alzette,Esch-sur-Alzette,LU-ES,canton,,249.1,958,958,3,Europe/Luxembourg,FALSE,1442580236
Greiveldange,Greiveldange,,49.5833,6.3667,Luxembourg,LU,LUX,Remich,Remich,LU-RM,canton,,173.1,951,951,3,Europe/Luxembourg,FALSE,1442605740
Mensdorf,Mensdorf,,49.6500,6.3000,Luxembourg,LU,LUX,Grevenmacher,Grevenmacher,LU-GR,canton,,157.8,947,947,3,Europe/Luxembourg,FALSE,1442649100
Perlé,Perle,,49.8167,5.7667,Luxembourg,LU,LUX,Redange,Redange,LU-RD,canton,,56.1,918,918,3,Europe/Luxembourg,FALSE,1442945075
Eschdorf,Eschdorf,,49.8833,5.9333,Luxembourg,LU,LUX,Wiltz,Wiltz,LU-WI,canton,,77.7,895,895,3,Europe/Luxembourg,FALSE,1442429075
Ehnen,Ehnen,Ennen|Ihnen,49.6000,6.3833,Luxembourg,LU,LUX,Grevenmacher,Grevenmacher,LU-GR,canton,,124.0,893,893,3,Europe/Berlin,FALSE,1442339061
Oetrange,Oetrange,,49.6000,6.2667,Luxembourg,LU,LUX,Luxembourg,Luxembourg,LU-LU,canton,,201.9,890,890,3,Europe/Luxembourg,FALSE,1442517744
Elvange,Elvange,Elvange-lès-Burmerange,49.5053,6.3160,Luxembourg,LU,LUX,Remich,Remich,LU-RM,canton,,113.8,855,855,3,Europe/Luxembourg,FALSE,1442238482
Hellange,Hellange,,49.5000,6.1500,Luxembourg,LU,LUX,Esch-sur-Alzette,Esch-sur-Alzette,LU-ES,canton,,267.1,841,841,3,Europe/Luxembourg,FALSE,1442171634
Rosport,Rosport,,49.7978,6.5042,Luxembourg,LU,LUX,Echternach,Echternach,LU-EC,canton,minor,73.2,836,836,3,Europe/Luxembourg,FALSE,1442042352
Beckerich,Beckerich,,49.7306,5.8833,Luxembourg,LU,LUX,Redange,Redange,LU-RD,canton,minor,89.5,834,834,3,Europe/Luxembourg,FALSE,1442657585
Rameldange,Rameldange,Rammeldange,49.6500,6.2333,Luxembourg,LU,LUX,Luxembourg,Luxembourg,LU-LU,canton,,138.4,833,833,3,Europe/Luxembourg,FALSE,1442151925
Reisdorf,Reisdorf,,49.8667,6.2667,Luxembourg,LU,LUX,Diekirch,Diekirch,LU-DI,canton,minor,123.4,830,830,3,Europe/Luxembourg,FALSE,1442275577
Schrassig,Schrassig,,49.6000,6.2667,Luxembourg,LU,LUX,Luxembourg,Luxembourg,LU-LU,canton,,240.2,812,812,3,Europe/Luxembourg,FALSE,1442740220
Peppange,Peppange,,49.5167,6.1333,Luxembourg,LU,LUX,Esch-sur-Alzette,Esch-sur-Alzette,LU-ES,canton,,249.1,809,809,3,Europe/Luxembourg,FALSE,1442200328
Christnach,Christnach,,49.7833,6.2667,Luxembourg,LU,LUX,Echternach,Echternach,LU-EC,canton,,64.4,793,793,3,Europe/Luxembourg,FALSE,1442416808
Altwies,Altwies,,49.5167,6.2500,Luxembourg,LU,LUX,Remich,Remich,LU-RM,canton,,376.1,788,788,3,Europe/Luxembourg,FALSE,1442385220
Bourglinster,Bourglinster,,49.7000,6.2167,Luxembourg,LU,LUX,Grevenmacher,Grevenmacher,LU-GR,canton,,128.1,782,782,3,Europe/Luxembourg,FALSE,1442195589
Ingeldorf,Ingeldorf,Ingeldord,49.8500,6.1333,Luxembourg,LU,LUX,Diekirch,Diekirch,LU-DI,canton,,116.3,774,774,3,Europe/Luxembourg,FALSE,1442134357
Bofferdange,Bofferdange,,49.6833,6.1333,Luxembourg,LU,LUX,Mersch,Mersch,LU-ME,canton,,244.7,772,772,3,Europe/Luxembourg,FALSE,1442471283
Keispelt,Keispelt,,49.7000,6.0667,Luxembourg,LU,LUX,Capellen,Capellen,LU-CA,canton,,185.6,765,765,3,Europe/Luxembourg,FALSE,1442049647
Marnach,Marnach,,50.0500,6.0667,Luxembourg,LU,LUX,Clervaux,Clervaux,LU-CL,canton,,136.7,752,752,3,Europe/Luxembourg,FALSE,1442408565
Oberanven,Oberanven,,49.6500,6.2333,Luxembourg,LU,LUX,Luxembourg,Luxembourg,LU-LU,canton,,138.4,739,739,3,Europe/Luxembourg,FALSE,1442235438
Remerschen,Remerschen,,49.4833,6.3500,Luxembourg,LU,LUX,Remich,Remich,LU-RM,canton,,154.9,738,738,3,Europe/Luxembourg,FALSE,1442441906
Münsbach,Munsbach,Müsbach,49.6333,6.2667,Luxembourg,LU,LUX,Luxembourg,Luxembourg,LU-LU,canton,,267.4,735,735,3,Europe/Luxembourg,FALSE,1442625956
Wecker,Wecker,,49.6833,6.3833,Luxembourg,LU,LUX,Grevenmacher,Grevenmacher,LU-GR,canton,,163.5,729,729,3,Europe/Luxembourg,FALSE,1442945126
Helmdange,Helmdange,,49.6833,6.1500,Luxembourg,LU,LUX,Mersch,Mersch,LU-ME,canton,,241.1,717,717,3,Europe/Luxembourg,FALSE,1442513229
Syren,Syren,,49.5667,6.2167,Luxembourg,LU,LUX,Luxembourg,Luxembourg,LU-LU,canton,,156.1,703,703,3,Europe/Luxembourg,FALSE,1442797740
Senningen,Senningen,,49.6458,6.2392,Luxembourg,LU,LUX,Luxembourg,Luxembourg,LU-LU,canton,,138.4,694,694,3,Europe/Luxembourg,FALSE,1442466379
Erpeldange,Erpeldange,Erpeldange-lez-Bous,49.5448,6.3266,Luxembourg,LU,LUX,Remich,Remich,LU-RM,canton,,170.8,687,687,3,Europe/Luxembourg,FALSE,1442621789
Weidingen,Weidingen,,49.9667,5.9500,Luxembourg,LU,LUX,Wiltz,Wiltz,LU-WI,canton,,268.9,686,686,3,Europe/Luxembourg,FALSE,1442550390
Huncherange,Huncherange,,49.5167,6.0667,Luxembourg,LU,LUX,Esch-sur-Alzette,Esch-sur-Alzette,LU-ES,canton,,281.1,686,686,3,Europe/Luxembourg,FALSE,1442456808
Bech-Kleinmacher,Bech-Kleinmacher,Bech,49.5333,6.3500,Luxembourg,LU,LUX,Remich,Remich,LU-RM,canton,,177.7,683,683,3,Europe/Luxembourg,FALSE,1442176309
Cruchten,Cruchten,Kruchten,49.8000,6.1333,Luxembourg,LU,LUX,Mersch,Mersch,LU-ME,canton,,70.7,678,678,3,Europe/Luxembourg,FALSE,1442476496
Goeblange,Goeblange,,49.6667,5.9667,Luxembourg,LU,LUX,Capellen,Capellen,LU-CA,canton,,167.2,674,674,3,Europe/Luxembourg,FALSE,1442650298
Wellenstein,Wellenstein,,49.5250,6.3417,Luxembourg,LU,LUX,Remich,Remich,LU-RM,canton,,170.1,662,662,4,Europe/Luxembourg,FALSE,1442716724
Gosseldange,Gosseldange,,49.7333,6.1167,Luxembourg,LU,LUX,Mersch,Mersch,LU-ME,canton,,163.6,659,659,3,Europe/Luxembourg,FALSE,1442152395
Hassel,Hassel,,49.5500,6.2167,Luxembourg,LU,LUX,Luxembourg,Luxembourg,LU-LU,canton,,156.1,653,653,3,Europe/Luxembourg,FALSE,1442321758
Oberfeulen,Oberfeulen,Haut-Feulen,49.8500,6.0333,Luxembourg,LU,LUX,Diekirch,Diekirch,LU-DI,canton,,79.4,646,646,3,Europe/Luxembourg,FALSE,1442015082
Steinheim,Steinheim,,49.8167,6.4833,Luxembourg,LU,LUX,Echternach,Echternach,LU-EC,canton,,73.3,644,644,3,Europe/Luxembourg,FALSE,1442753695
Heiderscheid,Heiderscheid,,49.8872,5.9785,Luxembourg,LU,LUX,Wiltz,Wiltz,LU-WI,canton,,59.0,619,619,4,Europe/Luxembourg,FALSE,1442185835
Heinerscheid,Heinerscheid,,50.0958,6.0875,Luxembourg,LU,LUX,Clervaux,Clervaux,LU-CL,canton,,18.1,616,616,3,Europe/Luxembourg,FALSE,1442843500
Linger,Linger,,49.5667,5.8833,Luxembourg,LU,LUX,Capellen,Capellen,LU-CA,canton,,210.7,609,609,3,Europe/Luxembourg,FALSE,1442112914
Holzem,Holzem,,49.6167,5.9833,Luxembourg,LU,LUX,Capellen,Capellen,LU-CA,canton,,340.4,601,601,3,Europe/Luxembourg,FALSE,1442811179
Godbrange,Godbrange,,49.7333,6.2333,Luxembourg,LU,LUX,Grevenmacher,Grevenmacher,LU-GR,canton,,128.1,600,600,3,Europe/Luxembourg,FALSE,1442666756
Noerdange,Noerdange,,49.7500,5.9333,Luxembourg,LU,LUX,Redange,Redange,LU-RD,canton,,91.6,599,599,3,Europe/Luxembourg,FALSE,1442327518
Bastendorf,Bastendorf,,49.9000,6.1667,Luxembourg,LU,LUX,Vianden,Vianden,LU-VD,canton,,61.5,597,597,3,Europe/Luxembourg,FALSE,1442082101
Bigonville,Bigonville,Bondorf,49.8500,5.8000,Luxembourg,LU,LUX,Redange,Redange,LU-RD,canton,,74.2,594,594,3,Europe/Luxembourg,FALSE,1442292204
Flaxweiler,Flaxweiler,,49.6653,6.3431,Luxembourg,LU,LUX,Grevenmacher,Grevenmacher,LU-GR,canton,minor,77.2,564,564,3,Europe/Luxembourg,FALSE,1442960038
Harlange,Harlange,,49.9333,5.7833,Luxembourg,LU,LUX,Wiltz,Wiltz,LU-WI,canton,,42.2,546,546,3,Europe/Luxembourg,FALSE,1442625701
Sprinckange,Sprinckange,,49.5796,5.9656,Luxembourg,LU,LUX,Capellen,Capellen,LU-CA,canton,,244.8,544,544,3,Europe/Luxembourg,FALSE,1442800673
Burden,Burden,,49.8833,6.1000,Luxembourg,LU,LUX,Diekirch,Diekirch,LU-DI,canton,,116.3,537,537,3,Europe/Luxembourg,FALSE,1442858368
Pratz,Pratz,,49.8000,5.9333,Luxembourg,LU,LUX,Redange,Redange,LU-RD,canton,,97.0,533,533,3,Europe/Luxembourg,FALSE,1442255040
Everlange,Everlange,,49.7667,5.9500,Luxembourg,LU,LUX,Redange,Redange,LU-RD,canton,,92.5,533,533,3,Europe/Luxembourg,FALSE,1442329109
Foetz,Foetz,,49.5167,6.0167,Luxembourg,LU,LUX,Esch-sur-Alzette,Esch-sur-Alzette,LU-ES,canton,,314.1,532,532,3,Europe/Luxembourg,FALSE,1442250916
Machtum,Machtum,Machum,49.6579,6.4284,Luxembourg,LU,LUX,Grevenmacher,Grevenmacher,LU-GR,canton,,146.6,530,530,3,Europe/Luxembourg,FALSE,1442474060
Hunsdorf,Hunsdorf,,49.7000,6.1333,Luxembourg,LU,LUX,Mersch,Mersch,LU-ME,canton,,240.0,528,528,3,Europe/Luxembourg,FALSE,1442310129
Rambrouch,Rambrouch,,49.8299,5.8498,Luxembourg,LU,LUX,Redange,Redange,LU-RD,canton,minor,56.1,528,528,3,Europe/Luxembourg,FALSE,1442698788
Platen,Platen,,49.7833,5.9333,Luxembourg,LU,LUX,Redange,Redange,LU-RD,canton,,97.0,521,521,3,Europe/Luxembourg,FALSE,1442533856
Blaschette,Blaschette,,49.7000,6.1667,Luxembourg,LU,LUX,Mersch,Mersch,LU-ME,canton,,234.8,519,519,3,Europe/Luxembourg,FALSE,1442469678
Ell,Ell,,49.7667,5.8500,Luxembourg,LU,LUX,Redange,Redange,LU-RD,canton,minor,63.3,515,515,3,Europe/Luxembourg,FALSE,1442472671
Ernzen,Ernzen,,49.7667,6.2167,Luxembourg,LU,LUX,Mersch,Mersch,LU-ME,canton,,136.0,512,512,3,Europe/Luxembourg,FALSE,1442627724
Scheidgen,Scheidgen,,49.7667,6.3667,Luxembourg,LU,LUX,Echternach,Echternach,LU-EC,canton,,86.3,511,511,3,Europe/Luxembourg,FALSE,1442695403
Stegen,Stegen,,49.8333,6.1667,Luxembourg,LU,LUX,Diekirch,Diekirch,LU-DI,canton,,52.3,504,504,3,Europe/Luxembourg,FALSE,1442105117
Olingen,Olingen,,49.6833,6.3167,Luxembourg,LU,LUX,Grevenmacher,Grevenmacher,LU-GR,canton,,157.8,504,504,3,Europe/Luxembourg,FALSE,1442224342
Wolwelange,Wolwelange,,49.8333,5.7667,Luxembourg,LU,LUX,Redange,Redange,LU-RD,canton,,56.1,503,503,3,Europe/Luxembourg,FALSE,1442049048
Filsdorf,Filsdorf,,49.5339,6.2471,Luxembourg,LU,LUX,Remich,Remich,LU-RM,canton,,104.9,503,503,3,Europe/Luxembourg,FALSE,1442457612
Dahlem,Dahlem,,49.5978,5.9458,Luxembourg,LU,LUX,Capellen,Capellen,LU-CA,canton,,123.3,501,501,4,Europe/Luxembourg,FALSE,1442219002
Moestroff,Moestroff,,49.8667,6.2333,Luxembourg,LU,LUX,Diekirch,Diekirch,LU-DI,canton,,116.9,499,499,3,Europe/Luxembourg,FALSE,1442901481
Buschdorf,Buschdorf,,49.7500,6.0000,Luxembourg,LU,LUX,Mersch,Mersch,LU-ME,canton,,110.9,498,498,3,Europe/Luxembourg,FALSE,1442284556
Eselborn,Eselborn,,50.0667,6.0000,Luxembourg,LU,LUX,Clervaux,Clervaux,LU-CL,canton,,95.2,490,490,3,Europe/Luxembourg,FALSE,1442041030
Gostingen,Gostingen,,49.6167,6.3500,Luxembourg,LU,LUX,Grevenmacher,Grevenmacher,LU-GR,canton,,77.2,489,489,3,Europe/Luxembourg,FALSE,1442138584
Angelsberg,Angelsberg,,49.7630,6.1580,Luxembourg,LU,LUX,Mersch,Mersch,LU-ME,canton,,108.7,482,482,3,Europe/Luxembourg,FALSE,1442322393
Wintrange,Wintrange,,49.5000,6.3500,Luxembourg,LU,LUX,Remich,Remich,LU-RM,canton,,166.6,467,467,3,Europe/Luxembourg,FALSE,1442170531
Hoscheid,Hoscheid,Hohscheid,49.9472,6.0806,Luxembourg,LU,LUX,Diekirch,Diekirch,LU-DI,canton,,44.6,465,465,3,Europe/Luxembourg,FALSE,1442301389
Wahlhausen,Wahlhausen,Wahlhousen,49.9833,6.1333,Luxembourg,LU,LUX,Clervaux,Clervaux,LU-CL,canton,,64.3,465,465,3,Europe/Luxembourg,FALSE,1442025418
Erpeldange,Erpeldange,Erpeldange-lès-Wiltz,49.9779,5.9461,Luxembourg,LU,LUX,Wiltz,Wiltz,LU-WI,canton,,210.4,465,465,3,Europe/Luxembourg,FALSE,1442747946
Osweiler,Osweiler,,49.7867,6.4408,Luxembourg,LU,LUX,Echternach,Echternach,LU-EC,canton,,73.2,461,461,3,Europe/Luxembourg,FALSE,1442510534
Bourscheid,Bourscheid,Burscheid,49.9092,6.0628,Luxembourg,LU,LUX,Diekirch,Diekirch,LU-DI,canton,minor,44.9,459,459,3,Europe/Luxembourg,FALSE,1442251204
Baschleiden,Baschleiden,,49.9000,5.8167,Luxembourg,LU,LUX,Wiltz,Wiltz,LU-WI,canton,,41.0,451,451,3,Europe/Luxembourg,FALSE,1442544072
Huldange,Huldange,Huldingen,50.1667,6.0167,Luxembourg,LU,LUX,Clervaux,Clervaux,LU-CL,canton,,85.5,443,443,3,Europe/Luxembourg,FALSE,1442826629
Nocher,Nocher,,49.9500,5.9833,Luxembourg,LU,LUX,Wiltz,Wiltz,LU-WI,canton,,51.9,442,442,3,Europe/Luxembourg,FALSE,1442571446
Ermsdorf,Ermsdorf,,49.8289,6.2214,Luxembourg,LU,LUX,Diekirch,Diekirch,LU-DI,canton,,18.3,442,442,3,Europe/Luxembourg,FALSE,1442895719
Niederpallen,Niederpallen,,49.7500,5.9167,Luxembourg,LU,LUX,Redange,Redange,LU-RD,canton,,96.4,438,438,3,Europe/Luxembourg,FALSE,1442199693
Niederdonven,Niederdonven,,49.6333,6.4000,Luxembourg,LU,LUX,Grevenmacher,Grevenmacher,LU-GR,canton,,79.0,436,436,3,Europe/Luxembourg,FALSE,1442445795
Schwebsange,Schwebsange,Schwebsingen,49.5167,6.3500,Luxembourg,LU,LUX,Remich,Remich,LU-RM,canton,,170.1,434,434,3,Europe/Luxembourg,FALSE,1442570852
Bech,Bech,,49.7528,6.3611,Luxembourg,LU,LUX,Echternach,Echternach,LU-EC,canton,minor,50.6,433,433,3,Europe/Luxembourg,FALSE,1442969994
Asselborn,Asselborn,,50.0962,5.9752,Luxembourg,LU,LUX,Clervaux,Clervaux,LU-CL,canton,,38.3,432,432,3,Europe/Luxembourg,FALSE,1442841184
Oberpallen,Oberpallen,,49.7333,5.8500,Luxembourg,LU,LUX,Redange,Redange,LU-RD,canton,,96.0,423,423,3,Europe/Luxembourg,FALSE,1442069317
Doncols,Doncols,,49.9667,5.8333,Luxembourg,LU,LUX,Wiltz,Wiltz,LU-WI,canton,,41.0,422,422,3,Europe/Luxembourg,FALSE,1442567006
Hostert,Hostert,Hostert-lès-Folschette,49.8087,5.8659,Luxembourg,LU,LUX,Redange,Redange,LU-RD,canton,,56.1,418,418,3,Europe/Luxembourg,FALSE,1442746458
Fingig,Fingig,,49.6000,5.9000,Luxembourg,LU,LUX,Capellen,Capellen,LU-CA,canton,,115.2,417,417,3,Europe/Luxembourg,FALSE,1442009560
Haller,Haller,,49.8167,6.2833,Luxembourg,LU,LUX,Echternach,Echternach,LU-EC,canton,,64.1,415,415,3,Europe/Luxembourg,FALSE,1442497949
Folschette,Folschette,,49.8167,5.8667,Luxembourg,LU,LUX,Redange,Redange,LU-RD,canton,,51.7,414,414,3,Europe/Luxembourg,FALSE,1442805011
Moersdorf,Moersdorf,Morsdorf,49.7456,6.5006,Luxembourg,LU,LUX,Echternach,Echternach,LU-EC,canton,,82.6,409,409,3,Europe/Luxembourg,FALSE,1442174585
Fouhren,Fouhren,,49.9167,6.2000,Luxembourg,LU,LUX,Vianden,Vianden,LU-VD,canton,,52.2,409,409,3,Europe/Luxembourg,FALSE,1442291381
Bettborn,Bettborn,,49.8000,5.9333,Luxembourg,LU,LUX,Redange,Redange,LU-RD,canton,minor,97.0,406,406,3,Europe/Luxembourg,FALSE,1442588796
Hollenfels,Hollenfels,,49.7167,6.0500,Luxembourg,LU,LUX,Mersch,Mersch,LU-ME,canton,,71.1,405,405,3,Europe/Luxembourg,FALSE,1442594916
Ospern,Ospern,,49.7833,5.9000,Luxembourg,LU,LUX,Redange,Redange,LU-RD,canton,,96.4,405,405,3,Europe/Luxembourg,FALSE,1442002641
Beyren,Beyren,,49.6333,6.3333,Luxembourg,LU,LUX,Grevenmacher,Grevenmacher,LU-GR,canton,,77.2,404,404,3,Europe/Luxembourg,FALSE,1442262977
Boxhorn,Boxhorn,,50.0827,5.9924,Luxembourg,LU,LUX,Clervaux,Clervaux,LU-CL,canton,,38.3,404,404,3,Europe/Luxembourg,FALSE,1442144423
Born,Born,,49.7500,6.5167,Luxembourg,LU,LUX,Echternach,Echternach,LU-EC,canton,,128.3,400,400,3,Europe/Berlin,FALSE,1442873835
Schrondweiler,Schrondweiler,,49.8000,6.1667,Luxembourg,LU,LUX,Mersch,Mersch,LU-ME,canton,,64.7,399,399,3,Europe/Luxembourg,FALSE,1442713601
Arsdorf,Arsdorf,,49.8667,5.8500,Luxembourg,LU,LUX,Redange,Redange,LU-RD,canton,,26.1,399,399,3,Europe/Luxembourg,FALSE,1442709573
Eschweiler,Eschweiler,,49.9972,5.9472,Luxembourg,LU,LUX,Wiltz,Wiltz,LU-WI,canton,,47.9,397,397,3,Europe/Luxembourg,FALSE,1442415261
Ernster,Ernster,,49.6833,6.2500,Luxembourg,LU,LUX,Luxembourg,Luxembourg,LU-LU,canton,,137.7,395,395,3,Europe/Luxembourg,FALSE,1442656281
Hovelange,Hovelange,,49.7167,5.9000,Luxembourg,LU,LUX,Redange,Redange,LU-RD,canton,,89.5,395,395,3,Europe/Luxembourg,FALSE,1442686441
Fennange,Fennange,,49.5167,6.0833,Luxembourg,LU,LUX,Esch-sur-Alzette,Esch-sur-Alzette,LU-ES,canton,,205.8,393,393,3,Europe/Luxembourg,FALSE,1442725782
Fischbach,Fischbach,,49.7333,6.1833,Luxembourg,LU,LUX,Mersch,Mersch,LU-ME,canton,minor,123.2,379,379,3,Europe/Luxembourg,FALSE,1442527279
Moesdorf,Moesdorf,,49.7667,6.1167,Luxembourg,LU,LUX,Mersch,Mersch,LU-ME,canton,,167.5,378,378,3,Europe/Luxembourg,FALSE,1442722009
Nothum,Nothum,,49.9333,5.8833,Luxembourg,LU,LUX,Wiltz,Wiltz,LU-WI,canton,,42.2,375,375,3,Europe/Luxembourg,FALSE,1442983848
Livange,Livange,,49.5333,6.1167,Luxembourg,LU,LUX,Esch-sur-Alzette,Esch-sur-Alzette,LU-ES,canton,,261.5,369,369,3,Europe/Luxembourg,FALSE,1442842168
Septfontaines,Septfontaines,Siebenborn|Simmern,49.7011,5.9672,Luxembourg,LU,LUX,Capellen,Capellen,LU-CA,canton,minor,46.7,366,366,3,Europe/Luxembourg,FALSE,1442054891
Roodt,Roodt,Roodt-lès-Ell,49.7931,5.8219,Luxembourg,LU,LUX,Redange,Redange,LU-RD,canton,,63.3,364,364,3,Europe/Luxembourg,FALSE,1442814752
Tarchamps,Tarchamps,Eschpelt|Ischpelt|Heispelt|Ischspelt,49.9500,5.8000,Luxembourg,LU,LUX,Wiltz,Wiltz,LU-WI,canton,,41.8,362,362,3,Europe/Luxembourg,FALSE,1442597269
Dahl,Dahl,,49.9333,5.9833,Luxembourg,LU,LUX,Wiltz,Wiltz,LU-WI,canton,,51.9,355,355,3,Europe/Luxembourg,FALSE,1442265562
Trintange,Trintange,,49.5667,6.2833,Luxembourg,LU,LUX,Remich,Remich,LU-RM,canton,,64.9,355,355,3,Europe/Luxembourg,FALSE,1442072955
Reuland,Reuland,,49.7500,6.2667,Luxembourg,LU,LUX,Mersch,Mersch,LU-ME,canton,,115.8,354,354,3,Europe/Luxembourg,FALSE,1442109597
Wormeldange,Wormeldange,,49.6102,6.3995,Luxembourg,LU,LUX,Grevenmacher,Grevenmacher,LU-GR,canton,minor,99.9,346,346,3,Europe/Berlin,FALSE,1442545834
Wilwerdange,Wilwerdange,,50.1333,6.0167,Luxembourg,LU,LUX,Clervaux,Clervaux,LU-CL,canton,,85.5,340,340,3,Europe/Luxembourg,FALSE,1442178288
Schoos,Schoos,,49.7500,6.1667,Luxembourg,LU,LUX,Mersch,Mersch,LU-ME,canton,,141.5,338,338,3,Europe/Luxembourg,FALSE,1442636142
Roedgen,Roedgen,,49.5667,6.0333,Luxembourg,LU,LUX,Esch-sur-Alzette,Esch-sur-Alzette,LU-ES,canton,,135.1,335,335,3,Europe/Luxembourg,FALSE,1442265590
Meispelt,Meispelt,,49.6833,6.0667,Luxembourg,LU,LUX,Capellen,Capellen,LU-CA,canton,,205.8,333,333,3,Europe/Luxembourg,FALSE,1442186478
Berg,Berg,Berg-sur-Syre,49.8140,6.0890,Luxembourg,LU,LUX,Grevenmacher,Grevenmacher,LU-GR,canton,,154.6,329,329,4,Europe/Luxembourg,FALSE,1442942816
Hoffelt,Hoffelt,,50.1000,5.9167,Luxembourg,LU,LUX,Clervaux,Clervaux,LU-CL,canton,,38.3,327,327,3,Europe/Luxembourg,FALSE,1442257386
Brandenbourg,Brandenbourg,,49.9167,6.1333,Luxembourg,LU,LUX,Vianden,Vianden,LU-VD,canton,,52.3,325,325,3,Europe/Luxembourg,FALSE,1442332222
Michelau,Michelau,,49.9000,6.1000,Luxembourg,LU,LUX,Diekirch,Diekirch,LU-DI,canton,,44.9,325,325,3,Europe/Luxembourg,FALSE,1442775406
Lieler,Lieler,,50.1167,6.1167,Luxembourg,LU,LUX,Clervaux,Clervaux,LU-CL,canton,,44.5,325,325,3,Europe/Luxembourg,FALSE,1442299771
Colpach-Haut,Colpach-Haut,Haut-Colpach|Obercolpach,49.7667,5.8167,Luxembourg,LU,LUX,Redange,Redange,LU-RD,canton,,63.3,324,324,3,Europe/Luxembourg,FALSE,1442415830
Kahler,Kahler,,49.6300,5.9167,Luxembourg,LU,LUX,Capellen,Capellen,LU-CA,canton,,123.3,319,319,3,Europe/Luxembourg,FALSE,1442965489
Imbringen,Imbringen,,49.7000,6.2000,Luxembourg,LU,LUX,Grevenmacher,Grevenmacher,LU-GR,canton,,128.1,305,305,3,Europe/Luxembourg,FALSE,1442485127
Kaundorf,Kaundorf,,49.9167,5.9000,Luxembourg,LU,LUX,Wiltz,Wiltz,LU-WI,canton,,42.2,300,300,3,Europe/Luxembourg,FALSE,1442505473
Lipperscheid,Lipperscheid,,49.9167,6.0833,Luxembourg,LU,LUX,Diekirch,Diekirch,LU-DI,canton,,44.9,299,299,3,Europe/Luxembourg,FALSE,1442170781
Gœsdorf,Goesdorf,"Gösdorf bei Wilz|Gösdorf",49.9167,5.9667,Luxembourg,LU,LUX,Wiltz,Wiltz,LU-WI,canton,minor,51.9,298,298,3,Europe/Luxembourg,FALSE,1442339751
Holzthum,Holzthum,,49.9833,6.0667,Luxembourg,LU,LUX,Clervaux,Clervaux,LU-CL,canton,,41.8,294,294,3,Europe/Luxembourg,FALSE,1442866219
Altrier,Altrier,Alttrier,49.7500,6.3333,Luxembourg,LU,LUX,Echternach,Echternach,LU-EC,canton,,50.6,291,291,3,Europe/Luxembourg,FALSE,1442811695
Pintsch,Pintsch,,49.9928,6.0111,Luxembourg,LU,LUX,Wiltz,Wiltz,LU-WI,canton,,34.1,287,287,3,Europe/Luxembourg,FALSE,1442314503
Consthum,Consthum,Konsthum,49.9736,6.0528,Luxembourg,LU,LUX,Clervaux,Clervaux,LU-CL,canton,,19.1,285,285,3,Europe/Luxembourg,FALSE,1442825032
Grevels,Grevels,Grevels-Brésil,49.8500,5.9167,Luxembourg,LU,LUX,Redange,Redange,LU-RD,canton,,53.3,282,282,3,Europe/Luxembourg,FALSE,1442112242
Hoscheiderdickt,Hoscheiderdickt,Dickt,49.9740,6.0900,Luxembourg,LU,LUX,Diekirch,Diekirch,LU-DI,canton,,80.8,278,278,3,Europe/Luxembourg,FALSE,1442633533
Boevange,Boevange,Boevange-lès-Clervaux|Boegen|Boevange-Clervaux,50.0500,5.9333,Luxembourg,LU,LUX,Clervaux,Clervaux,LU-CL,canton,,38.3,277,277,3,Europe/Luxembourg,FALSE,1442118023
Surré,Surre,Syr,49.9000,5.7833,Luxembourg,LU,LUX,Wiltz,Wiltz,LU-WI,canton,,41.0,270,270,3,Europe/Luxembourg,FALSE,1442766699
Wilwerwiltz,Wilwerwiltz,Wilwerwilz,49.9800,5.9900,Luxembourg,LU,LUX,Wiltz,Wiltz,LU-WI,canton,minor,34.1,269,269,3,Europe/Luxembourg,FALSE,1442648186
Grevenknapp,Grevenknapp,Grevenknopp|Groevenknapp,49.7500,6.0333,Luxembourg,LU,LUX,Mersch,Mersch,LU-ME,canton,,111.4,268,268,3,Europe/Luxembourg,FALSE,1442254756
Merscheid,Merscheid,Merscheid-lès-Heiderscheid,49.8720,5.9690,Luxembourg,LU,LUX,Wiltz,Wiltz,LU-WI,canton,,62.1,266,266,3,Europe/Luxembourg,FALSE,1442964748
Kockelscheuer,Kockelscheuer,,49.5667,6.1167,Luxembourg,LU,LUX,Esch-sur-Alzette,Esch-sur-Alzette,LU-ES,canton,,572.4,265,265,3,Europe/Luxembourg,FALSE,1442927005
Nagem,Nagem,Nogem,49.7833,5.8500,Luxembourg,LU,LUX,Redange,Redange,LU-RD,canton,,96.4,263,263,3,Europe/Luxembourg,FALSE,1442089920
Brachtenbach,Brachtenbach,,50.0167,5.9167,Luxembourg,LU,LUX,Clervaux,Clervaux,LU-CL,canton,,38.3,262,262,3,Europe/Luxembourg,FALSE,1442796669
Binsfeld,Binsfeld,,50.1167,6.0333,Luxembourg,LU,LUX,Clervaux,Clervaux,LU-CL,canton,,46.0,258,258,3,Europe/Luxembourg,FALSE,1442692483
Gralingen,Gralingen,,49.9333,6.1000,Luxembourg,LU,LUX,Vianden,Vianden,LU-VD,canton,,49.8,258,258,3,Europe/Luxembourg,FALSE,1442657449
Neihaischen,Neihaischen,Neuhaeusgen,49.6250,6.2360,Luxembourg,LU,LUX,Luxembourg,Luxembourg,LU-LU,canton,,273.0,255,255,3,Europe/Luxembourg,FALSE,1442769794
Schweich,Schweich,,49.7167,5.9333,Luxembourg,LU,LUX,Redange,Redange,LU-RD,canton,,89.5,255,255,3,Europe/Luxembourg,FALSE,1442278396
Weicherdange,Weicherdange,,50.0333,5.9833,Luxembourg,LU,LUX,Clervaux,Clervaux,LU-CL,canton,,34.0,254,254,3,Europe/Luxembourg,FALSE,1442903596
Ahn,Ahn,,49.6280,6.4170,Luxembourg,LU,LUX,Grevenmacher,Grevenmacher,LU-GR,canton,,121.1,252,252,3,Europe/Luxembourg,FALSE,1442944248
Lellig,Lellig,,49.7208,6.4350,Luxembourg,LU,LUX,Grevenmacher,Grevenmacher,LU-GR,canton,,82.4,248,248,3,Europe/Luxembourg,FALSE,1442149144
Roodt,Roodt,Roddt|Roodt-sur-Eisch,49.7000,6.0000,Luxembourg,LU,LUX,Capellen,Capellen,LU-CA,canton,,61.1,247,247,3,Europe/Luxembourg,FALSE,1442480786
Schoenfels,Schoenfels,,49.7167,6.1000,Luxembourg,LU,LUX,Mersch,Mersch,LU-ME,canton,,166.8,244,244,3,Europe/Luxembourg,FALSE,1442608666
Welsdorf,Welsdorf,,49.8181,6.0889,Luxembourg,LU,LUX,Mersch,Mersch,LU-ME,canton,,182.7,242,242,4,Europe/Luxembourg,FALSE,1442155925
Reimberg,Reimberg,,49.8000,5.9500,Luxembourg,LU,LUX,Redange,Redange,LU-RD,canton,,97.0,238,238,3,Europe/Luxembourg,FALSE,1442996564
Dillingen,Dillingen,Diligen,49.8500,6.3167,Luxembourg,LU,LUX,Echternach,Echternach,LU-EC,canton,,47.8,238,238,3,Europe/Luxembourg,FALSE,1442653697
Niederwampach,Niederwampach,,50.0167,5.8500,Luxembourg,LU,LUX,Clervaux,Clervaux,LU-CL,canton,,38.3,235,235,3,Europe/Luxembourg,FALSE,1442998714
Oberdonven,Oberdonven,,49.6500,6.4000,Luxembourg,LU,LUX,Grevenmacher,Grevenmacher,LU-GR,canton,,77.2,232,232,3,Europe/Luxembourg,FALSE,1442070960
Eppeldorf,Eppeldorf,,49.8500,6.2500,Luxembourg,LU,LUX,Diekirch,Diekirch,LU-DI,canton,,32.8,229,229,3,Europe/Luxembourg,FALSE,1442990941
Wincrange,Wincrange,Wenerange|Wintger,50.0533,5.9144,Luxembourg,LU,LUX,Clervaux,Clervaux,LU-CL,canton,minor,38.3,227,227,3,Europe/Luxembourg,FALSE,1442506001
Holtz,Holtz,Holtzburg,49.8000,5.7833,Luxembourg,LU,LUX,Redange,Redange,LU-RD,canton,,56.1,226,226,3,Europe/Luxembourg,FALSE,1442177586
Schandel,Schandel,,49.8000,5.9833,Luxembourg,LU,LUX,Redange,Redange,LU-RD,canton,,92.3,222,222,3,Europe/Luxembourg,FALSE,1442768776
Eisenborn,Eisenborn,,49.6894,6.1864,Luxembourg,LU,LUX,Grevenmacher,Grevenmacher,LU-GR,canton,,147.5,222,222,3,Europe/Luxembourg,FALSE,1442669203
Greisch,Greisch,,49.7167,5.9833,Luxembourg,LU,LUX,Capellen,Capellen,LU-CA,canton,,46.7,222,222,3,Europe/Luxembourg,FALSE,1442838528
Welfrange,Welfrange,,49.5333,6.2833,Luxembourg,LU,LUX,Remich,Remich,LU-RM,canton,,104.9,220,220,3,Europe/Luxembourg,FALSE,1442633124
Münschecker,Munschecker,,49.6992,6.4422,Luxembourg,LU,LUX,Grevenmacher,Grevenmacher,LU-GR,canton,,132.6,217,217,3,Europe/Luxembourg,FALSE,1442783826
Drauffelt,Drauffelt,,50.0167,6.0000,Luxembourg,LU,LUX,Clervaux,Clervaux,LU-CL,canton,,68.1,216,216,3,Europe/Luxembourg,FALSE,1442450085
Hautbellain,Hautbellain,Oberbesslingen,50.1500,5.9833,Luxembourg,LU,LUX,Clervaux,Clervaux,LU-CL,canton,,85.5,212,212,3,Europe/Luxembourg,FALSE,1442248472
Troine,Troine,Trotten,50.0667,5.8833,Luxembourg,LU,LUX,Clervaux,Clervaux,LU-CL,canton,,38.3,210,210,3,Europe/Luxembourg,FALSE,1442452939
Rombach-Martelange,Rombach-Martelange,Rombach,49.8333,5.7500,Luxembourg,LU,LUX,Redange,Redange,LU-RD,canton,,65.8,206,206,3,Europe/Luxembourg,FALSE,1442684794
Ersange,Ersange,,49.5667,6.2833,Luxembourg,LU,LUX,Remich,Remich,LU-RM,canton,,64.9,202,202,3,Europe/Luxembourg,FALSE,1442753048
Rippweiler,Rippweiler,,49.7500,5.9500,Luxembourg,LU,LUX,Redange,Redange,LU-RD,canton,,92.5,202,202,3,Europe/Luxembourg,FALSE,1442924070
Welscheid,Welscheid,,49.8833,6.0667,Luxembourg,LU,LUX,Diekirch,Diekirch,LU-DI,canton,,83.5,200,200,3,Europe/Luxembourg,FALSE,1442376139
Eschweiler,Eschweiler,Eschweiler-lès-Rodenbourg,49.7110,6.3110,Luxembourg,LU,LUX,Grevenmacher,Grevenmacher,LU-GR,canton,,122.4,199,199,3,Europe/Luxembourg,FALSE,1442960428
Hamiville,Hamiville,Heisdorf,50.0500,5.9000,Luxembourg,LU,LUX,Clervaux,Clervaux,LU-CL,canton,,38.3,199,199,3,Europe/Luxembourg,FALSE,1442710385
Drinklange,Drinklange,Drinckelt|Drinckler,50.1333,6.0167,Luxembourg,LU,LUX,Clervaux,Clervaux,LU-CL,canton,,85.5,194,194,3,Europe/Luxembourg,FALSE,1442229341
Rodenbourg,Rodenbourg,,49.6833,6.2833,Luxembourg,LU,LUX,Grevenmacher,Grevenmacher,LU-GR,canton,,128.1,189,189,3,Europe/Luxembourg,FALSE,1442579728
Stolzembourg,Stolzembourg,Stolzemburg,49.9667,6.1667,Luxembourg,LU,LUX,Vianden,Vianden,LU-VD,canton,,3.0,188,188,3,Europe/Berlin,FALSE,1442405278
Enscherange,Enscherange,,49.9833,5.9833,Luxembourg,LU,LUX,Wiltz,Wiltz,LU-WI,canton,,34.1,186,186,3,Europe/Luxembourg,FALSE,1442712988
Dommeldange,Dommeldange,,49.6881,6.0307,Luxembourg,LU,LUX,Luxembourg,Luxembourg,LU-LU,canton,,2784.8,183,183,2,Europe/Luxembourg,FALSE,1442421971
Reichlange,Reichlange,,49.7667,5.9333,Luxembourg,LU,LUX,Redange,Redange,LU-RD,canton,,94.0,181,181,3,Europe/Luxembourg,FALSE,1442172143
Buderscheid,Buderscheid,,49.9333,5.9500,Luxembourg,LU,LUX,Wiltz,Wiltz,LU-WI,canton,,80.5,178,178,3,Europe/Luxembourg,FALSE,1442874219
Koetschette,Koetschette,,49.8333,5.8333,Luxembourg,LU,LUX,Redange,Redange,LU-RD,canton,,56.1,178,178,3,Europe/Luxembourg,FALSE,1442885754
Herborn,Herborn,,49.7333,6.4333,Luxembourg,LU,LUX,Echternach,Echternach,LU-EC,canton,,48.3,176,176,3,Europe/Luxembourg,FALSE,1442444229
Basbellain,Basbellain,Niederbesslingen,50.1500,5.9833,Luxembourg,LU,LUX,Clervaux,Clervaux,LU-CL,canton,,45.4,173,173,3,Europe/Luxembourg,FALSE,1442046573
Bilsdorf,Bilsdorf,,49.8500,5.8167,Luxembourg,LU,LUX,Redange,Redange,LU-RD,canton,,47.2,167,167,3,Europe/Luxembourg,FALSE,1442094783
Urspelt,Urspelt,,50.0747,6.0454,Luxembourg,LU,LUX,Clervaux,Clervaux,LU-CL,canton,,56.2,164,164,3,Europe/Luxembourg,FALSE,1442284413
Petit-Nobressart,Petit-Nobressart,,49.7792,5.8106,Luxembourg,LU,LUX,Redange,Redange,LU-RD,canton,,63.3,159,159,4,Europe/Luxembourg,FALSE,1442977468
Merscheid,Merscheid,Marscheid|Merscheid-lès-Putscheid,49.9542,6.1053,Luxembourg,LU,LUX,Vianden,Vianden,LU-VD,canton,,49.8,157,157,4,Europe/Luxembourg,FALSE,1442807226
Michelbouch,Michelbouch,Michelsberg|Michelbuch,49.8167,6.0167,Luxembourg,LU,LUX,Redange,Redange,LU-RD,canton,,97.6,154,154,3,Europe/Luxembourg,FALSE,1442978834
Kautenbach,Kautenbach,,49.9500,6.0167,Luxembourg,LU,LUX,Wiltz,Wiltz,LU-WI,canton,,34.1,154,154,3,Europe/Luxembourg,FALSE,1442623680
Bavigne,Bavigne,Boeven|Boewen,49.9167,5.8500,Luxembourg,LU,LUX,Wiltz,Wiltz,LU-WI,canton,minor,42.2,153,153,3,Europe/Luxembourg,FALSE,1442792428
Insenborn,Insenborn,,49.9000,5.8833,Luxembourg,LU,LUX,Wiltz,Wiltz,LU-WI,canton,,12.8,148,148,3,Europe/Luxembourg,FALSE,1442926271
Schlindermanderscheid,Schlindermanderscheid,,49.9333,6.0667,Luxembourg,LU,LUX,Diekirch,Diekirch,LU-DI,canton,,44.9,142,142,3,Europe/Luxembourg,FALSE,1442928213
Rippig,Rippig,,49.7333,6.3167,Luxembourg,LU,LUX,Grevenmacher,Grevenmacher,LU-GR,canton,,50.6,139,139,3,Europe/Luxembourg,FALSE,1442174169
Colpach-Bas,Colpach-Bas,Niedercolpach|Bas-Colpach,49.7500,5.8333,Luxembourg,LU,LUX,Redange,Redange,LU-RD,canton,,63.3,137,137,3,Europe/Luxembourg,FALSE,1442748265
Biwisch,Biwisch,,50.1175,5.9789,Luxembourg,LU,LUX,Clervaux,Clervaux,LU-CL,canton,,66.3,134,134,4,Europe/Luxembourg,FALSE,1442258357
Stockem,Stockem,,50.0833,5.9500,Luxembourg,LU,LUX,Clervaux,Clervaux,LU-CL,canton,,0.4,134,134,3,Europe/Luxembourg,FALSE,1442617085
Rodershausen,Rodershausen,,50.0333,6.1333,Luxembourg,LU,LUX,Clervaux,Clervaux,LU-CL,canton,,22.5,133,133,4,Europe/Luxembourg,FALSE,1442688271
Deiffelt,Deiffelt,Deifelt,50.0667,5.9667,Luxembourg,LU,LUX,Clervaux,Clervaux,LU-CL,canton,,38.3,133,133,3,Europe/Luxembourg,FALSE,1442500704
Doennange,Doennange,Donnange|Dönningen|Doeningen,50.0667,5.9500,Luxembourg,LU,LUX,Clervaux,Clervaux,LU-CL,canton,,27.3,133,133,3,Europe/Luxembourg,FALSE,1442096045
Weiler,Weiler,Weiler-lès-Putscheid,49.9625,6.1228,Luxembourg,LU,LUX,Vianden,Vianden,LU-VD,canton,,49.8,132,132,3,Europe/Luxembourg,FALSE,1442422564
Lullange,Lullange,,50.0667,5.9500,Luxembourg,LU,LUX,Clervaux,Clervaux,LU-CL,canton,,38.3,132,132,3,Europe/Luxembourg,FALSE,1442185669
Weilerbach,Weilerbach,,49.8333,6.3833,Luxembourg,LU,LUX,Echternach,Echternach,LU-EC,canton,,85.5,130,130,3,Europe/Luxembourg,FALSE,1442877401
Noertrange,Noertrange,,49.9833,5.9167,Luxembourg,LU,LUX,Wiltz,Wiltz,LU-WI,canton,,110.0,129,129,3,Europe/Luxembourg,FALSE,1442970807
Dickweiler,Dickweiler,,49.7833,6.4667,Luxembourg,LU,LUX,Echternach,Echternach,LU-EC,canton,,73.2,129,129,3,Europe/Luxembourg,FALSE,1442695553
Hoesdorf,Hoesdorf,,49.8833,6.2500,Luxembourg,LU,LUX,Diekirch,Diekirch,LU-DI,canton,,6.3,127,127,3,Europe/Luxembourg,FALSE,1442369596
Lannen,Lannen,"Maisons Lannenberg|Maisons Pieschend",49.7833,5.8333,Luxembourg,LU,LUX,Redange,Redange,LU-RD,canton,,94.5,127,127,3,Europe/Luxembourg,FALSE,1442554734
Medingen,Medingen,,49.5667,6.2500,Luxembourg,LU,LUX,Luxembourg,Luxembourg,LU-LU,canton,,134.6,126,126,3,Europe/Luxembourg,FALSE,1442009380
Fischbach,Fischbach,Fischbach-lès-Clervaux,50.0755,6.0654,Luxembourg,LU,LUX,Clervaux,Clervaux,LU-CL,canton,,16.5,123,123,3,Europe/Luxembourg,FALSE,1442966057
Breidweiler,Breidweiler,Breitweiler,49.7833,6.3000,Luxembourg,LU,LUX,Echternach,Echternach,LU-EC,canton,,86.3,122,122,4,Europe/Luxembourg,FALSE,1442806328
Merkholz,Merkholz,Merkholtz|Mercols|Merkols,49.9614,5.9806,Luxembourg,LU,LUX,Wiltz,Wiltz,LU-WI,canton,,40.8,121,121,3,Europe/Luxembourg,FALSE,1442855353
Leithum,Leithum,,50.1608,6.1089,Luxembourg,LU,LUX,Clervaux,Clervaux,LU-CL,canton,,45.8,121,121,3,Europe/Luxembourg,FALSE,1442682523
Buschrodt,Buschrodt,,49.8333,5.9333,Luxembourg,LU,LUX,Redange,Redange,LU-RD,canton,,55.5,121,121,3,Europe/Luxembourg,FALSE,1442631709
Heispelt,Heispelt,Haispelt|Heispelt-lès-Wahl,49.8550,5.8819,Luxembourg,LU,LUX,Redange,Redange,LU-RD,canton,,54.0,120,120,4,Europe/Luxembourg,FALSE,1442311927
Berlé,Berle,,49.9500,5.8500,Luxembourg,LU,LUX,Wiltz,Wiltz,LU-WI,canton,,41.0,119,119,3,Europe/Luxembourg,FALSE,1442986999
Putscheid,Putscheid,,50.0000,6.1000,Luxembourg,LU,LUX,Vianden,Vianden,LU-VD,canton,minor,49.8,118,118,3,Europe/Luxembourg,FALSE,1442012100
Bivels,Bivels,Biwels,49.9592,6.1917,Luxembourg,LU,LUX,Vianden,Vianden,LU-VD,canton,,32.4,113,113,3,Europe/Luxembourg,FALSE,1442174773
Troine-Route,Troine-Route,"Baraques de Troine|Troine-Baraques",50.0447,5.8794,Luxembourg,LU,LUX,Clervaux,Clervaux,LU-CL,canton,,38.3,110,110,4,Europe/Luxembourg,FALSE,1442357916
Landscheid,Landscheid,,49.9242,6.1283,Luxembourg,LU,LUX,Vianden,Vianden,LU-VD,canton,,52.2,109,109,4,Europe/Luxembourg,FALSE,1442118615
Hemstal,Hemstal,,49.7300,6.3300,Luxembourg,LU,LUX,Echternach,Echternach,LU-EC,canton,,50.6,107,107,4,Europe/Luxembourg,FALSE,1442890746
Kuborn,Kuborn,,49.8697,5.9011,Luxembourg,LU,LUX,Redange,Redange,LU-RD,canton,,53.3,107,107,4,Europe/Luxembourg,FALSE,1442630512
Levelange,Levelange,,49.7392,5.8556,Luxembourg,LU,LUX,Redange,Redange,LU-RD,canton,,89.5,106,106,4,Europe/Luxembourg,FALSE,1442057829
Rumlange,Rumlange,Rimlingen,50.0833,5.9833,Luxembourg,LU,LUX,Clervaux,Clervaux,LU-CL,canton,,49.5,106,106,3,Europe/Luxembourg,FALSE,1442150583
Dellen,Dellen,,49.8667,5.9667,Luxembourg,LU,LUX,Redange,Redange,LU-RD,canton,,57.3,102,102,3,Europe/Luxembourg,FALSE,1442326247
Longsdorf,Longsdorf,,49.8975,6.2066,Luxembourg,LU,LUX,Vianden,Vianden,LU-VD,canton,,52.2,101,101,3,Europe/Luxembourg,FALSE,1442688432
Allerborn,Allerborn,,50.0356,5.8697,Luxembourg,LU,LUX,Clervaux,Clervaux,LU-CL,canton,,38.3,99,99,4,Europe/Luxembourg,FALSE,1442376983
Grumelscheid,Grumelscheid,Grümmelscheid,49.9850,5.8722,Luxembourg,LU,LUX,Wiltz,Wiltz,LU-WI,canton,,41.0,97,97,4,Europe/Luxembourg,FALSE,1442675013
Wickrange,Wickrange,,49.5333,6.0167,Luxembourg,LU,LUX,Esch-sur-Alzette,Esch-sur-Alzette,LU-ES,canton,,275.5,94,94,3,Europe/Luxembourg,FALSE,1442491056
Marienthal,Marienthal,,49.7100,6.0620,Luxembourg,LU,LUX,Mersch,Mersch,LU-ME,canton,,71.1,93,93,3,Europe/Luxembourg,FALSE,1442225338
Holler,Holler,,50.1236,6.0494,Luxembourg,LU,LUX,Clervaux,Clervaux,LU-CL,canton,,46.0,91,91,3,Europe/Luxembourg,FALSE,1442959835
Findel,Findel,,49.6297,6.2056,Luxembourg,LU,LUX,Luxembourg,Luxembourg,LU-LU,canton,,390.8,84,84,3,Europe/Luxembourg,FALSE,1442017820
Bonnal,Bonnal,Bommel,49.9000,5.8833,Luxembourg,LU,LUX,Wiltz,Wiltz,LU-WI,canton,,42.8,80,80,3,Europe/Luxembourg,FALSE,1442458123
Roder,Roder,,50.0500,6.0833,Luxembourg,LU,LUX,Clervaux,Clervaux,LU-CL,canton,,17.4,80,80,3,Europe/Luxembourg,FALSE,1442399602
Nachtmanderscheid,Nachtmanderscheid,,49.9476,6.1279,Luxembourg,LU,LUX,Vianden,Vianden,LU-VD,canton,,49.8,80,80,3,Europe/Luxembourg,FALSE,1442878453
Grundhof,Grundhof,,49.8319,6.3297,Luxembourg,LU,LUX,Echternach,Echternach,LU-EC,canton,,218.5,79,79,3,Europe/Luxembourg,FALSE,1442294405
Alscheid,Alscheid,,49.9667,6.0167,Luxembourg,LU,LUX,Wiltz,Wiltz,LU-WI,canton,,34.1,78,78,3,Europe/Luxembourg,FALSE,1442574508
Schwebach,Schwebach,,49.7458,5.9711,Luxembourg,LU,LUX,Redange,Redange,LU-RD,canton,,68.9,73,73,4,Europe/Luxembourg,FALSE,1442599401
Bour,Bour,,49.7014,6.0189,Luxembourg,LU,LUX,Mersch,Mersch,LU-ME,canton,,71.1,69,69,3,Europe/Luxembourg,FALSE,1442267420
Brouch,Brouch,,49.7357,6.0201,Luxembourg,LU,LUX,Mersch,Mersch,LU-ME,canton,,110.9,61,61,3,Europe/Luxembourg,FALSE,1442075533
Müllerthal,Mullerthal,Moellerdall,49.7833,6.3167,Luxembourg,LU,LUX,Echternach,Echternach,LU-EC,canton,,78.6,53,53,3,Europe/Luxembourg,FALSE,1442769086
Kalborn,Kalborn,,50.1000,6.1167,Luxembourg,LU,LUX,Clervaux,Clervaux,LU-CL,canton,,13.7,52,52,3,Europe/Luxembourg,FALSE,1442092520
Ansembourg,Ansembourg,,49.7025,6.0433,Luxembourg,LU,LUX,Mersch,Mersch,LU-ME,canton,,71.1,51,51,3,Europe/Luxembourg,FALSE,1442619213
Siebenaler,Siebenaler,,50.0167,6.0333,Luxembourg,LU,LUX,Clervaux,Clervaux,LU-CL,canton,,12.9,49,49,3,Europe/Luxembourg,FALSE,1442418856
Eltz,Eltz,Els|Kalkelz,49.7781,5.8939,Luxembourg,LU,LUX,Redange,Redange,LU-RD,canton,,96.4,45,45,4,Europe/Luxembourg,FALSE,1442166484
Dirbach,Dirbach,Dierbach|Derbach,49.9211,6.0383,Luxembourg,LU,LUX,Wiltz,Wiltz,LU-WI,canton,,47.7,33,33,4,Europe/Luxembourg,FALSE,1442394139
Ehner,Ehner,,49.7175,5.9508,Luxembourg,LU,LUX,Redange,Redange,LU-RD,canton,,68.9,32,32,4,Europe/Luxembourg,FALSE,1442804422
Eschette,Eschette,,49.8228,5.8867,Luxembourg,LU,LUX,Redange,Redange,LU-RD,canton,,3.9,31,31,3,Europe/Luxembourg,FALSE,1442174756
Kapweiler,Kapweiler,,49.7394,5.9686,Luxembourg,LU,LUX,Redange,Redange,LU-RD,canton,,68.9,30,30,4,Europe/Luxembourg,FALSE,1442336029
Huttange,Huttange,,49.7358,5.8975,Luxembourg,LU,LUX,Redange,Redange,LU-RD,canton,,89.5,29,29,4,Europe/Luxembourg,FALSE,1442138134
Savelborn,Savelborn,,49.8111,6.2522,Luxembourg,LU,LUX,Diekirch,Diekirch,LU-DI,canton,,99.2,28,28,4,Europe/Luxembourg,FALSE,1442740451
Colbette,Colbette,Colbet,49.7683,6.3028,Luxembourg,LU,LUX,Echternach,Echternach,LU-EC,canton,,86.3,27,27,4,Europe/Luxembourg,FALSE,1442658972
Brattert,Brattert,,49.8550,5.9019,Luxembourg,LU,LUX,Redange,Redange,LU-RD,canton,,53.3,24,24,4,Europe/Luxembourg,FALSE,1442580204
Haut-Martelange,Haut-Martelange,,49.8244,5.7497,Luxembourg,LU,LUX,Redange,Redange,LU-RD,canton,,56.8,23,23,4,Europe/Luxembourg,FALSE,1442881781
Flatzbour,Flatzbour,Flazbourg|Flatzbourg|Flatzbourhof,49.8356,5.7875,Luxembourg,LU,LUX,Redange,Redange,LU-RD,canton,,56.1,22,22,4,Europe/Luxembourg,FALSE,1442221526
Mecher,Mecher,Mecher-Dunkrodt,49.9230,5.8730,Luxembourg,LU,LUX,Wiltz,Wiltz,LU-WI,canton,,42.2,21,21,3,Europe/Luxembourg,FALSE,1442822955
Weyer,Weyer,,49.7262,6.1997,Luxembourg,LU,LUX,Grevenmacher,Grevenmacher,LU-GR,canton,,120.6,10,10,4,Europe/Luxembourg,FALSE,1442351713
Biwer,Biwer,,49.7069,6.3722,Luxembourg,LU,LUX,Grevenmacher,Grevenmacher,LU-GR,canton,minor,64.9,9,9,3,Europe/Luxembourg,FALSE,1442562259
Grentzingen,Grentzingen,,49.8315,6.0906,Luxembourg,LU,LUX,Diekirch,Diekirch,LU-DI,canton,,132.8,7,7,4,Europe/Luxembourg,FALSE,1442664042
Derenbach,Derenbach,,50.0167,5.8833,Luxembourg,LU,LUX,Clervaux,Clervaux,LU-CL,canton,,38.3,6,6,3,Europe/Luxembourg,FALSE,1442685749
Meysembourg,Meysembourg,"Chateau Meysembourg",49.7689,6.1867,Luxembourg,LU,LUX,Mersch,Mersch,LU-ME,canton,,110.0,1,1,4,Europe/Luxembourg,FALSE,1442153608
Pfaffenthal,Pfaffenthal,,49.6167,6.1333,Luxembourg,LU,LUX,Luxembourg,Luxembourg,LU-LU,canton,,6351.4,,,2,Europe/Luxembourg,FALSE,1442609526
Lasauvage,Lasauvage,,49.5167,5.8333,Luxembourg,LU,LUX,Esch-sur-Alzette,Esch-sur-Alzette,LU-ES,canton,,674.7,,,3,Europe/Luxembourg,FALSE,1442882617
Horas,Horas,"Maisons Horras|Horras|Horace",49.8106,5.9186,Luxembourg,LU,LUX,Redange,Redange,LU-RD,canton,,97.0,,,4,Europe/Luxembourg,FALSE,1442531518
Breidfeld,Breidfeld,,50.1242,6.0636,Luxembourg,LU,LUX,Clervaux,Clervaux,LU-CL,canton,,46.0,,,4,Europe/Luxembourg,FALSE,1442311555
Kirchberg,Kirchberg,,49.6239,6.1494,Luxembourg,LU,LUX,Luxembourg,Luxembourg,LU-LU,canton,,1737.9,,,3,Europe/Luxembourg,FALSE,1442167929
Pettingen,Pettingen,Pittigen|Pittange,49.7667,6.1167,Luxembourg,LU,LUX,Mersch,Mersch,LU-ME,canton,,167.5,,,4,Europe/Luxembourg,FALSE,1442832457
"Ferme Fuhrman","Ferme Fuhrman","Ferme Fahrman",49.9333,5.8000,Luxembourg,LU,LUX,Wiltz,Wiltz,LU-WI,canton,,42.2,,,4,Europe/Luxembourg,FALSE,1442769341
Munshausen,Munshausen,,50.0333,6.0375,Luxembourg,LU,LUX,Clervaux,Clervaux,LU-CL,canton,,58.4,,,4,Europe/Luxembourg,FALSE,1442431202
Wiltzermühle,Wiltzermuhle,Wilzermühle|Ferrantsmühle,49.6500,6.0500,Luxembourg,LU,LUX,Capellen,Capellen,LU-CA,canton,,233.3,,,3,Europe/Luxembourg,FALSE,1442938936
Kehlen,Kehlen,,49.6667,6.0333,Luxembourg,LU,LUX,Capellen,Capellen,LU-CA,canton,minor,203.1,,,3,Europe/Luxembourg,FALSE,1442149348
Weimershof,Weimershof,,49.6000,6.1500,Luxembourg,LU,LUX,Luxembourg,Luxembourg,LU-LU,canton,,1650.0,,,3,Europe/Luxembourg,FALSE,1442197671
Buchholz,Buchholz,,49.6583,6.3647,Luxembourg,LU,LUX,Grevenmacher,Grevenmacher,LU-GR,canton,,77.2,,,4,Europe/Luxembourg,FALSE,1442577401
Tockmuhle,Tockmuhle,Tockenmühle,49.9167,5.7833,Luxembourg,LU,LUX,Wiltz,Wiltz,LU-WI,canton,,41.5,,,4,Europe/Luxembourg,FALSE,1442258814
Knaphoscheid,Knaphoscheid,,50.0167,5.9667,Luxembourg,LU,LUX,Wiltz,Wiltz,LU-WI,canton,,55.2,,,4,Europe/Luxembourg,FALSE,1442895630
"Scierie Schleif","Scierie Schleif",Schleif,49.7167,6.1333,Luxembourg,LU,LUX,Mersch,Mersch,LU-ME,canton,,163.0,,,4,Europe/Luxembourg,FALSE,1442782221
Wickelscheid,Wickelscheid,"Ferme Wickelescht",49.7500,6.2000,Luxembourg,LU,LUX,Mersch,Mersch,LU-ME,canton,,72.5,,,4,Europe/Luxembourg,FALSE,1442648368
Hagen,Hagen,,49.6500,5.9333,Luxembourg,LU,LUX,Capellen,Capellen,LU-CA,canton,,364.5,,,3,Europe/Luxembourg,FALSE,1442813273
Amberg,Amberg,Berg,49.7667,5.8667,Luxembourg,LU,LUX,Redange,Redange,LU-RD,canton,,96.4,,,4,Europe/Luxembourg,FALSE,1442136527
Koeppenhaff,Koeppenhaff,Kippenhof,49.9033,6.1350,Luxembourg,LU,LUX,Vianden,Vianden,LU-VD,canton,,52.1,,,4,Europe/Luxembourg,FALSE,1442445457
Bettel,Bettel,,49.9167,6.2333,Luxembourg,LU,LUX,Vianden,Vianden,LU-VD,canton,,79.5,,,4,Europe/Luxembourg,FALSE,1442361019
Bischenrech,Bischenrech,,50.0833,6.0000,Luxembourg,LU,LUX,Clervaux,Clervaux,LU-CL,canton,,38.3,,,4,Europe/Luxembourg,FALSE,1442102298
Neudorf,Neudorf,,49.6164,6.1567,Luxembourg,LU,LUX,Luxembourg,Luxembourg,LU-LU,canton,,3649.3,,,2,Europe/Luxembourg,FALSE,1442847344
Essingen,Essingen,,49.7789,6.1167,Luxembourg,LU,LUX,Mersch,Mersch,LU-ME,canton,,167.5,,,4,Europe/Luxembourg,FALSE,1442238524
Kobenbour,Kobenbour,,49.7503,6.3061,Luxembourg,LU,LUX,Echternach,Echternach,LU-EC,canton,,63.2,,,4,Europe/Luxembourg,FALSE,1442183680
Oberschieren,Oberschieren,,49.8333,6.1000,Luxembourg,LU,LUX,Diekirch,Diekirch,LU-DI,canton,,132.8,,,4,Europe/Luxembourg,FALSE,1442834217
Lultzhausen,Lultzhausen,,49.9094,5.8908,Luxembourg,LU,LUX,Wiltz,Wiltz,LU-WI,canton,,42.2,,,4,Europe/Luxembourg,FALSE,1442742159
Budersberg,Budersberg,,49.5000,6.0667,Luxembourg,LU,LUX,Esch-sur-Alzette,Esch-sur-Alzette,LU-ES,canton,,883.3,,,3,Europe/Luxembourg,FALSE,1442612396
Winseler,Winseler,,49.9678,5.8903,Luxembourg,LU,LUX,Wiltz,Wiltz,LU-WI,canton,minor,41.0,,,3,Europe/Luxembourg,FALSE,1442320245
Hubertsmuhle,Hubertsmuhle,,50.1333,6.0667,Luxembourg,LU,LUX,Clervaux,Clervaux,LU-CL,canton,,46.0,,,4,Europe/Luxembourg,FALSE,1442599349
Elvange,Elvange,Elvange-lès-Beckerich,49.7247,5.9178,Luxembourg,LU,LUX,Redange,Redange,LU-RD,canton,,89.5,,,4,Europe/Luxembourg,FALSE,1442204321
Betzdorf,Betzdorf,,49.6875,6.3500,Luxembourg,LU,LUX,Grevenmacher,Grevenmacher,LU-GR,canton,minor,157.8,,,3,Europe/Luxembourg,FALSE,1442320620
Ettelbruck,Ettelbruck,Ettlebruk,49.8464,6.0992,Luxembourg,LU,LUX,Diekirch,Diekirch,LU-DI,canton,minor,510.0,,,3,Europe/Luxembourg,FALSE,1442465573
Hinkel,Hinkel,,49.7764,6.5153,Luxembourg,LU,LUX,Echternach,Echternach,LU-EC,canton,,73.3,,,4,Europe/Berlin,FALSE,1442530783
"Moulin de Bascharage","Moulin de Bascharage","Bascharage Moulin",49.8833,5.9000,Luxembourg,LU,LUX,Redange,Redange,LU-RD,canton,,54.2,,,4,Europe/Luxembourg,FALSE,1442174138
"Maison Hardtwos","Maison Hardtwos",,49.7667,6.4500,Luxembourg,LU,LUX,Echternach,Echternach,LU-EC,canton,,73.2,,,4,Europe/Luxembourg,FALSE,1442341129
Goetzingen,Goetzingen,Götzange|Goetzange,49.6667,5.9833,Luxembourg,LU,LUX,Capellen,Capellen,LU-CA,canton,,167.2,,,4,Europe/Luxembourg,FALSE,1442870282
Lellerhaff,Lellerhaff,Lellingerhof|Fermes,49.7994,6.0861,Luxembourg,LU,LUX,Mersch,Mersch,LU-ME,canton,,146.3,,,4,Europe/Luxembourg,FALSE,1442558004
Banzelt,Banzelt,"Olingerbarriére|Maisons Banzelt",49.6683,6.3303,Luxembourg,LU,LUX,Grevenmacher,Grevenmacher,LU-GR,canton,,157.8,,,4,Europe/Luxembourg,FALSE,1442533526
Gantenbeinmühle,Gantenbeinmuhle,,49.6000,6.1667,Luxembourg,LU,LUX,Luxembourg,Luxembourg,LU-LU,canton,,863.2,,,3,Europe/Luxembourg,FALSE,1442820501
Sanem,Sanem,Sassenheim,49.5481,5.9289,Luxembourg,LU,LUX,Esch-sur-Alzette,Esch-sur-Alzette,LU-ES,canton,minor,596.3,,,3,Europe/Luxembourg,FALSE,1442664815
Ellange,Ellange,,49.5167,6.3000,Luxembourg,LU,LUX,Remich,Remich,LU-RM,canton,,399.9,,,3,Europe/Luxembourg,FALSE,1442325927
Kéisbierg,Keisbierg,Kiesberg,49.6747,6.3206,Luxembourg,LU,LUX,Grevenmacher,Grevenmacher,LU-GR,canton,,157.8,,,4,Europe/Luxembourg,FALSE,1442719108
Birtrange,Birtrange,"Chateau de Birtrange",49.8269,6.0914,Luxembourg,LU,LUX,Diekirch,Diekirch,LU-DI,canton,,213.7,,,3,Europe/Luxembourg,FALSE,1442991537
Fennbierg,Fennbierg,"Auf der Höhe|Fennberg|Pfennberg",50.0128,6.0914,Luxembourg,LU,LUX,Clervaux,Clervaux,LU-CL,canton,,64.3,,,4,Europe/Luxembourg,FALSE,1442918552
Wolpert,Wolpert,"Wolper|Maisons Wolper",49.7578,6.3533,Luxembourg,LU,LUX,Echternach,Echternach,LU-EC,canton,,55.3,,,4,Europe/Luxembourg,FALSE,1442649963
Hagelsdorf,Hagelsdorf,,49.6833,6.3667,Luxembourg,LU,LUX,Grevenmacher,Grevenmacher,LU-GR,canton,,73.7,,,4,Europe/Luxembourg,FALSE,1442269494
Schwidelbrouch,Schwidelbrouch,Schwiedelbrouch,49.8333,5.8500,Luxembourg,LU,LUX,Redange,Redange,LU-RD,canton,,56.1,,,3,Europe/Luxembourg,FALSE,1442431494
Oberglabach,Oberglabach,,49.7775,6.1506,Luxembourg,LU,LUX,Mersch,Mersch,LU-ME,canton,,148.2,,,4,Europe/Luxembourg,FALSE,1442640806
Limpertsberg,Limpertsberg,Lampertsberg,49.6208,6.1217,Luxembourg,LU,LUX,Luxembourg,Luxembourg,LU-LU,canton,,6137.0,,,2,Europe/Luxembourg,FALSE,1442153973
Roost,Roost,Rost,49.7867,6.0961,Luxembourg,LU,LUX,Mersch,Mersch,LU-ME,canton,,147.3,,,4,Europe/Luxembourg,FALSE,1442871124
"Maison Leh","Maison Leh",,49.8833,6.2333,Luxembourg,LU,LUX,Diekirch,Diekirch,LU-DI,canton,,122.9,,,4,Europe/Luxembourg,FALSE,1442388128
Erpeldange,Erpeldange,Erpeldange-sur-Sûre,49.8639,6.1139,Luxembourg,LU,LUX,Diekirch,Diekirch,LU-DI,canton,minor,116.3,,,3,Europe/Luxembourg,FALSE,1442814372
Limpach,Limpach,,49.5667,5.9833,Luxembourg,LU,LUX,Esch-sur-Alzette,Esch-sur-Alzette,LU-ES,canton,,128.7,,,4,Europe/Luxembourg,FALSE,1442290458
Burange,Burange,,49.4911,6.0925,Luxembourg,LU,LUX,Esch-sur-Alzette,Esch-sur-Alzette,LU-ES,canton,,883.6,,,3,Europe/Luxembourg,FALSE,1442476024
Héienhaff,Heienhaff,Höhenhof|Hoehenhof,49.6325,6.2208,Luxembourg,LU,LUX,Luxembourg,Luxembourg,LU-LU,canton,,299.7,,,3,Europe/Luxembourg,FALSE,1442983709
Lellingen,Lellingen,Leltingen,49.9836,6.0144,Luxembourg,LU,LUX,Wiltz,Wiltz,LU-WI,canton,,34.1,,,4,Europe/Luxembourg,FALSE,1442502751
Merl,Merl,,49.6033,6.0956,Luxembourg,LU,LUX,Luxembourg,Luxembourg,LU-LU,canton,,1675.5,,,3,Europe/Luxembourg,FALSE,1442561050
Grindhausen,Grindhausen,,50.0833,6.0600,Luxembourg,LU,LUX,Clervaux,Clervaux,LU-CL,canton,,64.1,,,4,Europe/Luxembourg,FALSE,1442603059
Weileschbach,Weileschbach,Steinescht|Weilesbach,49.8667,6.2167,Luxembourg,LU,LUX,Diekirch,Diekirch,LU-DI,canton,,122.9,,,4,Europe/Luxembourg,FALSE,1442724093
Aciérie,Acierie,,49.5333,5.9000,Luxembourg,LU,LUX,Esch-sur-Alzette,Esch-sur-Alzette,LU-ES,canton,,1071.8,,,3,Europe/Luxembourg,FALSE,1442177491
Cessange,Cessange,Cessingen,49.5894,6.1069,Luxembourg,LU,LUX,Luxembourg,Luxembourg,LU-LU,canton,,450.2,,,3,Europe/Luxembourg,FALSE,1442398644
Pommerloch,Pommerloch,Trentelhof|Reckingerhof,49.9603,5.8608,Luxembourg,LU,LUX,Wiltz,Wiltz,LU-WI,canton,,41.0,,,4,Europe/Luxembourg,FALSE,1442432090
Bertrange,Bertrange,,49.6111,6.0500,Luxembourg,LU,LUX,Luxembourg,Luxembourg,LU-LU,canton,minor,411.3,,,3,Europe/Luxembourg,FALSE,1442131172
Kopstal,Kopstal,,49.6642,6.0719,Luxembourg,LU,LUX,Capellen,Capellen,LU-CA,canton,minor,364.1,,,3,Europe/Luxembourg,FALSE,1442556338
Consdorf,Consdorf,,49.7792,6.3375,Luxembourg,LU,LUX,Echternach,Echternach,LU-EC,canton,minor,86.3,,,3,Europe/Luxembourg,FALSE,1442717096
Wollefsmillen,Wollefsmillen,"Wolfsmuhle lès Wasserbillig|Wolfsmühle",49.7164,6.4900,Luxembourg,LU,LUX,Grevenmacher,Grevenmacher,LU-GR,canton,,337.6,,,3,Europe/Luxembourg,FALSE,1442201826
Hachiville,Hachiville,Helzingen,50.1000,5.9167,Luxembourg,LU,LUX,Clervaux,Clervaux,LU-CL,canton,,38.3,,,4,Europe/Luxembourg,FALSE,1442013651
Masseler,Masseler,,49.9308,6.0372,Luxembourg,LU,LUX,Wiltz,Wiltz,LU-WI,canton,,51.1,,,4,Europe/Luxembourg,FALSE,1442579219
Bissen,Bissen,,49.7833,6.0667,Luxembourg,LU,LUX,Mersch,Mersch,LU-ME,canton,minor,142.0,,,3,Europe/Luxembourg,FALSE,1442871366
Hupperdange,Hupperdange,,50.1000,6.0667,Luxembourg,LU,LUX,Clervaux,Clervaux,LU-CL,canton,,55.8,,,4,Europe/Luxembourg,FALSE,1442737657
Brouch,Brouch,Bruch|Brouch-lès-Biwer,49.7236,6.3425,Luxembourg,LU,LUX,Grevenmacher,Grevenmacher,LU-GR,canton,,64.9,,,4,Europe/Luxembourg,FALSE,1442123243
Béil,Beil,Bihl,49.7592,6.2397,Luxembourg,LU,LUX,Mersch,Mersch,LU-ME,canton,,110.3,,,4,Europe/Luxembourg,FALSE,1442630776
Lauterbour,Lauterbour,Lauterborn,49.7900,6.3883,Luxembourg,LU,LUX,Echternach,Echternach,LU-EC,canton,,233.7,,,3,Europe/Luxembourg,FALSE,1442592883
"Maisons Prevent","Maisons Prevent",,49.7167,6.1833,Luxembourg,LU,LUX,Mersch,Mersch,LU-ME,canton,,191.3,,,4,Europe/Luxembourg,FALSE,1442576790
Potaschberg,Potaschberg,Potaschhof|Grevenmacherberg,49.6784,6.3973,Luxembourg,LU,LUX,Grevenmacher,Grevenmacher,LU-GR,canton,,371.2,,,3,Europe/Luxembourg,FALSE,1442333732
Hersberg,Hersberg,,49.7503,6.3286,Luxembourg,LU,LUX,Echternach,Echternach,LU-EC,canton,,50.8,,,4,Europe/Luxembourg,FALSE,1442265096
Vesquenhaff,Vesquenhaff,"Ferme Vesque|Ferme de Vesque|Vesquehof|Westenhof|Festenhof",49.5111,5.8739,Luxembourg,LU,LUX,Esch-sur-Alzette,Esch-sur-Alzette,LU-ES,canton,,1071.8,,,3,Europe/Luxembourg,FALSE,1442595000
Grevelscheuer,Grevelscheuer,"Grevelsscheuer|Ferme Grevelscheuer",49.6333,6.2000,Luxembourg,LU,LUX,Luxembourg,Luxembourg,LU-LU,canton,,385.2,,,3,Europe/Luxembourg,FALSE,1442079352
Troisvierges,Troisvierges,Ulflingen,50.1211,6.0003,Luxembourg,LU,LUX,Clervaux,Clervaux,LU-CL,canton,minor,85.5,,,3,Europe/Luxembourg,FALSE,1442018712
Schmëtt,Schmett,Huldange-Forge|Schmiede|Forge,50.1817,6.0253,Luxembourg,LU,LUX,Clervaux,Clervaux,LU-CL,canton,,44.3,,,4,Europe/Brussels,FALSE,1442456161
Oberschlinder,Oberschlinder,Haut-Schlinder,49.9500,6.0667,Luxembourg,LU,LUX,Diekirch,Diekirch,LU-DI,canton,,80.8,,,4,Europe/Luxembourg,FALSE,1442997343
Tandel,Tandel,,49.8970,6.1820,Luxembourg,LU,LUX,Vianden,Vianden,LU-VD,canton,minor,52.2,,,3,Europe/Luxembourg,FALSE,1442170243
Liefrange,Liefrange,,49.9100,5.8775,Luxembourg,LU,LUX,Wiltz,Wiltz,LU-WI,canton,,42.2,,,4,Europe/Luxembourg,FALSE,1442926050
Brill,Brill,Bruhl,49.9817,5.9061,Luxembourg,LU,LUX,Wiltz,Wiltz,LU-WI,canton,,41.0,,,4,Europe/Luxembourg,FALSE,1442213380
Strassen,Strassen,,49.6206,6.0733,Luxembourg,LU,LUX,Luxembourg,Luxembourg,LU-LU,canton,minor,735.0,,,3,Europe/Luxembourg,FALSE,1442140059
Manternach,Manternach,,49.7069,6.4236,Luxembourg,LU,LUX,Grevenmacher,Grevenmacher,LU-GR,canton,minor,82.4,,,3,Europe/Luxembourg,FALSE,1442576511
Berens,Berens,,49.8436,6.2681,Luxembourg,LU,LUX,Echternach,Echternach,LU-EC,canton,,69.1,,,4,Europe/Luxembourg,FALSE,1442869773
Schwachtgesmühle,Schwachtgesmuhle,,49.7167,6.2167,Luxembourg,LU,LUX,Grevenmacher,Grevenmacher,LU-GR,canton,,128.1,,,4,Europe/Luxembourg,FALSE,1442365091
Reuler,Reuler,,50.0500,6.0333,Luxembourg,LU,LUX,Clervaux,Clervaux,LU-CL,canton,,76.3,,,4,Europe/Luxembourg,FALSE,1442152356
Hau,Hau,,49.5208,6.1867,Luxembourg,LU,LUX,Esch-sur-Alzette,Esch-sur-Alzette,LU-ES,canton,,275.8,,,3,Europe/Luxembourg,FALSE,1442027626
Bigelbach,Bigelbach,,49.8603,6.2881,Luxembourg,LU,LUX,Diekirch,Diekirch,LU-DI,canton,,108.5,,,4,Europe/Luxembourg,FALSE,1442885292
Neimillen,Neimillen,Neumühle,50.0806,5.9217,Luxembourg,LU,LUX,Clervaux,Clervaux,LU-CL,canton,,38.3,,,4,Europe/Luxembourg,FALSE,1442765427
Heischtergronn,Heischtergronn,"Heiderscheidergrund|Fond de Heiderscheid",49.9036,5.9622,Luxembourg,LU,LUX,Wiltz,Wiltz,LU-WI,canton,,56.1,,,4,Europe/Luxembourg,FALSE,1442428851
Rolling,Rolling,Rollingen,49.5500,6.3167,Luxembourg,LU,LUX,Remich,Remich,LU-RM,canton,,170.8,,,4,Europe/Luxembourg,FALSE,1442553926
Dorscheiderhaischen,Dorscheiderhaischen,Dorscheiderhäuschen|Dorscheiderhaeuschen,50.0392,6.0797,Luxembourg,LU,LUX,Clervaux,Clervaux,LU-CL,canton,,64.3,,,4,Europe/Luxembourg,FALSE,1442900158
Weiler,Weiler,,50.1044,5.9461,Luxembourg,LU,LUX,Clervaux,Clervaux,LU-CL,canton,,38.3,,,4,Europe/Luxembourg,FALSE,1442401994
Kreizerbuch,Kreizerbuch,"Maisons Kreutzerbuch|Kreutzerbuch|Nikolausbuch|Kreuzerbuch",49.7017,5.9164,Luxembourg,LU,LUX,Capellen,Capellen,LU-CA,canton,,221.1,,,3,Europe/Luxembourg,FALSE,1442134209
Geyershaff,Geyershaff,Geyershof,49.7592,6.3878,Luxembourg,LU,LUX,Echternach,Echternach,LU-EC,canton,,50.6,,,4,Europe/Luxembourg,FALSE,1442369832
Wolfsmuhle-lès-Ellange,Wolfsmuhle-les-Ellange,Wolfsmühle,49.5333,6.3167,Luxembourg,LU,LUX,Remich,Remich,LU-RM,canton,,112.0,,,4,Europe/Luxembourg,FALSE,1442422291
Givenich,Givenich,Giwenich,49.7422,6.4800,Luxembourg,LU,LUX,Echternach,Echternach,LU-EC,canton,,48.3,,,4,Europe/Luxembourg,FALSE,1442565411
Schifflange,Schifflange,,49.5064,6.0128,Luxembourg,LU,LUX,Esch-sur-Alzette,Esch-sur-Alzette,LU-ES,canton,minor,1346.1,,,3,Europe/Luxembourg,FALSE,1442129979
Beaufort,Beaufort,Befort,49.8333,6.2833,Luxembourg,LU,LUX,Echternach,Echternach,LU-EC,canton,minor,276.9,,,3,Europe/Luxembourg,FALSE,1442804911
Diggel,Diggel,Dideling,49.7261,5.8411,Luxembourg,LU,LUX,Redange,Redange,LU-RD,canton,,100.5,,,4,Europe/Luxembourg,FALSE,1442284257
Geimer,Geimer,,49.7500,6.0000,Luxembourg,LU,LUX,Mersch,Mersch,LU-ME,canton,,110.9,,,4,Europe/Luxembourg,FALSE,1442687701
Dunkrodt,Dunkrodt,,49.9231,5.8786,Luxembourg,LU,LUX,Wiltz,Wiltz,LU-WI,canton,,42.2,,,4,Europe/Luxembourg,FALSE,1442703333
Tadler,Tadler,,49.9114,5.9956,Luxembourg,LU,LUX,Wiltz,Wiltz,LU-WI,canton,,58.2,,,4,Europe/Luxembourg,FALSE,1442383663
Jenkenhof,Jenkenhof,,49.8167,5.9500,Luxembourg,LU,LUX,Redange,Redange,LU-RD,canton,,56.6,,,4,Europe/Luxembourg,FALSE,1442818241
Fronay,Fronay,"Ferme Fronay|Fronayhof",49.6667,6.4167,Luxembourg,LU,LUX,Grevenmacher,Grevenmacher,LU-GR,canton,,371.4,,,3,Europe/Luxembourg,FALSE,1442471678
Oberwampach,Oberwampach,,50.0167,5.8667,Luxembourg,LU,LUX,Clervaux,Clervaux,LU-CL,canton,,38.3,,,4,Europe/Luxembourg,FALSE,1442844250
Brameschhaff,Brameschhaff,Brameschhof,49.6567,6.0497,Luxembourg,LU,LUX,Capellen,Capellen,LU-CA,canton,,237.8,,,3,Europe/Luxembourg,FALSE,1442888479
"Ferme Grossenbour","Ferme Grossenbour",,49.8833,6.1667,Luxembourg,LU,LUX,Vianden,Vianden,LU-VD,canton,,518.6,,,3,Europe/Luxembourg,FALSE,1442745033
Beiler,Beiler,,50.1656,6.0889,Luxembourg,LU,LUX,Clervaux,Clervaux,LU-CL,canton,,46.0,,,4,Europe/Luxembourg,FALSE,1442961725
Walsdorf,Walsdorf,Waldsdorf,49.9267,6.1736,Luxembourg,LU,LUX,Vianden,Vianden,LU-VD,canton,,52.2,,,4,Europe/Luxembourg,FALSE,1442629620
Kocherei,Kocherei,Kocherey,50.0694,6.0706,Luxembourg,LU,LUX,Clervaux,Clervaux,LU-CL,canton,,55.8,,,4,Europe/Luxembourg,FALSE,1442995736
Schleiwenhaff,Schleiwenhaff,Schlevenhof|Schlewenhof,49.5783,6.0589,Luxembourg,LU,LUX,Esch-sur-Alzette,Esch-sur-Alzette,LU-ES,canton,,163.0,,,4,Europe/Luxembourg,FALSE,1442990341
Ober-Merzig,Ober-Merzig,Haut-Merzig,49.8333,6.0167,Luxembourg,LU,LUX,Diekirch,Diekirch,LU-DI,canton,,145.8,,,4,Europe/Luxembourg,FALSE,1442883834
Uebersyren,Uebersyren,,49.6286,6.2781,Luxembourg,LU,LUX,Luxembourg,Luxembourg,LU-LU,canton,,267.4,,,3,Europe/Luxembourg,FALSE,1442886359
"Maison Wangert","Maison Wangert",Wangert,49.8000,5.8667,Luxembourg,LU,LUX,Redange,Redange,LU-RD,canton,,56.1,,,4,Europe/Luxembourg,FALSE,1442492229
Goedange,Goedange,Goedingen|Gödange,50.1492,6.0133,Luxembourg,LU,LUX,Clervaux,Clervaux,LU-CL,canton,,85.5,,,4,Europe/Luxembourg,FALSE,1442446110
Weimerskirch,Weimerskirch,Neimersk|Waymersk|Wimerskirch,49.6236,6.1364,Luxembourg,LU,LUX,Luxembourg,Luxembourg,LU-LU,canton,,1884.4,,,3,Europe/Luxembourg,FALSE,1442794949
Niederwiltz,Niederwiltz,,49.9692,5.9231,Luxembourg,LU,LUX,Wiltz,Wiltz,LU-WI,canton,,271.7,,,3,Europe/Luxembourg,FALSE,1442048491
Boevange-sur-Attert,Boevange-sur-Attert,"Boevange|Bovange|Bowen an der Attert|Boewingen",49.7753,6.0156,Luxembourg,LU,LUX,Mersch,Mersch,LU-ME,canton,minor,110.9,,,3,Europe/Luxembourg,FALSE,1442777720
Belval,Belval,Ernshof,49.5103,5.9436,Luxembourg,LU,LUX,Esch-sur-Alzette,Esch-sur-Alzette,LU-ES,canton,,739.6,,,3,Europe/Luxembourg,FALSE,1442861574
Ringel,Ringel,,49.9169,6.0119,Luxembourg,LU,LUX,Wiltz,Wiltz,LU-WI,canton,,59.0,,,4,Europe/Luxembourg,FALSE,1442991227
Kehmen,Kehmen,,49.9008,6.0372,Luxembourg,LU,LUX,Diekirch,Diekirch,LU-DI,canton,,44.9,,,4,Europe/Luxembourg,FALSE,1442408937
Loorbierg,Loorbierg,"Loreshof|Ferme Loring|Brucherhof|Loringshof",49.8594,5.8511,Luxembourg,LU,LUX,Redange,Redange,LU-RD,canton,,56.1,,,4,Europe/Luxembourg,FALSE,1442761099
Webershof,Webershof,Weberhof,49.8167,6.2500,Luxembourg,LU,LUX,Diekirch,Diekirch,LU-DI,canton,,80.0,,,4,Europe/Luxembourg,FALSE,1442311730
Kleinhoscheid,Kleinhoscheid,,50.0194,5.9681,Luxembourg,LU,LUX,Wiltz,Wiltz,LU-WI,canton,,55.2,,,4,Europe/Luxembourg,FALSE,1442115186
Obereisenbach,Obereisenbach,,50.0072,6.1467,Luxembourg,LU,LUX,Clervaux,Clervaux,LU-CL,canton,,15.0,,,4,Europe/Luxembourg,FALSE,1442965117
Leihof,Leihof,,49.8000,6.1000,Luxembourg,LU,LUX,Mersch,Mersch,LU-ME,canton,,180.9,,,4,Europe/Luxembourg,FALSE,1442696452
Lentzweiler,Lentzweiler,,50.0700,5.9781,Luxembourg,LU,LUX,Clervaux,Clervaux,LU-CL,canton,,38.3,,,4,Europe/Luxembourg,FALSE,1442735637
Mecher,Mecher,Mecher-sur-Clervaux|Mecher-lez-Clervaux,50.0408,6.0175,Luxembourg,LU,LUX,Clervaux,Clervaux,LU-CL,canton,,87.8,,,4,Europe/Luxembourg,FALSE,1442704729
Waldbredimus,Waldbredimus,,49.5550,6.2875,Luxembourg,LU,LUX,Remich,Remich,LU-RM,canton,minor,64.9,,,3,Europe/Luxembourg,FALSE,1442358030
Mompach,Mompach,,49.7461,6.4650,Luxembourg,LU,LUX,Echternach,Echternach,LU-EC,canton,minor,48.3,,,3,Europe/Luxembourg,FALSE,1442375992
Esch-sur-Sûre,Esch-sur-Sure,Escch-sur-Sure|Esch,49.9110,5.9347,Luxembourg,LU,LUX,Wiltz,Wiltz,LU-WI,canton,minor,52.1,,,3,Europe/Luxembourg,FALSE,1442893198
"Moulin Schenk","Moulin Schenk",,49.7333,6.2167,Luxembourg,LU,LUX,Mersch,Mersch,LU-ME,canton,,128.1,,,4,Europe/Luxembourg,FALSE,1442017227
"Maison Hoffmann","Maison Hoffmann",,49.7000,6.2833,Luxembourg,LU,LUX,Grevenmacher,Grevenmacher,LU-GR,canton,,128.1,,,4,Europe/Luxembourg,FALSE,1442005658
Staekaul,Staekaul,Steinkaul,49.6961,5.9203,Luxembourg,LU,LUX,Capellen,Capellen,LU-CA,canton,,224.9,,,3,Europe/Luxembourg,FALSE,1442654722
Cinqfontaines,Cinqfontaines,Fünfbrunnen|Paffenmühle,50.1072,6.0078,Luxembourg,LU,LUX,Clervaux,Clervaux,LU-CL,canton,,38.4,,,4,Europe/Luxembourg,FALSE,1442418459
Niederschieren,Niederschieren,,49.8333,6.1000,Luxembourg,LU,LUX,Diekirch,Diekirch,LU-DI,canton,,132.8,,,4,Europe/Luxembourg,FALSE,1442966464
Nieder-Merzig,Nieder-Merzig,Bas-Merzig,49.8333,6.0167,Luxembourg,LU,LUX,Diekirch,Diekirch,LU-DI,canton,,145.8,,,4,Europe/Luxembourg,FALSE,1442595169
Hoerchen,Hoerchen,"Neulöcher|Haertgen|Maison Hoerchen",49.5667,5.9333,Luxembourg,LU,LUX,Capellen,Capellen,LU-CA,canton,,515.1,,,3,Europe/Luxembourg,FALSE,1442736061
Kapenacker,Kapenacker,"Ferme Kapenacker",49.6344,6.3558,Luxembourg,LU,LUX,Grevenmacher,Grevenmacher,LU-GR,canton,,157.2,,,4,Europe/Luxembourg,FALSE,1442316845
Lannenerbierg,Lannenerbierg,Lannenerberg,49.7986,5.8353,Luxembourg,LU,LUX,Redange,Redange,LU-RD,canton,,96.4,,,4,Europe/Luxembourg,FALSE,1442521356
"Maison Cronière","Maison Croniere","La Cronière|Bachermühle",49.5167,5.8500,Luxembourg,LU,LUX,Esch-sur-Alzette,Esch-sur-Alzette,LU-ES,canton,,1071.8,,,3,Europe/Luxembourg,FALSE,1442941648
Mertzig,Mertzig,Merzig,49.8311,6.0037,Luxembourg,LU,LUX,Diekirch,Diekirch,LU-DI,canton,minor,156.9,,,3,Europe/Luxembourg,FALSE,1442767141
Niederfeulen,Niederfeulen,Feulen|Neiderfeulen,49.8500,6.0500,Luxembourg,LU,LUX,Diekirch,Diekirch,LU-DI,canton,minor,79.4,,,3,Europe/Luxembourg,FALSE,1442068290
Wues,Wues,Woos,49.7967,6.1556,Luxembourg,LU,LUX,Mersch,Mersch,LU-ME,canton,,64.7,,,4,Europe/Luxembourg,FALSE,1442718121
Bombatsch,Bombatsch,,50.0583,6.0664,Luxembourg,LU,LUX,Clervaux,Clervaux,LU-CL,canton,,58.4,,,4,Europe/Luxembourg,FALSE,1442297063
"Château Faubourg","Chateau Faubourg",Faubourg|Chateau,49.9333,6.2167,Luxembourg,LU,LUX,Vianden,Vianden,LU-VD,canton,,185.2,,,4,Europe/Luxembourg,FALSE,1442913054
Lausdorn,Lausdorn,,50.1192,6.0833,Luxembourg,LU,LUX,Clervaux,Clervaux,LU-CL,canton,,46.0,,,4,Europe/Luxembourg,FALSE,1442126108
Neumühle,Neumuhle,,49.9000,5.9500,Luxembourg,LU,LUX,Wiltz,Wiltz,LU-WI,canton,,54.1,,,4,Europe/Luxembourg,FALSE,1442073174
Folkendange,Folkendange,"Ferme Folkendange",49.8431,6.2042,Luxembourg,LU,LUX,Diekirch,Diekirch,LU-DI,canton,,55.0,,,4,Europe/Luxembourg,FALSE,1442372917
Untereisenbach,Untereisenbach,,50.0000,6.1500,Luxembourg,LU,LUX,Clervaux,Clervaux,LU-CL,canton,,15.0,,,3,Europe/Luxembourg,FALSE,1442578719
Bohey,Bohey,Bohoey,49.9742,5.8439,Luxembourg,LU,LUX,Wiltz,Wiltz,LU-WI,canton,,41.0,,,4,Europe/Luxembourg,FALSE,1442094486
Niederberg,Niederberg,Jungelshof,49.8833,6.2000,Luxembourg,LU,LUX,Diekirch,Diekirch,LU-DI,canton,,122.9,,,4,Europe/Luxembourg,FALSE,1442257597
Nommern,Nommern,,49.7942,6.1736,Luxembourg,LU,LUX,Mersch,Mersch,LU-ME,canton,minor,78.9,,,3,Europe/Luxembourg,FALSE,1442506203
Grund,Grund,,49.6167,6.1333,Luxembourg,LU,LUX,Luxembourg,Luxembourg,LU-LU,canton,,6351.4,,,2,Europe/Luxembourg,FALSE,1442653099
Beidweiler,Beidweiler,,49.7167,6.3000,Luxembourg,LU,LUX,Grevenmacher,Grevenmacher,LU-GR,canton,,128.1,,,4,Europe/Luxembourg,FALSE,1442159791
Niederschlinder,Niederschlinder,,49.9333,6.0667,Luxembourg,LU,LUX,Diekirch,Diekirch,LU-DI,canton,,44.9,,,4,Europe/Luxembourg,FALSE,1442396123
Rodbach,Rodbach,"Maison Rodbach",49.7797,5.9353,Luxembourg,LU,LUX,Redange,Redange,LU-RD,canton,,94.8,,,4,Europe/Luxembourg,FALSE,1442886616
Mergenhof,Mergenhof,Frillschterhof|Stautzenhof,49.8167,5.8667,Luxembourg,LU,LUX,Redange,Redange,LU-RD,canton,,56.1,,,4,Europe/Luxembourg,FALSE,1442134451
Houschthauser,Houschthauser,,49.9500,5.8000,Luxembourg,LU,LUX,Wiltz,Wiltz,LU-WI,canton,,41.0,,,4,Europe/Luxembourg,FALSE,1442252345
Clairefontaine,Clairefontaine,Clairefontaines|Claire,49.8667,6.1833,Luxembourg,LU,LUX,Diekirch,Diekirch,LU-DI,canton,,490.5,,,3,Europe/Luxembourg,FALSE,1442176171
Assel,Assel,,49.5528,6.3158,Luxembourg,LU,LUX,Remich,Remich,LU-RM,canton,,170.8,,,4,Europe/Luxembourg,FALSE,1442156977
Schneideschhof,Schneideschhof,,49.6833,5.9500,Luxembourg,LU,LUX,Capellen,Capellen,LU-CA,canton,,167.0,,,4,Europe/Luxembourg,FALSE,1442856191
Broderbour,Broderbour,Seinkaul,49.8531,6.1872,Luxembourg,LU,LUX,Diekirch,Diekirch,LU-DI,canton,,122.9,,,4,Europe/Luxembourg,FALSE,1442470569
Schuttrange,Schuttrange,,49.6206,6.2686,Luxembourg,LU,LUX,Luxembourg,Luxembourg,LU-LU,canton,minor,267.4,,,3,Europe/Luxembourg,FALSE,1442818095
Hamm,Hamm,,49.6069,6.1686,Luxembourg,LU,LUX,Luxembourg,Luxembourg,LU-LU,canton,,863.2,,,3,Europe/Luxembourg,FALSE,1442689291
Beggen,Beggen,,49.6492,6.1283,Luxembourg,LU,LUX,Luxembourg,Luxembourg,LU-LU,canton,,2495.8,,,2,Europe/Luxembourg,FALSE,1442879486
Bockholtz,Bockholtz,Bockholz|Bockholz-lès-Hosingen,50.0122,6.0528,Luxembourg,LU,LUX,Clervaux,Clervaux,LU-CL,canton,,64.3,,,4,Europe/Luxembourg,FALSE,1442952969
Boursdorf,Boursdorf,Busschdorf,49.7581,6.4786,Luxembourg,LU,LUX,Echternach,Echternach,LU-EC,canton,,48.3,,,4,Europe/Luxembourg,FALSE,1442416704
Breinert,Breinert,,49.7067,6.3406,Luxembourg,LU,LUX,Grevenmacher,Grevenmacher,LU-GR,canton,,81.4,,,4,Europe/Luxembourg,FALSE,1442513834
Steinsel,Steinsel,,49.6769,6.1239,Luxembourg,LU,LUX,Luxembourg,Luxembourg,LU-LU,canton,minor,244.7,,,3,Europe/Luxembourg,FALSE,1442825809
Bous,Bous,,49.5556,6.3306,Luxembourg,LU,LUX,Remich,Remich,LU-RM,canton,minor,170.8,,,3,Europe/Luxembourg,FALSE,1442263816
Vichten,Vichten,,49.8031,6.0000,Luxembourg,LU,LUX,Redange,Redange,LU-RD,canton,minor,92.0,,,3,Europe/Luxembourg,FALSE,1442847895
Lintgen,Lintgen,,49.7167,6.1333,Luxembourg,LU,LUX,Mersch,Mersch,LU-ME,canton,minor,224.7,,,3,Europe/Luxembourg,FALSE,1442465354
Martelinville,Martelinville,"Ferme Martelinville|Rommelerhaff|Rommelerhof|Rommeldange",49.8669,5.7733,Luxembourg,LU,LUX,Redange,Redange,LU-RD,canton,,39.9,,,4,Europe/Luxembourg,FALSE,1442308954
Bettembourg,Bettembourg,,49.5167,6.1000,Luxembourg,LU,LUX,Esch-sur-Alzette,Esch-sur-Alzette,LU-ES,canton,minor,498.8,,,3,Europe/Luxembourg,FALSE,1442869301
Wahl,Wahl,,49.8358,5.9056,Luxembourg,LU,LUX,Redange,Redange,LU-RD,canton,minor,53.3,,,3,Europe/Luxembourg,FALSE,1442672455
Goeldt,Goeldt,"Maison Goelt",49.8222,5.8558,Luxembourg,LU,LUX,Redange,Redange,LU-RD,canton,,56.1,,,4,Europe/Luxembourg,FALSE,1442663086
Ehlange,Ehlange,,49.5489,6.0169,Luxembourg,LU,LUX,Esch-sur-Alzette,Esch-sur-Alzette,LU-ES,canton,,128.7,,,4,Europe/Luxembourg,FALSE,1442617743
"Maisons Boussert","Maisons Boussert",Boussert,49.7333,6.1333,Luxembourg,LU,LUX,Mersch,Mersch,LU-ME,canton,,163.0,,,4,Europe/Luxembourg,FALSE,1442832212
Pétange,Petange,Petingen,49.5564,5.8769,Luxembourg,LU,LUX,Esch-sur-Alzette,Esch-sur-Alzette,LU-ES,canton,minor,1583.0,,,3,Europe/Luxembourg,FALSE,1442534590
Rindschleiden,Rindschleiden,,49.8497,5.9000,Luxembourg,LU,LUX,Redange,Redange,LU-RD,canton,,53.3,,,4,Europe/Luxembourg,FALSE,1442959104
Ohligsmühle,Ohligsmuhle,,49.6167,6.2667,Luxembourg,LU,LUX,Luxembourg,Luxembourg,LU-LU,canton,,267.4,,,3,Europe/Luxembourg,FALSE,1442632998
Schleif,Schleif,Schlief,49.9906,5.8575,Luxembourg,LU,LUX,Wiltz,Wiltz,LU-WI,canton,,40.9,,,4,Europe/Luxembourg,FALSE,1442198242
Kneppchen,Kneppchen,Knepchen|Knaepchen,49.7419,6.0186,Luxembourg,LU,LUX,Mersch,Mersch,LU-ME,canton,,110.9,,,4,Europe/Luxembourg,FALSE,1442411344
Gasperich,Gasperich,,49.5856,6.1231,Luxembourg,LU,LUX,Luxembourg,Luxembourg,LU-LU,canton,,1342.5,,,3,Europe/Luxembourg,FALSE,1442409127
Boulaide,Boulaide,Bauschleiden,49.8867,5.8144,Luxembourg,LU,LUX,Wiltz,Wiltz,LU-WI,canton,minor,41.0,,,3,Europe/Luxembourg,FALSE,1442891877
Neidhausen,Neidhausen,,50.0289,6.0667,Luxembourg,LU,LUX,Clervaux,Clervaux,LU-CL,canton,,64.3,,,4,Europe/Luxembourg,FALSE,1442432658
Blumenthal,Blumenthal,,49.7383,6.2672,Luxembourg,LU,LUX,Grevenmacher,Grevenmacher,LU-GR,canton,,121.6,,,4,Europe/Luxembourg,FALSE,1442796196
Scheierhaff,Scheierhaff,Scheuerhof-lès-Canach|Scheuerhof,49.5900,6.3161,Luxembourg,LU,LUX,Remich,Remich,LU-RM,canton,,140.7,,,4,Europe/Luxembourg,FALSE,1442730524
Thillen,Thillen,,49.7000,6.4333,Luxembourg,LU,LUX,Grevenmacher,Grevenmacher,LU-GR,canton,,82.4,,,4,Europe/Luxembourg,FALSE,1442860696
Massen,Massen,,50.1175,5.9928,Luxembourg,LU,LUX,Clervaux,Clervaux,LU-CL,canton,,85.5,,,4,Europe/Luxembourg,FALSE,1442375260
Abweiler,Abweiler,,49.5336,6.0808,Luxembourg,LU,LUX,Esch-sur-Alzette,Esch-sur-Alzette,LU-ES,canton,,498.8,,,3,Europe/Luxembourg,FALSE,1442949145
Saeul,Saeul,,49.7272,5.9864,Luxembourg,LU,LUX,Redange,Redange,LU-RD,canton,minor,68.9,,,3,Europe/Luxembourg,FALSE,1442030311
Wakelterhof,Wakelterhof,,49.8167,6.3000,Luxembourg,LU,LUX,Echternach,Echternach,LU-EC,canton,,148.5,,,4,Europe/Luxembourg,FALSE,1442656092
Misèrehof,Miserehof,"Misère|Ferme Misère",49.8667,5.8333,Luxembourg,LU,LUX,Redange,Redange,LU-RD,canton,,48.1,,,4,Europe/Luxembourg,FALSE,1442332644
Lorentzweiler,Lorentzweiler,Lorenzweiler,49.7000,6.1500,Luxembourg,LU,LUX,Mersch,Mersch,LU-ME,canton,minor,240.0,,,3,Europe/Luxembourg,FALSE,1442947258
Sonlez,Sonlez,Soller,49.9667,5.8333,Luxembourg,LU,LUX,Wiltz,Wiltz,LU-WI,canton,,41.0,,,4,Europe/Luxembourg,FALSE,1442250374
Reckange-sur-Mess,Reckange-sur-Mess,Reckange-sur-Messe|Reckange,49.5611,6.0069,Luxembourg,LU,LUX,Esch-sur-Alzette,Esch-sur-Alzette,LU-ES,canton,minor,128.7,,,3,Europe/Luxembourg,FALSE,1442760840
Mühlenbach,Muhlenbach,,49.5847,6.2264,Luxembourg,LU,LUX,Luxembourg,Luxembourg,LU-LU,canton,,2739.2,,,2,Europe/Luxembourg,FALSE,1442348493
Graulinster,Graulinster,,49.7347,6.2872,Luxembourg,LU,LUX,Grevenmacher,Grevenmacher,LU-GR,canton,,102.7,,,4,Europe/Luxembourg,FALSE,1442449723
Roedt,Roedt,Rödt|Roedt-lès-Trintange,49.5678,6.2850,Luxembourg,LU,LUX,Remich,Remich,LU-RM,canton,,64.9,,,4,Europe/Luxembourg,FALSE,1442326603
Dreiborn,Dreiborn,"Chateau Dreiborn",49.6172,6.3939,Luxembourg,LU,LUX,Grevenmacher,Grevenmacher,LU-GR,canton,,124.2,,,4,Europe/Luxembourg,FALSE,1442326356
Mamer,Mamer,,49.6283,6.0261,Luxembourg,LU,LUX,Capellen,Capellen,LU-CA,canton,minor,340.4,,,3,Europe/Luxembourg,FALSE,1442596688
Hierheck,Hierheck,Haerheck|Herheck,49.8731,5.9311,Luxembourg,LU,LUX,Wiltz,Wiltz,LU-WI,canton,,59.0,,,4,Europe/Luxembourg,FALSE,1442611230
Marxberg,Marxberg,,49.9000,6.2092,Luxembourg,LU,LUX,Vianden,Vianden,LU-VD,canton,,52.2,,,4,Europe/Luxembourg,FALSE,1442949598
Hondsjang,Hondsjang,,50.0833,6.0000,Luxembourg,LU,LUX,Clervaux,Clervaux,LU-CL,canton,,38.3,,,4,Europe/Luxembourg,FALSE,1442921005
Roeser,Roeser,,49.5422,6.1500,Luxembourg,LU,LUX,Esch-sur-Alzette,Esch-sur-Alzette,LU-ES,canton,minor,249.1,,,3,Europe/Luxembourg,FALSE,1442212101
Zittig,Zittig,,49.7389,6.3450,Luxembourg,LU,LUX,Echternach,Echternach,LU-EC,canton,,50.6,,,4,Europe/Luxembourg,FALSE,1442859891
Sassel,Sassel,,50.0994,5.9975,Luxembourg,LU,LUX,Clervaux,Clervaux,LU-CL,canton,,38.3,,,4,Europe/Luxembourg,FALSE,1442145032
Girsterklaus,Girsterklaus,,49.7778,6.4994,Luxembourg,LU,LUX,Echternach,Echternach,LU-EC,canton,,73.2,,,4,Europe/Luxembourg,FALSE,1442272808
Roullingen,Roullingen,,49.9558,5.9247,Luxembourg,LU,LUX,Wiltz,Wiltz,LU-WI,canton,,271.7,,,3,Europe/Luxembourg,FALSE,1442155615
Jockelsmuhle,Jockelsmuhle,Jockesmuhle,49.7167,6.3667,Luxembourg,LU,LUX,Grevenmacher,Grevenmacher,LU-GR,canton,,70.9,,,4,Europe/Luxembourg,FALSE,1442931984
Gruef,Gruef,Grof,49.8803,6.2219,Luxembourg,LU,LUX,Diekirch,Diekirch,LU-DI,canton,,122.9,,,4,Europe/Luxembourg,FALSE,1442587164
Hivange,Hivange,,49.6000,5.9333,Luxembourg,LU,LUX,Capellen,Capellen,LU-CA,canton,,123.3,,,4,Europe/Luxembourg,FALSE,1442963318
Asselborn,Asselborn,Asselborn-lès-Kehmen,49.9000,6.0500,Luxembourg,LU,LUX,Diekirch,Diekirch,LU-DI,canton,,44.9,,,4,Europe/Luxembourg,FALSE,1442738787
Heckenhof,Heckenhof,,49.6833,5.9333,Luxembourg,LU,LUX,Capellen,Capellen,LU-CA,canton,,224.9,,,3,Europe/Luxembourg,FALSE,1442445547
Mondercange,Mondercange,Monnerich,49.5319,5.9889,Luxembourg,LU,LUX,Esch-sur-Alzette,Esch-sur-Alzette,LU-ES,canton,minor,314.1,,,3,Europe/Luxembourg,FALSE,1442216255
"Moulin Colmesch","Moulin Colmesch",,49.7000,6.1167,Luxembourg,LU,LUX,Mersch,Mersch,LU-ME,canton,,221.4,,,3,Europe/Luxembourg,FALSE,1442387627
"Maison Peffer","Maison Peffer",,49.5167,6.1667,Luxembourg,LU,LUX,Esch-sur-Alzette,Esch-sur-Alzette,LU-ES,canton,,264.5,,,3,Europe/Luxembourg,FALSE,1442732898
Cap,Cap,Kap,49.6444,5.9844,Luxembourg,LU,LUX,Capellen,Capellen,LU-CA,canton,,281.2,,,3,Europe/Luxembourg,FALSE,1442178002
"Maison Klein","Maison Klein",,49.7500,5.8500,Luxembourg,LU,LUX,Redange,Redange,LU-RD,canton,,68.4,,,4,Europe/Luxembourg,FALSE,1442481573
Watrange,Watrange,Walter,49.9442,5.7858,Luxembourg,LU,LUX,Wiltz,Wiltz,LU-WI,canton,,42.2,,,4,Europe/Luxembourg,FALSE,1442504177
Fleibur,Fleibur,Flebour,49.8992,5.8128,Luxembourg,LU,LUX,Wiltz,Wiltz,LU-WI,canton,,41.0,,,4,Europe/Luxembourg,FALSE,1442982065
Grundmuhle,Grundmuhle,,49.9000,5.9000,Luxembourg,LU,LUX,Wiltz,Wiltz,LU-WI,canton,,43.5,,,4,Europe/Luxembourg,FALSE,1442959501
Schengen,Schengen,,49.4694,6.3589,Luxembourg,LU,LUX,Remich,Remich,LU-RM,canton,minor,147.5,,,3,Europe/Luxembourg,FALSE,1442476346
Roudenhaff,Roudenhaff,"Airsain|Ferme Airsain|Ferme Rouge|Rodenhof",49.5311,5.8472,Luxembourg,LU,LUX,Esch-sur-Alzette,Esch-sur-Alzette,LU-ES,canton,,1027.3,,,3,Europe/Luxembourg,FALSE,1442799759
"Ferme du Flamand","Ferme du Flamand",,50.1500,6.0500,Luxembourg,LU,LUX,Clervaux,Clervaux,LU-CL,canton,,78.4,,,4,Europe/Luxembourg,FALSE,1442144984
Pulvermühle,Pulvermuhle,,49.6167,6.1667,Luxembourg,LU,LUX,Luxembourg,Luxembourg,LU-LU,canton,,3447.0,,,2,Europe/Luxembourg,FALSE,1442337898
Daundorf,Daundorf,"Ferme Daundorf",49.5075,6.2875,Luxembourg,LU,LUX,Remich,Remich,LU-RM,canton,,397.6,,,3,Europe/Luxembourg,FALSE,1442758723
Wemperhardt,Wemperhardt,Wemperhart|Wemperhaard,50.1556,6.0533,Luxembourg,LU,LUX,Clervaux,Clervaux,LU-CL,canton,,78.4,,,4,Europe/Brussels,FALSE,1442389332
Koedange,Koedange,,49.7283,6.2103,Luxembourg,LU,LUX,Mersch,Mersch,LU-ME,canton,,117.3,,,4,Europe/Luxembourg,FALSE,1442930154
Fënsterdall,Fensterdall,Finsterthal,49.7592,6.0411,Luxembourg,LU,LUX,Mersch,Mersch,LU-ME,canton,,111.4,,,4,Europe/Luxembourg,FALSE,1442188256
"Maisons Alteschmeltz","Maisons Alteschmeltz",Alteschmeltz,49.7000,5.9833,Luxembourg,LU,LUX,Capellen,Capellen,LU-CA,canton,,46.7,,,4,Europe/Luxembourg,FALSE,1442612288
Mersch,Mersch,Morsche|Miersch,49.7500,6.1000,Luxembourg,LU,LUX,Mersch,Mersch,LU-ME,canton,admin,167.5,,,2,Europe/Luxembourg,FALSE,1442283324
Gaichel,Gaichel,Fisbour|Saegemühle|Sägemühle,49.6953,5.8706,Luxembourg,LU,LUX,Capellen,Capellen,LU-CA,canton,,238.6,,,3,Europe/Luxembourg,FALSE,1442494809
Houschterhaff,Houschterhaff,Hoscheiderhof|Fonkenhof|Wiltgeshof|Hoschetterhof,49.9386,6.1561,Luxembourg,LU,LUX,Vianden,Vianden,LU-VD,canton,,50.8,,,4,Europe/Luxembourg,FALSE,1442738564
Crendal,Crendal,,50.0578,5.8981,Luxembourg,LU,LUX,Clervaux,Clervaux,LU-CL,canton,,38.3,,,4,Europe/Luxembourg,FALSE,1442750615
Schimpach,Schimpach,,50.0103,5.8522,Luxembourg,LU,LUX,Clervaux,Clervaux,LU-CL,canton,,38.3,,,4,Europe/Luxembourg,FALSE,1442608233
Birel,Birel,"Ferme Birel|Birelergrund|Birelerhof",49.6167,6.2167,Luxembourg,LU,LUX,Luxembourg,Luxembourg,LU-LU,canton,,390.8,,,3,Europe/Luxembourg,FALSE,1442889010
Tomm,Tomm,Thom,49.8944,6.1636,Luxembourg,LU,LUX,Vianden,Vianden,LU-VD,canton,,52.2,,,4,Europe/Luxembourg,FALSE,1442449995
Goebelsmuhle,Goebelsmuhle,,49.9167,6.0500,Luxembourg,LU,LUX,Diekirch,Diekirch,LU-DI,canton,,44.9,,,4,Europe/Luxembourg,FALSE,1442028484
Stadtbredimus,Stadtbredimus,,49.5628,6.3644,Luxembourg,LU,LUX,Remich,Remich,LU-RM,canton,minor,240.6,,,3,Europe/Luxembourg,FALSE,1442632604
Colmar-Berg,Colmar-Berg,,49.8111,6.0972,Luxembourg,LU,LUX,Mersch,Mersch,LU-ME,canton,minor,174.4,,,3,Europe/Luxembourg,FALSE,1442062117
Berschbach,Berschbach,,49.7500,6.1167,Luxembourg,LU,LUX,Mersch,Mersch,LU-ME,canton,,167.5,,,3,Europe/Luxembourg,FALSE,1442076281
Waldbillig,Waldbillig,,49.7889,6.2867,Luxembourg,LU,LUX,Echternach,Echternach,LU-EC,canton,minor,64.1,,,3,Europe/Luxembourg,FALSE,1442631063
Éimeschbaach,Eimeschbaach,Emeschbach|Ehmeschhof|Ehmeschbach|Emeschterhof|Dehmeschbach,50.0936,5.9567,Luxembourg,LU,LUX,Clervaux,Clervaux,LU-CL,canton,,38.3,,,4,Europe/Luxembourg,FALSE,1442256712
Reckingerhaff,Reckingerhaff,"Reckingerhof|Ferme Reckange",49.5333,6.3167,Luxembourg,LU,LUX,Remich,Remich,LU-RM,canton,,112.0,,,4,Europe/Luxembourg,FALSE,1442924160
Prettingen,Prettingen,Prettange,49.7175,6.1203,Luxembourg,LU,LUX,Mersch,Mersch,LU-ME,canton,,163.0,,,4,Europe/Luxembourg,FALSE,1442766818
Scheidel,Scheidel,,49.8936,6.0447,Luxembourg,LU,LUX,Diekirch,Diekirch,LU-DI,canton,,44.9,,,4,Europe/Luxembourg,FALSE,1442450765
Lenningen,Lenningen,,49.6000,6.3667,Luxembourg,LU,LUX,Remich,Remich,LU-RM,canton,minor,127.1,,,3,Europe/Luxembourg,FALSE,1442206578
Altlinster,Altlinster,,49.7167,6.2167,Luxembourg,LU,LUX,Grevenmacher,Grevenmacher,LU-GR,canton,,128.1,,,4,Europe/Luxembourg,FALSE,1442180832
Septfontaines,Septfontaines,Siebenbrunnen,49.6281,6.1044,Luxembourg,LU,LUX,Luxembourg,Luxembourg,LU-LU,canton,,652.3,,,3,Europe/Luxembourg,FALSE,1442187578
Marbourg,Marbourg,,50.0517,6.0747,Luxembourg,LU,LUX,Clervaux,Clervaux,LU-CL,canton,,58.4,,,4,Europe/Luxembourg,FALSE,1442887958
Walferdange,Walferdange,,49.6583,6.1372,Luxembourg,LU,LUX,Luxembourg,Luxembourg,LU-LU,canton,minor,957.9,,,3,Europe/Luxembourg,FALSE,1442624420
"Ferme Thibesart","Ferme Thibesart",,49.8167,6.1167,Luxembourg,LU,LUX,Diekirch,Diekirch,LU-DI,canton,,132.8,,,4,Europe/Luxembourg,FALSE,1442773269
Niederanven,Niederanven,,49.6514,6.2556,Luxembourg,LU,LUX,Luxembourg,Luxembourg,LU-LU,canton,minor,138.4,,,3,Europe/Luxembourg,FALSE,1442249919
Girst,Girst,Girsterklause,49.7667,6.5000,Luxembourg,LU,LUX,Echternach,Echternach,LU-EC,canton,,66.9,,,4,Europe/Luxembourg,FALSE,1442982097
Emerange,Emerange,,49.4869,6.2917,Luxembourg,LU,LUX,Remich,Remich,LU-RM,canton,,114.5,,,4,Europe/Luxembourg,FALSE,1442885691
Hostert,Hostert,"Hostert du-Grunenwald",49.6570,6.2330,Luxembourg,LU,LUX,Luxembourg,Luxembourg,LU-LU,canton,,138.4,,,4,Europe/Luxembourg,FALSE,1442415537
Neumühle,Neumuhle,,49.7000,5.9000,Luxembourg,LU,LUX,Capellen,Capellen,LU-CA,canton,,224.9,,,3,Europe/Luxembourg,FALSE,1442112746
Rollingergrund,Rollingergrund,,49.6228,6.1078,Luxembourg,LU,LUX,Luxembourg,Luxembourg,LU-LU,canton,,2067.9,,,2,Europe/Luxembourg,FALSE,1442153193
Useldange,Useldange,,49.7697,5.9822,Luxembourg,LU,LUX,Redange,Redange,LU-RD,canton,minor,92.5,,,3,Europe/Luxembourg,FALSE,1442711827
Wilmeshof,Wilmeshof,,49.8500,6.1167,Luxembourg,LU,LUX,Diekirch,Diekirch,LU-DI,canton,,116.3,,,4,Europe/Luxembourg,FALSE,1442970271
Calmus,Calmus,,49.7250,5.9631,Luxembourg,LU,LUX,Redange,Redange,LU-RD,canton,,68.9,,,4,Europe/Luxembourg,FALSE,1442650089
Buurgfried,Buurgfried,Burgfried|Bourgfried,49.9008,5.8586,Luxembourg,LU,LUX,Wiltz,Wiltz,LU-WI,canton,,42.6,,,4,Europe/Luxembourg,FALSE,1442422852
Weissenhof,Weissenhof,,49.5667,6.1167,Luxembourg,LU,LUX,Luxembourg,Luxembourg,LU-LU,canton,,882.4,,,3,Europe/Luxembourg,FALSE,1442774379
Kapendahl,Kapendahl,,49.8667,6.2333,Luxembourg,LU,LUX,Diekirch,Diekirch,LU-DI,canton,,122.9,,,4,Europe/Luxembourg,FALSE,1442614506
"Maison Burg","Maison Burg",,49.8333,6.1833,Luxembourg,LU,LUX,Diekirch,Diekirch,LU-DI,canton,,52.3,,,4,Europe/Luxembourg,FALSE,1442296153
Grass,Grass,Gras,49.6308,5.8914,Luxembourg,LU,LUX,Capellen,Capellen,LU-CA,canton,,220.2,,,3,Europe/Luxembourg,FALSE,1442969780
Boudler,Boudler,Boudeler,49.7178,6.3550,Luxembourg,LU,LUX,Grevenmacher,Grevenmacher,LU-GR,canton,,64.9,,,4,Europe/Luxembourg,FALSE,1442132520
Neumühle,Neumuhle,Wolfsmühle,49.6167,6.2333,Luxembourg,LU,LUX,Luxembourg,Luxembourg,LU-LU,canton,,362.9,,,3,Europe/Luxembourg,FALSE,1442847329
Selscheid,Selscheid,,50.0181,5.9489,Luxembourg,LU,LUX,Wiltz,Wiltz,LU-WI,canton,,55.2,,,4,Europe/Luxembourg,FALSE,1442899781
Dorscheid,Dorscheid,,50.0361,6.0714,Luxembourg,LU,LUX,Clervaux,Clervaux,LU-CL,canton,,64.0,,,4,Europe/Luxembourg,FALSE,1442837138
Redange-sur-Attert,Redange-sur-Attert,Redange|Redingen|Réiden,49.7652,5.8894,Luxembourg,LU,LUX,Redange,Redange,LU-RD,canton,admin,96.4,,,2,Europe/Luxembourg,FALSE,1442099691
Neunhausen,Neunhausen,,49.8767,5.8856,Luxembourg,LU,LUX,Wiltz,Wiltz,LU-WI,canton,,43.0,,,4,Europe/Luxembourg,FALSE,1442387702
"Maulin Diederich","Maulin Diederich",,49.6000,6.2500,Luxembourg,LU,LUX,Luxembourg,Luxembourg,LU-LU,canton,,210.0,,,3,Europe/Luxembourg,FALSE,1442285866
Burmerange,Burmerange,,49.4847,6.3222,Luxembourg,LU,LUX,Remich,Remich,LU-RM,canton,,116.3,,,4,Europe/Luxembourg,FALSE,1442722260
Pissange,Pissange,,49.5494,6.0003,Luxembourg,LU,LUX,Esch-sur-Alzette,Esch-sur-Alzette,LU-ES,canton,,149.7,,,4,Europe/Luxembourg,FALSE,1442705303
Leudelange,Leudelange,,49.5667,6.0667,Luxembourg,LU,LUX,Esch-sur-Alzette,Esch-sur-Alzette,LU-ES,canton,minor,163.0,,,3,Europe/Luxembourg,FALSE,1442161626
Bockholtz,Bockholtz,Bockholz-sur-Sure,49.9233,5.9975,Luxembourg,LU,LUX,Wiltz,Wiltz,LU-WI,canton,,52.8,,,4,Europe/Luxembourg,FALSE,1442865688
Pfaffenthal,Pfaffenthal,Pfaffental|Pfaffenthal-lès-Tadler,49.9167,6.0000,Luxembourg,LU,LUX,Wiltz,Wiltz,LU-WI,canton,,58.4,,,4,Europe/Luxembourg,FALSE,1442080558
