city,city_ascii,city_alt,lat,lng,country,iso2,iso3,admin_name,admin_name_ascii,admin_code,admin_type,capital,density,population,population_proper,ranking,timezone,same_name,id
Blantyre,Blantyre,Kapeni,-15.7861,35.0058,Malawi,MW,MWI,Blantyre,Blantyre,MW-BL,district,admin,931.4,1895973,1895973,1,Africa/Blantyre,FALSE,1454145012
Lilongwe,Lilongwe,,-13.9833,33.7833,Malawi,MW,MWI,Lilongwe,Lilongwe,MW-LI,district,primary,99.7,989318,989318,1,Africa/Blantyre,FALSE,1454688499
Mzuzu,Mzuzu,,-11.4581,34.0151,Malawi,MW,MWI,Mzimba,Mzimba,MW-MZ,district,,1849.7,150100,150100,2,Africa/Blantyre,FALSE,1454525586
Zomba,Zomba,,-15.3869,35.3192,Malawi,MW,MWI,Zomba,Zomba,MW-ZO,district,admin,2500.3,101140,101140,2,Africa/Blantyre,FALSE,1454072947
Karonga,Karonga,,-9.9333,33.9333,Malawi,MW,MWI,Karonga,Karonga,MW-KR,district,admin,3691.5,61609,61609,2,Africa/Blantyre,FALSE,1454358935
Kasungu,Kasungu,,-13.0333,33.4833,Malawi,MW,MWI,Kasungu,Kasungu,MW-KS,district,admin,973.9,58653,58653,2,Africa/Blantyre,FALSE,1454117674
Mangochi,Mangochi,"Mangoche|Fort Johnston|Mponda",-14.4667,35.2667,Malawi,MW,MWI,Mangochi,Mangochi,MW-MG,district,admin,669.9,51429,51429,2,Africa/Blantyre,FALSE,1454766726
Salima,Salima,,-13.7833,34.4333,Malawi,MW,MWI,Salima,Salima,MW-SA,district,admin,2606.3,36789,36789,2,Africa/Blantyre,FALSE,1454747771
Liwonde,Liwonde,"Old Liwonde Boma",-15.0667,35.2333,Malawi,MW,MWI,Balaka,Balaka,MW-BA,district,,1122.5,36421,36421,3,Africa/Blantyre,FALSE,1454616988
Dedza,Dedza,,-14.3667,34.3333,Malawi,MW,MWI,Dedza,Dedza,MW-DE,district,admin,2219.4,30928,30928,2,Africa/Blantyre,FALSE,1454412462
Nkhotakota,Nkhotakota,"Kota Kota",-12.9167,34.3000,Malawi,MW,MWI,Nkhotakota,Nkhotakota,MW-NK,district,admin,3577.0,28350,28350,2,Africa/Blantyre,FALSE,1454281420
Mchinji,Mchinji,"Fort Manning|Chimji",-13.8167,32.9000,Malawi,MW,MWI,Mchinji,Mchinji,MW-MC,district,admin,3698.8,28011,28011,2,Africa/Blantyre,FALSE,1454607053
Nsanje,Nsanje,"Port Herald|Chimombi",-16.9167,35.2667,Malawi,MW,MWI,Nsanje,Nsanje,MW-NS,district,admin,577.7,26844,26844,2,Africa/Blantyre,FALSE,1454428076
Mzimba,Mzimba,,-11.9000,33.6000,Malawi,MW,MWI,Mzimba,Mzimba,MW-MZ,district,admin,3520.6,26096,26096,2,Africa/Blantyre,FALSE,1454007077
Chiromo,Chiromo,,-16.5500,35.1333,Malawi,MW,MWI,Nsanje,Nsanje,MW-NS,district,,183.0,25235,25235,3,Africa/Blantyre,FALSE,1454972056
Mponela,Mponela,,-13.5167,33.7167,Malawi,MW,MWI,Dowa,Dowa,MW-DO,district,,4610.1,24543,24543,2,Africa/Blantyre,FALSE,1454096426
Rumphi,Rumphi,"Rumpi Boma|Rumpi",-11.0167,33.8667,Malawi,MW,MWI,Rumphi,Rumphi,MW-RU,district,admin,3057.5,22358,22358,2,Africa/Blantyre,FALSE,1454325221
Ntcheu,Ntcheu,Ncheu|Nitcheu,-14.8333,34.6667,Malawi,MW,MWI,Ntcheu,Ntcheu,MW-NU,district,admin,1685.7,21241,21241,2,Africa/Blantyre,FALSE,1454008976
Mulanje,Mulanje,"Mlanje|Mlange|Mlanje Boma",-16.0258,35.5081,Malawi,MW,MWI,Mulanje,Mulanje,MW-MU,district,admin,1868.2,20870,20870,2,Africa/Blantyre,FALSE,1454459215
Mwanza,Mwanza,,-15.5986,34.5178,Malawi,MW,MWI,Mwanza,Mwanza,MW-MW,district,admin,2015.5,18039,18039,2,Africa/Blantyre,FALSE,1454451365
Chitipa,Chitipa,"Chipita|Fort Hill",-9.7019,33.2700,Malawi,MW,MWI,Chitipa,Chitipa,MW-CT,district,admin,6721.6,17743,17743,2,Africa/Blantyre,FALSE,1454611219
"Monkey Bay","Monkey Bay",Lusumbwe,-14.0833,34.9167,Malawi,MW,MWI,Mangochi,Mangochi,MW-MG,district,,606.2,14955,14955,3,Africa/Blantyre,FALSE,1454428949
"Nkhata Bay","Nkhata Bay","Nkata|Nkata Bay",-11.6000,34.3000,Malawi,MW,MWI,"Nkhata Bay","Nkhata Bay",MW-NB,district,admin,1712.2,14274,14274,2,Africa/Blantyre,FALSE,1454517378
Luchenza,Luchenza,Luchenya|Lughenza,-16.0167,35.3000,Malawi,MW,MWI,Thyolo,Thyolo,MW-TH,district,,909.7,12600,12600,3,Africa/Blantyre,FALSE,1454389807
Ntchisi,Ntchisi,"Nchisi Boma|Nchisi",-13.3667,34.0000,Malawi,MW,MWI,Ntchisi,Ntchisi,MW-NI,district,admin,1.7,9357,9357,2,Africa/Blantyre,FALSE,1454004377
Dowa,Dowa,,-13.6667,33.9167,Malawi,MW,MWI,Dowa,Dowa,MW-DO,district,admin,660.0,7135,7135,2,Africa/Blantyre,FALSE,1454644071
Thyolo,Thyolo,Cholo,-16.0667,35.1333,Malawi,MW,MWI,Thyolo,Thyolo,MW-TH,district,admin,2076.9,7029,7029,2,Africa/Blantyre,FALSE,1454464861
Livingstonia,Livingstonia,"Livingstonia Mission|Kondowe",-10.6000,34.1167,Malawi,MW,MWI,Rumphi,Rumphi,MW-RU,district,,378.4,6690,6690,3,Africa/Blantyre,FALSE,1454447448
Chipoka,Chipoka,,-13.9667,34.5000,Malawi,MW,MWI,Salima,Salima,MW-SA,district,,1051.1,6395,6395,3,Africa/Blantyre,FALSE,1454815563
Phalombe,Phalombe,"Palombe|Palombe Market",-15.8033,35.6533,Malawi,MW,MWI,Phalombe,Phalombe,MW-PH,district,admin,2158.2,6242,6242,2,Africa/Blantyre,FALSE,1454510180
Chilumba,Chilumba,"Pankanga|Deep Bay|Chirumba",-10.4375,34.2475,Malawi,MW,MWI,Karonga,Karonga,MW-KR,district,,988.7,5000,5000,3,Africa/Blantyre,FALSE,1454545657
Chiradzulu,Chiradzulu,"Chiradzulu Boma",-15.7000,35.1833,Malawi,MW,MWI,Chiradzulu,Chiradzulu,MW-CR,district,admin,528.4,1580,1580,2,Africa/Blantyre,FALSE,1454413713
Machinga,Machinga,,-14.9667,35.5167,Malawi,MW,MWI,Machinga,Machinga,MW-MH,district,admin,350.2,1418,1418,2,Africa/Blantyre,FALSE,1454566785
Kamnthambala,Kamnthambala,,-11.1333,33.8833,Malawi,MW,MWI,Mzimba,Mzimba,MW-MZ,district,,175.5,,,4,Africa/Blantyre,FALSE,1454873155
Chankhalamu,Chankhalamu,,-10.8933,33.5568,Malawi,MW,MWI,Rumphi,Rumphi,MW-RU,district,,79.2,,,4,Africa/Blantyre,FALSE,1454001863
Kabila,Kabila,Kabira,-11.7986,34.1540,Malawi,MW,MWI,"Nkhata Bay","Nkhata Bay",MW-NB,district,,301.1,,,3,Africa/Blantyre,FALSE,1454664505
Kasamu,Kasamu,,-13.8767,33.1447,Malawi,MW,MWI,Mchinji,Mchinji,MW-MC,district,,99.1,,,4,Africa/Blantyre,FALSE,1454002500
Chikwesa,Chikwesa,Cikwesa,-12.8922,33.4355,Malawi,MW,MWI,Kasungu,Kasungu,MW-KS,district,,79.1,,,4,Africa/Blantyre,FALSE,1454169291
"Kamangadazi Chirwa","Kamangadazi Chirwa",,-11.4951,33.9452,Malawi,MW,MWI,Mzimba,Mzimba,MW-MZ,district,,114.0,,,4,Africa/Blantyre,FALSE,1454000520
Nkanira,Nkanira,,-13.7667,33.6833,Malawi,MW,MWI,Lilongwe,Lilongwe,MW-LI,district,,286.0,,,3,Africa/Blantyre,FALSE,1454421849
"Chibwana Mkhalipi","Chibwana Mkhalipi","Chibwana Mukhalipi",-11.7215,33.3317,Malawi,MW,MWI,Mzimba,Mzimba,MW-MZ,district,,73.0,,,4,Africa/Blantyre,FALSE,1454756199
Kalinde,Kalinde,,-13.7192,33.1867,Malawi,MW,MWI,Mchinji,Mchinji,MW-MC,district,,260.2,,,3,Africa/Blantyre,FALSE,1454636312
Mkwela,Mkwela,,-14.1833,33.9500,Malawi,MW,MWI,Lilongwe,Lilongwe,MW-LI,district,,231.5,,,3,Africa/Blantyre,FALSE,1454203792
Namadzi,Namadzi,,-15.6333,35.1667,Malawi,MW,MWI,Chiradzulu,Chiradzulu,MW-CR,district,,528.4,,,3,Africa/Blantyre,FALSE,1454703346
"Mateyu Saka","Mateyu Saka",,-12.5391,33.4265,Malawi,MW,MWI,Kasungu,Kasungu,MW-KS,district,,159.1,,,4,Africa/Blantyre,FALSE,1454000884
Kadyauzu,Kadyauzu,,-14.0190,33.4966,Malawi,MW,MWI,Lilongwe,Lilongwe,MW-LI,district,,527.0,,,3,Africa/Blantyre,FALSE,1454129269
Nakhulu,Nakhulu,,-13.5817,33.5830,Malawi,MW,MWI,Dowa,Dowa,MW-DO,district,,235.1,,,3,Africa/Blantyre,FALSE,1454003062
Cimbiya,Cimbiya,,-12.8515,33.6467,Malawi,MW,MWI,Kasungu,Kasungu,MW-KS,district,,136.7,,,4,Africa/Blantyre,FALSE,1454230213
Nthondo,Nthondo,,-14.0333,33.4333,Malawi,MW,MWI,Lilongwe,Lilongwe,MW-LI,district,,492.7,,,3,Africa/Blantyre,FALSE,1454510007
Nthondo,Nthondo,,-13.6857,33.3526,Malawi,MW,MWI,Lilongwe,Lilongwe,MW-LI,district,,286.7,,,3,Africa/Blantyre,TRUE,1454580967
Msilanga,Msilanga,,-16.9833,35.1000,Malawi,MW,MWI,Nsanje,Nsanje,MW-NS,district,,99.7,,,4,Africa/Blantyre,FALSE,1454205887
Dimi,Dimi,,-12.1667,33.4390,Malawi,MW,MWI,Mzimba,Mzimba,MW-MZ,district,,137.3,,,4,Africa/Blantyre,FALSE,1454333338
"Samuel Makwakwa","Samuel Makwakwa",,-11.2891,33.6603,Malawi,MW,MWI,Mzimba,Mzimba,MW-MZ,district,,109.6,,,4,Africa/Blantyre,FALSE,1454001127
Kalumunyu,Kalumunyu,,-13.6849,33.4949,Malawi,MW,MWI,Dowa,Dowa,MW-DO,district,,292.5,,,3,Africa/Blantyre,FALSE,1454002728
Nkhombokombo,Nkhombokombo,,-12.8741,33.3267,Malawi,MW,MWI,Kasungu,Kasungu,MW-KS,district,,163.3,,,4,Africa/Blantyre,FALSE,1454000394
Salima,Salima,,-9.6702,33.8215,Malawi,MW,MWI,Karonga,Karonga,MW-KR,district,,283.8,,,3,Africa/Blantyre,FALSE,1454001230
Nyirenda,Nyirenda,,-11.0155,33.7978,Malawi,MW,MWI,Rumphi,Rumphi,MW-RU,district,,214.1,,,3,Africa/Blantyre,FALSE,1454151738
Chimphithi,Chimphithi,,-13.1833,33.6833,Malawi,MW,MWI,Kasungu,Kasungu,MW-KS,district,,165.1,,,4,Africa/Blantyre,FALSE,1454906049
Mgumila,Mgumila,,-13.3697,33.3793,Malawi,MW,MWI,Kasungu,Kasungu,MW-KS,district,,228.0,,,3,Africa/Blantyre,FALSE,1454219174
Perete,Perete,,-12.5866,33.6283,Malawi,MW,MWI,Mzimba,Mzimba,MW-MZ,district,,177.4,,,4,Africa/Blantyre,FALSE,1454434794
Chidumayo,Chidumayo,,-11.7500,33.7000,Malawi,MW,MWI,Mzimba,Mzimba,MW-MZ,district,,161.1,,,4,Africa/Blantyre,FALSE,1454298266
Chidumayo,Chidumayo,,-11.5333,33.5667,Malawi,MW,MWI,Mzimba,Mzimba,MW-MZ,district,,116.1,,,4,Africa/Blantyre,TRUE,1454544126
Mzambazi,Mzambazi,,-11.4265,33.4487,Malawi,MW,MWI,Mzimba,Mzimba,MW-MZ,district,,175.8,,,4,Africa/Blantyre,FALSE,1454170727
Kanyakatifa,Kanyakatifa,,-12.8026,33.3935,Malawi,MW,MWI,Kasungu,Kasungu,MW-KS,district,,167.4,,,4,Africa/Blantyre,FALSE,1454777270
Chibwinja,Chibwinja,,-13.9333,33.9000,Malawi,MW,MWI,Lilongwe,Lilongwe,MW-LI,district,,291.8,,,3,Africa/Blantyre,FALSE,1454814047
Nsimbi,Nsimbi,,-13.5254,33.6130,Malawi,MW,MWI,Dowa,Dowa,MW-DO,district,,176.1,,,4,Africa/Blantyre,FALSE,1454845902
"Fillimon Soko","Fillimon Soko",,-11.5520,33.7124,Malawi,MW,MWI,Mzimba,Mzimba,MW-MZ,district,,91.3,,,4,Africa/Blantyre,FALSE,1454001227
"Laban Navitengo","Laban Navitengo",,-9.5129,33.2032,Malawi,MW,MWI,Chitipa,Chitipa,MW-CT,district,,135.2,,,4,Africa/Blantyre,FALSE,1454002113
Kaphwata,Kaphwata,,-10.2013,33.5522,Malawi,MW,MWI,Chitipa,Chitipa,MW-CT,district,,67.5,,,4,Africa/Blantyre,FALSE,1454001942
Kasakula,Kasakula,,-13.4175,33.1235,Malawi,MW,MWI,Mchinji,Mchinji,MW-MC,district,,179.1,,,4,Africa/Blantyre,FALSE,1454000222
Masokosa,Masokosa,,-15.5729,34.4772,Malawi,MW,MWI,Mwanza,Mwanza,MW-MW,district,,510.1,,,3,Africa/Blantyre,FALSE,1454405137
Mbiko,Mbiko,,-12.3975,33.5488,Malawi,MW,MWI,Kasungu,Kasungu,MW-KS,district,,96.9,,,4,Africa/Blantyre,FALSE,1454001570
Chinyolo,Chinyolo,,-10.9263,34.0029,Malawi,MW,MWI,Rumphi,Rumphi,MW-RU,district,,300.7,,,3,Africa/Blantyre,FALSE,1454001428
Kisoso,Kisoso,,-13.4833,33.9000,Malawi,MW,MWI,Ntchisi,Ntchisi,MW-NI,district,,170.8,,,4,Africa/Blantyre,FALSE,1454352782
"Abel Chunga","Abel Chunga",,-12.1675,33.4918,Malawi,MW,MWI,Mzimba,Mzimba,MW-MZ,district,,141.5,,,4,Africa/Blantyre,FALSE,1454639610
Kampingo,Kampingo,,-11.6167,33.5667,Malawi,MW,MWI,Mzimba,Mzimba,MW-MZ,district,,127.5,,,4,Africa/Blantyre,FALSE,1454732922
"Madimba Mana","Madimba Mana",,-12.0500,34.7500,Malawi,MW,MWI,Likoma,Likoma,MW-LK,district,,418.5,,,3,Africa/Blantyre,FALSE,1454994907
Chinkowelo,Chinkowelo,,-13.9641,33.3752,Malawi,MW,MWI,Lilongwe,Lilongwe,MW-LI,district,,330.6,,,3,Africa/Blantyre,FALSE,1454002613
Nkwichi,Nkwichi,,-15.4808,34.4772,Malawi,MW,MWI,Mwanza,Mwanza,MW-MW,district,,173.5,,,4,Africa/Blantyre,FALSE,1454138368
"Khoza Lisale","Khoza Lisale","Khoza Lisali",-11.6579,34.3180,Malawi,MW,MWI,"Nkhata Bay","Nkhata Bay",MW-NB,district,,509.9,,,3,Africa/Blantyre,FALSE,1454273504
M’dzuma,M'dzuma,,-13.9388,33.2596,Malawi,MW,MWI,Mchinji,Mchinji,MW-MC,district,,397.8,,,3,Africa/Blantyre,FALSE,1454002584
"Saulosi Mkosi","Saulosi Mkosi",,-11.4277,33.8227,Malawi,MW,MWI,Mzimba,Mzimba,MW-MZ,district,,104.1,,,4,Africa/Blantyre,FALSE,1454341268
Kampanikiza,Kampanikiza,Kampanizita,-14.3425,33.7189,Malawi,MW,MWI,Lilongwe,Lilongwe,MW-LI,district,,233.7,,,3,Africa/Blantyre,FALSE,1454978671
Binda,Binda,,-13.4939,33.7673,Malawi,MW,MWI,Dowa,Dowa,MW-DO,district,,319.6,,,3,Africa/Blantyre,FALSE,1454001751
Mtenje,Mtenje,,-13.6674,33.0556,Malawi,MW,MWI,Mchinji,Mchinji,MW-MC,district,,372.2,,,3,Africa/Blantyre,FALSE,1454542603
Kanthungo,Kanthungo,Kantungu,-13.2449,33.7446,Malawi,MW,MWI,Ntchisi,Ntchisi,MW-NI,district,,349.8,,,3,Africa/Blantyre,FALSE,1454249723
Chilemba,Chilemba,,-14.7488,35.3336,Malawi,MW,MWI,Machinga,Machinga,MW-MH,district,,402.1,,,3,Africa/Blantyre,FALSE,1454907110
Kapangama,Kapangama,,-13.1622,33.9096,Malawi,MW,MWI,Ntchisi,Ntchisi,MW-NI,district,,147.4,,,4,Africa/Blantyre,FALSE,1454535336
Therere,Therere,Terere,-13.5735,33.4121,Malawi,MW,MWI,Lilongwe,Lilongwe,MW-LI,district,,178.5,,,4,Africa/Blantyre,FALSE,1454658859
"Lameck Lungu","Lameck Lungu",,-11.4350,33.9573,Malawi,MW,MWI,Mzimba,Mzimba,MW-MZ,district,,166.0,,,4,Africa/Blantyre,FALSE,1454000525
Mimba,Mimba,,-13.4667,33.9167,Malawi,MW,MWI,Ntchisi,Ntchisi,MW-NI,district,,175.5,,,4,Africa/Blantyre,FALSE,1454786764
Daniele,Daniele,,-13.7333,33.0667,Malawi,MW,MWI,Mchinji,Mchinji,MW-MC,district,,191.9,,,4,Africa/Blantyre,FALSE,1454222545
Ndinda,Ndinda,,-13.5380,33.9141,Malawi,MW,MWI,Dowa,Dowa,MW-DO,district,,352.0,,,3,Africa/Blantyre,FALSE,1454728098
Simoni,Simoni,,-13.3921,33.8229,Malawi,MW,MWI,Ntchisi,Ntchisi,MW-NI,district,,296.8,,,3,Africa/Blantyre,FALSE,1454001787
Mpando,Mpando,,-13.7167,32.8500,Malawi,MW,MWI,Mchinji,Mchinji,MW-MC,district,,79.1,,,4,Africa/Blantyre,FALSE,1454637944
Kafikisila,Kafikisila,,-9.9258,33.9297,Malawi,MW,MWI,Karonga,Karonga,MW-KR,district,,3691.5,,,2,Africa/Blantyre,FALSE,1454000792
Nyambalo,Nyambalo,,-13.5667,34.4000,Malawi,MW,MWI,Salima,Salima,MW-SA,district,,583.3,,,3,Africa/Blantyre,FALSE,1454376225
"Chibisa Phiri","Chibisa Phiri",,-12.3332,33.7390,Malawi,MW,MWI,Mzimba,Mzimba,MW-MZ,district,,75.0,,,4,Africa/Blantyre,FALSE,1454001553
Tyaka,Tyaka,,-14.8000,35.2833,Malawi,MW,MWI,Balaka,Balaka,MW-BA,district,,141.2,,,4,Africa/Blantyre,FALSE,1454044583
China,China,,-12.5823,33.3061,Malawi,MW,MWI,Kasungu,Kasungu,MW-KS,district,,147.0,,,4,Africa/Blantyre,FALSE,1454890740
Chikoko,Chikoko,,-13.4799,33.3896,Malawi,MW,MWI,Kasungu,Kasungu,MW-KS,district,,145.6,,,4,Africa/Blantyre,FALSE,1454319892
Namikango,Namikango,,-14.7000,35.6500,Malawi,MW,MWI,Machinga,Machinga,MW-MH,district,,223.3,,,3,Africa/Blantyre,FALSE,1454666482
Nthulinga,Nthulinga,,-11.5668,34.2153,Malawi,MW,MWI,"Nkhata Bay","Nkhata Bay",MW-NB,district,,191.9,,,4,Africa/Blantyre,FALSE,1454002258
Mngwala,Mngwala,,-13.1833,33.6833,Malawi,MW,MWI,Kasungu,Kasungu,MW-KS,district,,165.1,,,4,Africa/Blantyre,FALSE,1454962968
Sayela,Sayela,,-14.2442,33.8637,Malawi,MW,MWI,Lilongwe,Lilongwe,MW-LI,district,,432.9,,,3,Africa/Blantyre,FALSE,1454152283
Malimba,Malimba,,-14.3514,33.9087,Malawi,MW,MWI,Dedza,Dedza,MW-DE,district,,267.5,,,3,Africa/Blantyre,FALSE,1454655975
Chigwere,Chigwere,,-11.3601,34.1545,Malawi,MW,MWI,"Nkhata Bay","Nkhata Bay",MW-NB,district,,57.4,,,4,Africa/Blantyre,FALSE,1454925548
"Thundila Nzima","Thundila Nzima",,-11.5319,33.3841,Malawi,MW,MWI,Mzimba,Mzimba,MW-MZ,district,,93.6,,,4,Africa/Blantyre,FALSE,1454000056
Chizani,Chizani,,-12.4410,33.7097,Malawi,MW,MWI,Mzimba,Mzimba,MW-MZ,district,,123.5,,,4,Africa/Blantyre,FALSE,1454462929
Chizani,Chizani,,-12.4500,33.7000,Malawi,MW,MWI,Mzimba,Mzimba,MW-MZ,district,,100.9,,,4,Africa/Blantyre,TRUE,1454039152
Luviri,Luviri,,-12.1986,33.6677,Malawi,MW,MWI,Mzimba,Mzimba,MW-MZ,district,,135.6,,,4,Africa/Blantyre,FALSE,1454002316
Sululu,Sululu,,-15.2500,35.3833,Malawi,MW,MWI,Zomba,Zomba,MW-ZO,district,,437.9,,,3,Africa/Blantyre,FALSE,1454545321
Kavalho,Kavalho,,-16.1493,34.9243,Malawi,MW,MWI,Chikwawa,Chikwawa,MW-CK,district,,122.6,,,4,Africa/Blantyre,FALSE,1454874764
Kafelanthepe,Kafelanthepe,,-13.8624,33.3143,Malawi,MW,MWI,Lilongwe,Lilongwe,MW-LI,district,,212.4,,,3,Africa/Blantyre,FALSE,1454002555
Ciwotha,Ciwotha,,-12.7646,33.6728,Malawi,MW,MWI,Kasungu,Kasungu,MW-KS,district,,163.0,,,4,Africa/Blantyre,FALSE,1454779133
Msulu,Msulu,,-13.4513,33.2426,Malawi,MW,MWI,Kasungu,Kasungu,MW-KS,district,,273.2,,,3,Africa/Blantyre,FALSE,1454000218
Nayuci,Nayuci,,-14.9667,35.8667,Malawi,MW,MWI,Machinga,Machinga,MW-MH,district,,317.8,,,3,Africa/Blantyre,FALSE,1454128181
Mutonya,Mutonya,,-13.7667,33.0333,Malawi,MW,MWI,Mchinji,Mchinji,MW-MC,district,,314.5,,,3,Africa/Blantyre,FALSE,1454981924
Luromo,Luromo,,-10.4426,34.2661,Malawi,MW,MWI,Karonga,Karonga,MW-KR,district,,864.0,,,3,Africa/Blantyre,FALSE,1454001735
"Samuel Moyo","Samuel Moyo",,-11.9039,33.5123,Malawi,MW,MWI,Mzimba,Mzimba,MW-MZ,district,,237.1,,,3,Africa/Blantyre,FALSE,1454001764
Sitonya,Sitonya,,-11.9333,33.4500,Malawi,MW,MWI,Mzimba,Mzimba,MW-MZ,district,,182.3,,,4,Africa/Blantyre,FALSE,1454861939
Maniwa,Maniwa,,-14.9833,35.6000,Malawi,MW,MWI,Machinga,Machinga,MW-MH,district,,553.0,,,3,Africa/Blantyre,FALSE,1454259422
Kanyumba,Kanyumba,,-12.8681,33.7785,Malawi,MW,MWI,Kasungu,Kasungu,MW-KS,district,,111.6,,,4,Africa/Blantyre,FALSE,1454408556
"Mukubani Mbeye","Mukubani Mbeye",,-11.9000,33.5500,Malawi,MW,MWI,Mzimba,Mzimba,MW-MZ,district,,154.6,,,4,Africa/Blantyre,FALSE,1454629150
Maganitsa,Maganitsa,,-14.2667,34.3333,Malawi,MW,MWI,Dedza,Dedza,MW-DE,district,,285.4,,,3,Africa/Blantyre,FALSE,1454733028
Nsanyila,Nsanyila,,-14.8663,35.4388,Malawi,MW,MWI,Machinga,Machinga,MW-MH,district,,304.9,,,3,Africa/Blantyre,FALSE,1454433861
Bwiba,Bwiba,,-9.9496,33.8963,Malawi,MW,MWI,Karonga,Karonga,MW-KR,district,,900.9,,,3,Africa/Blantyre,FALSE,1454001151
Msonga,Msonga,,-13.5333,32.8000,Malawi,MW,MWI,Mchinji,Mchinji,MW-MC,district,,55.3,,,4,Africa/Lusaka,FALSE,1454786558
"Wiliamu Ngwenya","Wiliamu Ngwenya",,-12.0000,33.3333,Malawi,MW,MWI,Mzimba,Mzimba,MW-MZ,district,,150.9,,,4,Africa/Blantyre,FALSE,1454369155
Milenje,Milenje,,-12.6293,33.4990,Malawi,MW,MWI,Kasungu,Kasungu,MW-KS,district,,217.4,,,3,Africa/Blantyre,FALSE,1454000977
Kamisa,Kamisa,Khamisa,-11.6768,34.3227,Malawi,MW,MWI,"Nkhata Bay","Nkhata Bay",MW-NB,district,,1574.4,,,3,Africa/Blantyre,FALSE,1454495140
Sitwe,Sitwe,,-10.2842,34.0227,Malawi,MW,MWI,Karonga,Karonga,MW-KR,district,,81.4,,,4,Africa/Blantyre,FALSE,1454001983
Ndume,Ndume,,-13.0111,33.4782,Malawi,MW,MWI,Kasungu,Kasungu,MW-KS,district,,622.8,,,3,Africa/Blantyre,FALSE,1454496124
Ndume,Ndume,,-13.0178,33.5135,Malawi,MW,MWI,Kasungu,Kasungu,MW-KS,district,,152.6,,,4,Africa/Blantyre,TRUE,1454984915
Tanga,Tanga,,-13.3626,34.1181,Malawi,MW,MWI,Ntchisi,Ntchisi,MW-NI,district,,132.7,,,4,Africa/Blantyre,FALSE,1454329397
Chauteka,Chauteka,,-10.3924,34.1107,Malawi,MW,MWI,Karonga,Karonga,MW-KR,district,,203.0,,,3,Africa/Blantyre,FALSE,1454001875
Chinkwangula,Chinkwangula,,-13.3861,33.5661,Malawi,MW,MWI,Dowa,Dowa,MW-DO,district,,208.3,,,3,Africa/Blantyre,FALSE,1454475889
Chindindindi,Chindindindi,,-11.7946,33.4775,Malawi,MW,MWI,Mzimba,Mzimba,MW-MZ,district,,116.3,,,4,Africa/Blantyre,FALSE,1454001498
Mzumanzi,Mzumanzi,,-13.8927,33.7100,Malawi,MW,MWI,Lilongwe,Lilongwe,MW-LI,district,,560.6,,,3,Africa/Blantyre,FALSE,1454424332
Timbenao,Timbenao,Timbenow,-16.0838,34.6079,Malawi,MW,MWI,Chikwawa,Chikwawa,MW-CK,district,,216.8,,,3,Africa/Blantyre,FALSE,1454880263
Mtelelas,Mtelelas,,-14.3167,35.4167,Malawi,MW,MWI,Mangochi,Mangochi,MW-MG,district,,435.8,,,3,Africa/Blantyre,FALSE,1454628849
Kamwamba,Kamwamba,,-14.9500,34.7833,Malawi,MW,MWI,Ntcheu,Ntcheu,MW-NU,district,,63.4,,,4,Africa/Blantyre,FALSE,1454118238
Chimimba,Chimimba,,-13.7354,33.3846,Malawi,MW,MWI,Lilongwe,Lilongwe,MW-LI,district,,241.9,,,3,Africa/Blantyre,FALSE,1454473955
Chilusi,Chilusi,,-13.6877,33.7927,Malawi,MW,MWI,Dowa,Dowa,MW-DO,district,,296.1,,,3,Africa/Blantyre,FALSE,1454803104
Masimbakwe,Masimbakwe,,-14.6539,35.3807,Malawi,MW,MWI,Mangochi,Mangochi,MW-MG,district,,0.7,,,5,Africa/Blantyre,FALSE,1454040975
Mkombezi,Mkombezi,,-10.9489,33.9755,Malawi,MW,MWI,Rumphi,Rumphi,MW-RU,district,,305.8,,,3,Africa/Blantyre,FALSE,1454001512
Mchambwe,Mchambwe,Mchambue,-12.8796,34.2771,Malawi,MW,MWI,Nkhotakota,Nkhotakota,MW-NK,district,,256.5,,,3,Africa/Blantyre,FALSE,1454137395
Masinji,Masinji,,-13.7156,33.4458,Malawi,MW,MWI,Lilongwe,Lilongwe,MW-LI,district,,192.2,,,4,Africa/Blantyre,FALSE,1454984889
Mkumba,Mkumba,,-13.8344,33.0938,Malawi,MW,MWI,Mchinji,Mchinji,MW-MC,district,,266.2,,,3,Africa/Blantyre,FALSE,1454002452
Mkumba,Mkumba,,-13.7911,33.2333,Malawi,MW,MWI,Mchinji,Mchinji,MW-MC,district,,187.4,,,4,Africa/Blantyre,TRUE,1454002530
Mkumba,Mkumba,,-14.5833,35.5333,Malawi,MW,MWI,Mangochi,Mangochi,MW-MG,district,,149.3,,,4,Africa/Blantyre,FALSE,1454010795
"Moses Mabunda","Moses Mabunda",,-11.7716,33.3485,Malawi,MW,MWI,Mzimba,Mzimba,MW-MZ,district,,46.3,,,4,Africa/Blantyre,FALSE,1454001461
Ndowela,Ndowela,,-13.4895,33.2063,Malawi,MW,MWI,Kasungu,Kasungu,MW-KS,district,,126.6,,,4,Africa/Blantyre,FALSE,1454000240
Nansasala,Nansasala,,-15.4667,35.4833,Malawi,MW,MWI,Zomba,Zomba,MW-ZO,district,,163.4,,,4,Africa/Blantyre,FALSE,1454433177
Zambwe,Zambwe,,-9.8336,33.4501,Malawi,MW,MWI,Chitipa,Chitipa,MW-CT,district,,141.2,,,4,Africa/Blantyre,FALSE,1454000324
"Juma Kaila","Juma Kaila",,-10.0430,33.7249,Malawi,MW,MWI,Karonga,Karonga,MW-KR,district,,11.4,,,4,Africa/Blantyre,FALSE,1454001911
Mugunda,Mugunda,,-9.5877,33.4213,Malawi,MW,MWI,Chitipa,Chitipa,MW-CT,district,,128.4,,,4,Africa/Blantyre,FALSE,1454000086
"Jimu Simon Chirwa","Jimu Simon Chirwa",,-12.4640,33.6641,Malawi,MW,MWI,Mzimba,Mzimba,MW-MZ,district,,168.1,,,4,Africa/Blantyre,FALSE,1454001594
Mpakati,Mpakati,,-15.4167,35.3167,Malawi,MW,MWI,Zomba,Zomba,MW-ZO,district,,1112.0,,,3,Africa/Blantyre,FALSE,1454763229
Crakwita,Crakwita,,-14.3167,34.4333,Malawi,MW,MWI,Dedza,Dedza,MW-DE,district,,194.3,,,4,Africa/Blantyre,FALSE,1454563072
Katimba,Katimba,,-13.2906,33.7688,Malawi,MW,MWI,Ntchisi,Ntchisi,MW-NI,district,,191.6,,,4,Africa/Blantyre,FALSE,1454344026
Jumbo,Jumbo,,-11.7262,34.2472,Malawi,MW,MWI,"Nkhata Bay","Nkhata Bay",MW-NB,district,,194.4,,,4,Africa/Blantyre,FALSE,1454133830
Jumbo,Jumbo,,-11.2670,34.1717,Malawi,MW,MWI,"Nkhata Bay","Nkhata Bay",MW-NB,district,,11.0,,,4,Africa/Blantyre,TRUE,1454454569
Kamalibwa,Kamalibwa,,-12.2835,33.3678,Malawi,MW,MWI,Mzimba,Mzimba,MW-MZ,district,,102.8,,,4,Africa/Blantyre,FALSE,1454001286
Bango,Bango,,-12.5500,33.4167,Malawi,MW,MWI,Kasungu,Kasungu,MW-KS,district,,133.2,,,4,Africa/Blantyre,FALSE,1454458925
Kalikwembe,Kalikwembe,,-12.8922,33.4595,Malawi,MW,MWI,Kasungu,Kasungu,MW-KS,district,,168.0,,,4,Africa/Blantyre,FALSE,1454238290
Chimwamkango,Chimwamkango,,-13.4054,32.9933,Malawi,MW,MWI,Mchinji,Mchinji,MW-MC,district,,33.8,,,4,Africa/Blantyre,FALSE,1454000704
Kumpika,Kumpika,,-15.4402,34.5158,Malawi,MW,MWI,Neno,Neno,MW-NE,district,,31.9,,,4,Africa/Blantyre,FALSE,1454824778
Chimelela,Chimelela,,-13.2833,33.3500,Malawi,MW,MWI,Kasungu,Kasungu,MW-KS,district,,114.5,,,4,Africa/Blantyre,FALSE,1454686022
"Matimani Nyirenda","Matimani Nyirenda",,-12.2230,33.3641,Malawi,MW,MWI,Mzimba,Mzimba,MW-MZ,district,,119.8,,,4,Africa/Blantyre,FALSE,1454001180
"Mubelo Bulukuti","Mubelo Bulukuti","Muwero Bulukuti",-12.0021,33.6497,Malawi,MW,MWI,Mzimba,Mzimba,MW-MZ,district,,56.5,,,4,Africa/Blantyre,FALSE,1454686418
Makius,Makius,,-14.0500,33.3500,Malawi,MW,MWI,Lilongwe,Lilongwe,MW-LI,district,,206.2,,,3,Africa/Blantyre,FALSE,1454344674
Kwitambo,Kwitambo,,-14.5150,35.2621,Malawi,MW,MWI,Mangochi,Mangochi,MW-MG,district,,702.5,,,3,Africa/Blantyre,FALSE,1454310148
Mwewe,Mwewe,,-12.8000,33.5000,Malawi,MW,MWI,Kasungu,Kasungu,MW-KS,district,,207.7,,,3,Africa/Blantyre,FALSE,1454489670
Mnelo,Mnelo,,-13.4903,33.6262,Malawi,MW,MWI,Dowa,Dowa,MW-DO,district,,310.5,,,3,Africa/Blantyre,FALSE,1454506009
Chikuta,Chikuta,,-13.8935,33.1410,Malawi,MW,MWI,Mchinji,Mchinji,MW-MC,district,,303.0,,,3,Africa/Blantyre,FALSE,1454617435
Lundu,Lundu,,-15.3833,34.9833,Malawi,MW,MWI,Blantyre,Blantyre,MW-BL,district,,84.1,,,4,Africa/Blantyre,FALSE,1454741029
Chipapi,Chipapi,,-13.6167,34.0500,Malawi,MW,MWI,Dowa,Dowa,MW-DO,district,,175.5,,,4,Africa/Blantyre,FALSE,1454396085
Livinza,Livinza,,-14.3933,34.0334,Malawi,MW,MWI,Dedza,Dedza,MW-DE,district,,259.7,,,3,Africa/Blantyre,FALSE,1454028041
Mkoleza,Mkoleza,,-13.5916,33.1258,Malawi,MW,MWI,Mchinji,Mchinji,MW-MC,district,,199.4,,,4,Africa/Blantyre,FALSE,1454002479
Mpeni,Mpeni,,-11.8606,33.3252,Malawi,MW,MWI,Mzimba,Mzimba,MW-MZ,district,,131.7,,,4,Africa/Blantyre,FALSE,1454001376
"Kamuvwikamo Munthali","Kamuvwikamo Munthali",,-10.8363,34.0313,Malawi,MW,MWI,Rumphi,Rumphi,MW-RU,district,,124.5,,,4,Africa/Blantyre,FALSE,1454001353
Koti,Koti,,-13.6413,33.8682,Malawi,MW,MWI,Dowa,Dowa,MW-DO,district,,259.1,,,3,Africa/Blantyre,FALSE,1454180134
Pende,Pende,,-16.0333,34.7167,Malawi,MW,MWI,Chikwawa,Chikwawa,MW-CK,district,,108.5,,,4,Africa/Blantyre,FALSE,1454627200
Tunduma,Tunduma,,-11.5380,34.0254,Malawi,MW,MWI,"Nkhata Bay","Nkhata Bay",MW-NB,district,,69.5,,,4,Africa/Blantyre,FALSE,1454951743
Mboza,Mboza,,-16.3167,34.9500,Malawi,MW,MWI,Chikwawa,Chikwawa,MW-CK,district,,30.3,,,4,Africa/Blantyre,FALSE,1454497526
Mwachirwa,Mwachirwa,,-11.0201,33.8170,Malawi,MW,MWI,Rumphi,Rumphi,MW-RU,district,,179.8,,,4,Africa/Blantyre,FALSE,1454516894
Mkambokambo,Mkambokambo,,-13.6901,33.5428,Malawi,MW,MWI,Dowa,Dowa,MW-DO,district,,608.4,,,3,Africa/Blantyre,FALSE,1454003080
Mataketa,Mataketa,,-13.6000,33.4000,Malawi,MW,MWI,Lilongwe,Lilongwe,MW-LI,district,,242.6,,,3,Africa/Blantyre,FALSE,1454720298
Namichese,Namichese,,-9.8168,33.4883,Malawi,MW,MWI,Chitipa,Chitipa,MW-CT,district,,14.2,,,4,Africa/Blantyre,FALSE,1454000343
Mizondo,Mizondo,,-13.1829,33.8338,Malawi,MW,MWI,Ntchisi,Ntchisi,MW-NI,district,,208.9,,,3,Africa/Blantyre,FALSE,1454002195
"Bartumeyo Tembo","Bartumeyo Tembo",,-12.1472,33.4113,Malawi,MW,MWI,Mzimba,Mzimba,MW-MZ,district,,149.1,,,4,Africa/Blantyre,FALSE,1454366129
"Mzamu Ndolo","Mzamu Ndolo",,-12.1198,33.3226,Malawi,MW,MWI,Mzimba,Mzimba,MW-MZ,district,,94.9,,,4,Africa/Blantyre,FALSE,1454001209
"Munyanyala Mhango","Munyanyala Mhango",,-10.8503,34.0007,Malawi,MW,MWI,Rumphi,Rumphi,MW-RU,district,,162.2,,,4,Africa/Blantyre,FALSE,1454001355
Dunduzu,Dunduzu,,-11.3985,33.9564,Malawi,MW,MWI,Mzimba,Mzimba,MW-MZ,district,,200.9,,,3,Africa/Blantyre,FALSE,1454000550
Mselembo,Mselembo,,-13.4362,33.8462,Malawi,MW,MWI,Ntchisi,Ntchisi,MW-NI,district,,433.2,,,3,Africa/Blantyre,FALSE,1454001805
Kamzama,Kamzama,,-13.8492,33.8732,Malawi,MW,MWI,Lilongwe,Lilongwe,MW-LI,district,,302.5,,,3,Africa/Blantyre,FALSE,1454002925
"Tikatika Lungu","Tikatika Lungu",,-11.5778,33.5754,Malawi,MW,MWI,Mzimba,Mzimba,MW-MZ,district,,127.2,,,4,Africa/Blantyre,FALSE,1454000449
Nyangu,Nyangu,,-13.6489,33.7063,Malawi,MW,MWI,Dowa,Dowa,MW-DO,district,,426.1,,,3,Africa/Blantyre,FALSE,1454701487
Mberekere,Mberekere,,-13.3451,33.7238,Malawi,MW,MWI,Dowa,Dowa,MW-DO,district,,219.6,,,3,Africa/Blantyre,FALSE,1454487377
Chunga,Chunga,,-12.5203,33.4923,Malawi,MW,MWI,Kasungu,Kasungu,MW-KS,district,,180.6,,,4,Africa/Blantyre,FALSE,1454000964
Kamdidi,Kamdidi,,-12.5116,33.4587,Malawi,MW,MWI,Kasungu,Kasungu,MW-KS,district,,290.1,,,3,Africa/Blantyre,FALSE,1454894826
Kamdidi,Kamdidi,,-12.6467,33.4217,Malawi,MW,MWI,Kasungu,Kasungu,MW-KS,district,,157.2,,,4,Africa/Blantyre,TRUE,1454001055
Linthipe,Linthipe,Lintipe,-14.1667,34.1667,Malawi,MW,MWI,Dedza,Dedza,MW-DE,district,,466.6,,,3,Africa/Blantyre,FALSE,1454303469
"Kachingwe Lukhele","Kachingwe Lukhele",,-12.0977,33.3545,Malawi,MW,MWI,Mzimba,Mzimba,MW-MZ,district,,114.1,,,4,Africa/Blantyre,FALSE,1454001188
Chizenga,Chizenga,,-16.4500,34.8000,Malawi,MW,MWI,Chikwawa,Chikwawa,MW-CK,district,,204.0,,,3,Africa/Blantyre,FALSE,1454715325
Chauma,Chauma,,-13.8068,33.9696,Malawi,MW,MWI,Lilongwe,Lilongwe,MW-LI,district,,211.7,,,3,Africa/Blantyre,FALSE,1454002844
Vilingowe,Vilingowe,,-12.6457,33.4014,Malawi,MW,MWI,Kasungu,Kasungu,MW-KS,district,,158.2,,,4,Africa/Blantyre,FALSE,1454001057
Mseka,Mseka,,-12.6730,33.3893,Malawi,MW,MWI,Kasungu,Kasungu,MW-KS,district,,158.2,,,4,Africa/Blantyre,FALSE,1454838332
Banda,Banda,,-14.8333,34.9000,Malawi,MW,MWI,Ntcheu,Ntcheu,MW-NU,district,,386.2,,,3,Africa/Blantyre,FALSE,1454955936
Chiwiza,Chiwiza,,-14.6600,34.8474,Malawi,MW,MWI,Ntcheu,Ntcheu,MW-NU,district,,311.2,,,3,Africa/Blantyre,FALSE,1454039056
Nakhwala,Nakhwala,,-15.4667,35.3667,Malawi,MW,MWI,Zomba,Zomba,MW-ZO,district,,509.2,,,3,Africa/Blantyre,FALSE,1454579904
Katambawanthu,Katambawanthu,,-11.3673,33.9320,Malawi,MW,MWI,Mzimba,Mzimba,MW-MZ,district,,134.0,,,4,Africa/Blantyre,FALSE,1454000555
"Ntholome Kaluwa","Ntholome Kaluwa",,-10.7736,34.2026,Malawi,MW,MWI,Rumphi,Rumphi,MW-RU,district,,349.9,,,3,Africa/Blantyre,FALSE,1454001543
Muvenda,Muvenda,,-14.8667,34.8667,Malawi,MW,MWI,Ntcheu,Ntcheu,MW-NU,district,,291.8,,,3,Africa/Blantyre,FALSE,1454982970
Champhenzi,Champhenzi,,-13.8742,33.3909,Malawi,MW,MWI,Lilongwe,Lilongwe,MW-LI,district,,293.4,,,3,Africa/Blantyre,FALSE,1454002701
Mankhangala,Mankhangala,,-12.7364,33.4691,Malawi,MW,MWI,Kasungu,Kasungu,MW-KS,district,,263.0,,,3,Africa/Blantyre,FALSE,1454943272
Levi,Levi,,-13.8344,33.3398,Malawi,MW,MWI,Lilongwe,Lilongwe,MW-LI,district,,182.6,,,4,Africa/Blantyre,FALSE,1454000636
Benjamini,Benjamini,,-13.8810,33.1164,Malawi,MW,MWI,Mchinji,Mchinji,MW-MC,district,,317.4,,,3,Africa/Blantyre,FALSE,1454002499
Mzoza,Mzoza,,-12.3084,34.0351,Malawi,MW,MWI,Nkhotakota,Nkhotakota,MW-NK,district,,681.8,,,3,Africa/Blantyre,FALSE,1454427864
Mwangonde,Mwangonde,,-9.9308,33.9243,Malawi,MW,MWI,Karonga,Karonga,MW-KR,district,,4139.4,,,2,Africa/Blantyre,FALSE,1454000793
Kunchakama,Kunchakama,,-13.7833,34.4167,Malawi,MW,MWI,Salima,Salima,MW-SA,district,,620.4,,,3,Africa/Blantyre,FALSE,1454554616
Nambuma,Nambuma,,-13.7052,33.6047,Malawi,MW,MWI,Dowa,Dowa,MW-DO,district,,2544.5,,,2,Africa/Blantyre,FALSE,1454568438
Kasache,Kasache,,-13.5005,34.3708,Malawi,MW,MWI,Salima,Salima,MW-SA,district,,205.4,,,3,Africa/Blantyre,FALSE,1454182679
Chesa,Chesa,,-13.0760,33.3453,Malawi,MW,MWI,Kasungu,Kasungu,MW-KS,district,,105.9,,,4,Africa/Blantyre,FALSE,1454001833
Nsunguliza,Nsunguliza,,-14.9392,34.9636,Malawi,MW,MWI,Balaka,Balaka,MW-BA,district,,237.4,,,3,Africa/Blantyre,FALSE,1454004439
Jonathan,Jonathan,,-15.6016,34.7394,Malawi,MW,MWI,Neno,Neno,MW-NE,district,,16.3,,,4,Africa/Blantyre,FALSE,1454719568
Kanyerere,Kanyerere,,-11.1464,33.6603,Malawi,MW,MWI,Mzimba,Mzimba,MW-MZ,district,,250.5,,,3,Africa/Blantyre,FALSE,1454555360
Kamilangombi,Kamilangombi,Kamilangombe,-13.8333,33.0167,Malawi,MW,MWI,Mchinji,Mchinji,MW-MC,district,,279.6,,,3,Africa/Blantyre,FALSE,1454704490
Chimutu,Chimutu,Chimuti,-13.7350,33.0470,Malawi,MW,MWI,Mchinji,Mchinji,MW-MC,district,,269.6,,,3,Africa/Blantyre,FALSE,1454630028
"Chautala Msiska","Chautala Msiska",Chautela,-10.6679,34.0722,Malawi,MW,MWI,Rumphi,Rumphi,MW-RU,district,,81.0,,,4,Africa/Blantyre,FALSE,1454134827
Salamba,Salamba,,-13.6159,33.4276,Malawi,MW,MWI,Lilongwe,Lilongwe,MW-LI,district,,247.2,,,3,Africa/Blantyre,FALSE,1454002693
Nkonde,Nkonde,,-14.8823,34.7619,Malawi,MW,MWI,Ntcheu,Ntcheu,MW-NU,district,,403.3,,,3,Africa/Blantyre,FALSE,1454715002
Bangani,Bangani,,-14.2333,34.6167,Malawi,MW,MWI,Dedza,Dedza,MW-DE,district,,194.3,,,4,Africa/Blantyre,FALSE,1454246640
Cawanje,Cawanje,,-14.6452,34.8265,Malawi,MW,MWI,Ntcheu,Ntcheu,MW-NU,district,,207.8,,,3,Africa/Blantyre,FALSE,1454256818
Gumbo,Gumbo,,-12.7333,33.7000,Malawi,MW,MWI,Kasungu,Kasungu,MW-KS,district,,143.9,,,4,Africa/Blantyre,FALSE,1454037600
Lusako,Lusako,,-9.8699,33.8904,Malawi,MW,MWI,Karonga,Karonga,MW-KR,district,,290.7,,,3,Africa/Blantyre,FALSE,1454001155
Smomba,Smomba,,-9.5667,33.1667,Malawi,MW,MWI,Chitipa,Chitipa,MW-CT,district,,97.5,,,4,Africa/Blantyre,FALSE,1454413388
Chabvinda,Chabvinda,Charinda,-13.6113,33.3064,Malawi,MW,MWI,Kasungu,Kasungu,MW-KS,district,,200.2,,,3,Africa/Blantyre,FALSE,1454375818
Daniel,Daniel,,-16.0218,34.8171,Malawi,MW,MWI,Chikwawa,Chikwawa,MW-CK,district,,820.2,,,3,Africa/Blantyre,FALSE,1454848610
"Chalotwa Mtonga","Chalotwa Mtonga",,-12.2401,33.3434,Malawi,MW,MWI,Mzimba,Mzimba,MW-MZ,district,,141.4,,,4,Africa/Blantyre,FALSE,1454001162
Mphamba,Mphamba,,-13.3440,33.9550,Malawi,MW,MWI,Ntchisi,Ntchisi,MW-NI,district,,189.6,,,4,Africa/Blantyre,FALSE,1454001664
Mphamba,Mphamba,,-12.5000,34.1500,Malawi,MW,MWI,Nkhotakota,Nkhotakota,MW-NK,district,,90.2,,,4,Africa/Blantyre,FALSE,1454718087
Chihepusha,Chihepusha,,-10.3345,34.1118,Malawi,MW,MWI,Karonga,Karonga,MW-KR,district,,243.3,,,3,Africa/Blantyre,FALSE,1454001858
Vokolani,Vokolani,,-9.9898,33.9395,Malawi,MW,MWI,Karonga,Karonga,MW-KR,district,,475.4,,,3,Africa/Blantyre,FALSE,1454000928
Chawuwa,Chawuwa,,-13.7078,33.4430,Malawi,MW,MWI,Lilongwe,Lilongwe,MW-LI,district,,186.8,,,4,Africa/Blantyre,FALSE,1454330648
Mizidaki,Mizidaki,,-13.7934,33.0700,Malawi,MW,MWI,Mchinji,Mchinji,MW-MC,district,,271.8,,,3,Africa/Blantyre,FALSE,1454002445
Chimzinga,Chimzinga,Cimzinga,-12.3858,33.5340,Malawi,MW,MWI,Kasungu,Kasungu,MW-KS,district,,303.4,,,3,Africa/Blantyre,FALSE,1454530622
Chimzinga,Chimzinga,,-12.5577,33.4075,Malawi,MW,MWI,Kasungu,Kasungu,MW-KS,district,,138.6,,,4,Africa/Blantyre,TRUE,1454968178
Kalonga,Kalonga,,-13.6623,33.7180,Malawi,MW,MWI,Dowa,Dowa,MW-DO,district,,552.2,,,3,Africa/Blantyre,FALSE,1454055484
Kalonga,Kalonga,,-13.6670,33.7142,Malawi,MW,MWI,Dowa,Dowa,MW-DO,district,,415.1,,,3,Africa/Blantyre,TRUE,1454071225
Kalonga,Kalonga,,-13.3509,33.4666,Malawi,MW,MWI,Dowa,Dowa,MW-DO,district,,168.1,,,4,Africa/Blantyre,TRUE,1454759539
Mabwera,Mabwera,,-13.7407,33.4942,Malawi,MW,MWI,Lilongwe,Lilongwe,MW-LI,district,,181.6,,,4,Africa/Blantyre,FALSE,1454197672
Emusizini,Emusizini,,-11.4413,33.8289,Malawi,MW,MWI,Mzimba,Mzimba,MW-MZ,district,,151.5,,,4,Africa/Blantyre,FALSE,1454000502
Mphamba,Mphamba,,-16.6752,35.2363,Malawi,MW,MWI,Nsanje,Nsanje,MW-NS,district,,551.6,,,3,Africa/Blantyre,FALSE,1454962716
Mphamba,Mphamba,,-17.0500,35.1833,Malawi,MW,MWI,Nsanje,Nsanje,MW-NS,district,,110.2,,,4,Africa/Blantyre,TRUE,1454732286
Mbwebu,Mbwebu,,-13.9240,33.8559,Malawi,MW,MWI,Lilongwe,Lilongwe,MW-LI,district,,335.6,,,3,Africa/Blantyre,FALSE,1454002906
Mwamula,Mwamula,Mwamuru,-13.3248,33.8535,Malawi,MW,MWI,Ntchisi,Ntchisi,MW-NI,district,,378.0,,,3,Africa/Blantyre,FALSE,1454141131
"Yesaya Nkosi","Yesaya Nkosi","Yesaya Mkosi",-11.7242,33.5563,Malawi,MW,MWI,Mzimba,Mzimba,MW-MZ,district,,113.6,,,4,Africa/Blantyre,FALSE,1454526828
Kachimphula,Kachimphula,,-12.6625,33.3934,Malawi,MW,MWI,Kasungu,Kasungu,MW-KS,district,,158.2,,,4,Africa/Blantyre,FALSE,1454001056
"Tegha Nyirongo","Tegha Nyirongo",,-11.9707,33.4527,Malawi,MW,MWI,Mzimba,Mzimba,MW-MZ,district,,117.5,,,4,Africa/Blantyre,FALSE,1454001447
Njalayankhunda,Njalayankhunda,Njalayankunda,-10.4255,34.1118,Malawi,MW,MWI,Karonga,Karonga,MW-KR,district,,42.4,,,4,Africa/Blantyre,FALSE,1454097213
Mndola,Mndola,,-13.8833,34.3167,Malawi,MW,MWI,Salima,Salima,MW-SA,district,,99.2,,,4,Africa/Blantyre,FALSE,1454180551
Magwila,Magwila,,-14.9101,35.5749,Malawi,MW,MWI,Machinga,Machinga,MW-MH,district,,201.0,,,3,Africa/Blantyre,FALSE,1454685493
Mwanyesya,Mwanyesya,,-9.9500,33.8053,Malawi,MW,MWI,Karonga,Karonga,MW-KR,district,,292.8,,,3,Africa/Blantyre,FALSE,1454001141
Mwanyesya,Mwanyesya,,-10.1984,34.0790,Malawi,MW,MWI,Karonga,Karonga,MW-KR,district,,250.9,,,3,Africa/Blantyre,TRUE,1454002180
Mbwezo,Mbwezo,,-14.8667,35.4167,Malawi,MW,MWI,Machinga,Machinga,MW-MH,district,,241.8,,,3,Africa/Blantyre,FALSE,1454672764
Mangadz,Mangadz,,-13.6667,33.5333,Malawi,MW,MWI,Dowa,Dowa,MW-DO,district,,449.3,,,3,Africa/Blantyre,FALSE,1454845516
Chibwana,Chibwana,,-13.5805,33.1666,Malawi,MW,MWI,Mchinji,Mchinji,MW-MC,district,,725.8,,,3,Africa/Blantyre,FALSE,1454002480
Chikudzu,Chikudzu,,-13.4597,33.6450,Malawi,MW,MWI,Dowa,Dowa,MW-DO,district,,289.0,,,3,Africa/Blantyre,FALSE,1454574547
Nkhwindima,Nkhwindima,,-13.4187,33.9253,Malawi,MW,MWI,Ntchisi,Ntchisi,MW-NI,district,,201.5,,,3,Africa/Blantyre,FALSE,1454001655
Chibwana,Chibwana,Chamba,-14.7775,35.3963,Malawi,MW,MWI,Machinga,Machinga,MW-MH,district,,386.5,,,3,Africa/Blantyre,FALSE,1454333306
Chibwana,Chibwana,,-14.8667,35.6167,Malawi,MW,MWI,Machinga,Machinga,MW-MH,district,,315.0,,,3,Africa/Blantyre,TRUE,1454853516
Chibwana,Chibwana,,-15.0765,35.5117,Malawi,MW,MWI,Machinga,Machinga,MW-MH,district,,235.6,,,3,Africa/Blantyre,TRUE,1454980686
Nkungulu,Nkungulu,,-13.3287,33.5463,Malawi,MW,MWI,Dowa,Dowa,MW-DO,district,,351.2,,,3,Africa/Blantyre,FALSE,1454048300
Mwenechendo,Mwenechendo,,-9.8773,33.4011,Malawi,MW,MWI,Chitipa,Chitipa,MW-CT,district,,68.9,,,4,Africa/Blantyre,FALSE,1454000321
Chibwana,Chibwana,,-12.1667,33.6833,Malawi,MW,MWI,Mzimba,Mzimba,MW-MZ,district,,61.8,,,4,Africa/Blantyre,FALSE,1454797464
Undi,Undi,,-13.7542,33.9355,Malawi,MW,MWI,Dowa,Dowa,MW-DO,district,,201.8,,,3,Africa/Blantyre,FALSE,1454002851
Kaphisi,Kaphisi,,-14.0333,33.7833,Malawi,MW,MWI,Lilongwe,Lilongwe,MW-LI,district,,24745.4,,,2,Africa/Blantyre,FALSE,1454763853
Wazankhu,Wazankhu,,-11.5644,34.0671,Malawi,MW,MWI,"Nkhata Bay","Nkhata Bay",MW-NB,district,,107.3,,,4,Africa/Blantyre,FALSE,1454476163
Wazankhu,Wazankhu,,-11.5454,34.0374,Malawi,MW,MWI,"Nkhata Bay","Nkhata Bay",MW-NB,district,,69.5,,,4,Africa/Blantyre,TRUE,1454829680
Ntache,Ntache,,-15.6000,34.4833,Malawi,MW,MWI,Mwanza,Mwanza,MW-MW,district,,404.4,,,3,Africa/Blantyre,FALSE,1454746483
Sosola,Sosola,,-13.9026,33.3551,Malawi,MW,MWI,Lilongwe,Lilongwe,MW-LI,district,,409.8,,,3,Africa/Blantyre,FALSE,1454002571
Sosola,Sosola,,-13.8315,33.9648,Malawi,MW,MWI,Lilongwe,Lilongwe,MW-LI,district,,261.7,,,3,Africa/Blantyre,TRUE,1454002842
Silota,Silota,,-15.6063,34.4982,Malawi,MW,MWI,Mwanza,Mwanza,MW-MW,district,,505.9,,,3,Africa/Blantyre,FALSE,1454456697
Nantwe,Nantwe,,-14.6833,35.5833,Malawi,MW,MWI,Machinga,Machinga,MW-MH,district,,362.4,,,3,Africa/Blantyre,FALSE,1454111742
Mwansala,Mwansala,,-13.5930,33.3920,Malawi,MW,MWI,Lilongwe,Lilongwe,MW-LI,district,,209.6,,,3,Africa/Blantyre,FALSE,1454002682
Kasasanya,Kasasanya,,-12.8088,33.4260,Malawi,MW,MWI,Kasungu,Kasungu,MW-KS,district,,186.1,,,4,Africa/Blantyre,FALSE,1454000419
Lumwila,Lumwila,,-13.5263,33.2605,Malawi,MW,MWI,Kasungu,Kasungu,MW-KS,district,,209.8,,,3,Africa/Blantyre,FALSE,1454002601
Kasiyadanga,Kasiyadanga,,-12.7348,33.3584,Malawi,MW,MWI,Kasungu,Kasungu,MW-KS,district,,130.7,,,4,Africa/Blantyre,FALSE,1454634156
Masuku,Masuku,,-14.4902,35.5854,Malawi,MW,MWI,Mangochi,Mangochi,MW-MG,district,,239.8,,,3,Africa/Blantyre,FALSE,1454954220
Amuyala,Amuyala,Muyala,-13.9836,33.4472,Malawi,MW,MWI,Lilongwe,Lilongwe,MW-LI,district,,268.9,,,3,Africa/Blantyre,FALSE,1454981410
Kanjeza,Kanjeza,,-13.2693,33.9642,Malawi,MW,MWI,Ntchisi,Ntchisi,MW-NI,district,,149.4,,,4,Africa/Blantyre,FALSE,1454001667
Kanjedza,Kanjedza,,-15.8175,35.0474,Malawi,MW,MWI,Blantyre,Blantyre,MW-BL,district,,2445.8,,,2,Africa/Blantyre,FALSE,1454758744
"Ranjeni Ndhlovu","Ranjeni Ndhlovu",,-12.0889,33.4285,Malawi,MW,MWI,Mzimba,Mzimba,MW-MZ,district,,197.3,,,4,Africa/Blantyre,FALSE,1454000815
Mafisau,Mafisau,,-13.3522,33.7425,Malawi,MW,MWI,Ntchisi,Ntchisi,MW-NI,district,,120.5,,,4,Africa/Blantyre,FALSE,1454844508
Namputu,Namputu,,-14.8667,35.2833,Malawi,MW,MWI,Balaka,Balaka,MW-BA,district,,118.0,,,4,Africa/Blantyre,FALSE,1454660581
Mulilima,Mulilima,,-16.0167,34.8167,Malawi,MW,MWI,Chikwawa,Chikwawa,MW-CK,district,,820.2,,,3,Africa/Blantyre,FALSE,1454922334
Zakana,Zakana,,-13.4672,32.8458,Malawi,MW,MWI,Mchinji,Mchinji,MW-MC,district,,132.6,,,4,Africa/Blantyre,FALSE,1454000157
Kamkwate,Kamkwate,Kankwatekuti,-12.6258,33.3187,Malawi,MW,MWI,Kasungu,Kasungu,MW-KS,district,,177.7,,,4,Africa/Blantyre,FALSE,1454033148
Dothi,Dothi,,-13.7667,33.7667,Malawi,MW,MWI,Lilongwe,Lilongwe,MW-LI,district,,267.6,,,3,Africa/Blantyre,FALSE,1454355728
Kamkondo,Kamkondo,,-12.3722,34.0733,Malawi,MW,MWI,Nkhotakota,Nkhotakota,MW-NK,district,,194.7,,,4,Africa/Blantyre,FALSE,1454004743
Kaweteka,Kaweteka,,-12.0579,33.3362,Malawi,MW,MWI,Mzimba,Mzimba,MW-MZ,district,,56.0,,,4,Africa/Blantyre,FALSE,1454894598
Chiweza,Chiweza,,-13.4580,33.8527,Malawi,MW,MWI,Ntchisi,Ntchisi,MW-NI,district,,310.2,,,3,Africa/Blantyre,FALSE,1454212600
Chiweza,Chiweza,Chewesa,-13.2458,33.7874,Malawi,MW,MWI,Ntchisi,Ntchisi,MW-NI,district,,184.0,,,4,Africa/Blantyre,TRUE,1454395628
Tiwi,Tiwi,,-14.3162,34.1125,Malawi,MW,MWI,Dedza,Dedza,MW-DE,district,,282.9,,,3,Africa/Blantyre,FALSE,1454883646
Matoto,Matoto,,-15.5058,34.7437,Malawi,MW,MWI,Neno,Neno,MW-NE,district,,119.6,,,4,Africa/Blantyre,FALSE,1454948493
Khunilamung’wina,Khunilamung'wina,,-10.7375,34.2030,Malawi,MW,MWI,Rumphi,Rumphi,MW-RU,district,,161.7,,,4,Africa/Blantyre,FALSE,1454000898
"Matupi Mkandawire","Matupi Mkandawire",,-10.8629,33.7616,Malawi,MW,MWI,Rumphi,Rumphi,MW-RU,district,,76.7,,,4,Africa/Blantyre,FALSE,1454001346
Cidya,Cidya,,-14.0085,33.4891,Malawi,MW,MWI,Lilongwe,Lilongwe,MW-LI,district,,458.0,,,3,Africa/Blantyre,FALSE,1454461253
Kaleya,Kaleya,,-15.6926,34.4069,Malawi,MW,MWI,Mwanza,Mwanza,MW-MW,district,,355.8,,,3,Africa/Blantyre,FALSE,1454679899
Bunyenga,Bunyenga,,-14.7858,34.7660,Malawi,MW,MWI,Ntcheu,Ntcheu,MW-NU,district,,194.0,,,4,Africa/Blantyre,FALSE,1454554231
"Chigoga Jere","Chigoga Jere",,-11.5918,33.4732,Malawi,MW,MWI,Mzimba,Mzimba,MW-MZ,district,,134.7,,,4,Africa/Blantyre,FALSE,1454000067
Phata,Phata,,-14.1500,33.8500,Malawi,MW,MWI,Lilongwe,Lilongwe,MW-LI,district,,393.8,,,3,Africa/Blantyre,FALSE,1454142329
Kambuku,Kambuku,,-14.7493,34.8664,Malawi,MW,MWI,Ntcheu,Ntcheu,MW-NU,district,,351.8,,,3,Africa/Blantyre,FALSE,1454044063
"Yakobe Nyirenda","Yakobe Nyirenda",,-11.3717,33.4147,Malawi,MW,MWI,Mzimba,Mzimba,MW-MZ,district,,111.0,,,4,Africa/Blantyre,FALSE,1454936484
Mwaya,Mwaya,,-12.4583,33.6974,Malawi,MW,MWI,Mzimba,Mzimba,MW-MZ,district,,100.9,,,4,Africa/Blantyre,FALSE,1454075481
Makikomi,Makikomi,,-9.6167,33.5167,Malawi,MW,MWI,Chitipa,Chitipa,MW-CT,district,,71.9,,,4,Africa/Dar_es_Salaam,FALSE,1454071260
Chisinde,Chisinde,,-10.9279,33.6271,Malawi,MW,MWI,Rumphi,Rumphi,MW-RU,district,,86.3,,,4,Africa/Blantyre,FALSE,1454002010
Kanyimbo,Kanyimbo,,-10.2292,33.6298,Malawi,MW,MWI,Chitipa,Chitipa,MW-CT,district,,106.4,,,4,Africa/Blantyre,FALSE,1454001968
Kajontha,Kajontha,,-12.9275,33.8261,Malawi,MW,MWI,Kasungu,Kasungu,MW-KS,district,,307.6,,,3,Africa/Blantyre,FALSE,1454032362
"Timoti Nsere","Timoti Nsere",,-11.2354,33.4708,Malawi,MW,MWI,Mzimba,Mzimba,MW-MZ,district,,78.6,,,4,Africa/Blantyre,FALSE,1454000489
"Samuel Nyoni","Samuel Nyoni",,-11.4152,33.8132,Malawi,MW,MWI,Mzimba,Mzimba,MW-MZ,district,,129.1,,,4,Africa/Blantyre,FALSE,1454751618
Abute,Abute,,-13.7500,33.1000,Malawi,MW,MWI,Mchinji,Mchinji,MW-MC,district,,289.6,,,3,Africa/Blantyre,FALSE,1454587330
Mbozomwana,Mbozomwana,,-13.1245,33.7562,Malawi,MW,MWI,Kasungu,Kasungu,MW-KS,district,,171.3,,,4,Africa/Blantyre,FALSE,1454002059
"Minjere Gaga","Minjere Gaga",Gaga,-12.6616,33.3378,Malawi,MW,MWI,Kasungu,Kasungu,MW-KS,district,,161.1,,,4,Africa/Blantyre,FALSE,1454653935
Chinjobvu,Chinjobvu,,-12.6839,33.2933,Malawi,MW,MWI,Kasungu,Kasungu,MW-KS,district,,139.9,,,4,Africa/Blantyre,FALSE,1454000865
Chimkusa,Chimkusa,,-12.2529,33.5387,Malawi,MW,MWI,Mzimba,Mzimba,MW-MZ,district,,182.0,,,4,Africa/Blantyre,FALSE,1454097924
Chindevu,Chindevu,,-11.6018,34.0688,Malawi,MW,MWI,"Nkhata Bay","Nkhata Bay",MW-NB,district,,106.2,,,4,Africa/Blantyre,FALSE,1454759699
"Scott Mhango","Scott Mhango",,-11.4647,33.6247,Malawi,MW,MWI,Mzimba,Mzimba,MW-MZ,district,,122.8,,,4,Africa/Blantyre,FALSE,1454534297
Kalulu,Kalulu,,-13.3308,33.7528,Malawi,MW,MWI,Ntchisi,Ntchisi,MW-NI,district,,162.6,,,4,Africa/Blantyre,FALSE,1454001709
Moyomsani,Moyomsani,,-13.6758,33.9044,Malawi,MW,MWI,Dowa,Dowa,MW-DO,district,,513.8,,,3,Africa/Blantyre,FALSE,1454074670
Kawaka,Kawaka,,-13.4339,33.8639,Malawi,MW,MWI,Ntchisi,Ntchisi,MW-NI,district,,335.1,,,3,Africa/Blantyre,FALSE,1454001804
Kawaka,Kawaka,,-13.2500,33.7833,Malawi,MW,MWI,Ntchisi,Ntchisi,MW-NI,district,,217.1,,,3,Africa/Blantyre,TRUE,1454383604
Muhonile,Muhonile,,-9.6603,33.8294,Malawi,MW,MWI,Karonga,Karonga,MW-KR,district,,333.3,,,3,Africa/Blantyre,FALSE,1454001234
"Maluza Mkandawire","Maluza Mkandawire",,-11.8616,33.3963,Malawi,MW,MWI,Mzimba,Mzimba,MW-MZ,district,,167.2,,,4,Africa/Blantyre,FALSE,1454001472
Emchisweni,Emchisweni,Emcisweni,-11.2884,33.6120,Malawi,MW,MWI,Mzimba,Mzimba,MW-MZ,district,,562.5,,,3,Africa/Blantyre,FALSE,1454855120
Katuwa,Katuwa,,-12.6000,33.4333,Malawi,MW,MWI,Kasungu,Kasungu,MW-KS,district,,186.7,,,4,Africa/Blantyre,FALSE,1454019945
Sakala,Sakala,,-13.4480,33.4206,Malawi,MW,MWI,Kasungu,Kasungu,MW-KS,district,,111.4,,,4,Africa/Blantyre,FALSE,1454000361
Mwandwanga,Mwandwanga,,-9.9432,33.8612,Malawi,MW,MWI,Karonga,Karonga,MW-KR,district,,219.1,,,3,Africa/Blantyre,FALSE,1454001063
Mchoka,Mchoka,,-13.6667,33.5333,Malawi,MW,MWI,Dowa,Dowa,MW-DO,district,,449.3,,,3,Africa/Blantyre,FALSE,1454889264
Chomola,Chomola,,-13.3428,33.3644,Malawi,MW,MWI,Kasungu,Kasungu,MW-KS,district,,84.2,,,4,Africa/Blantyre,FALSE,1454910674
Mwembe,Mwembe,,-10.9905,33.5851,Malawi,MW,MWI,Rumphi,Rumphi,MW-RU,district,,83.5,,,4,Africa/Blantyre,FALSE,1454001872
Chinyakula,Chinyakula,,-11.6304,34.1238,Malawi,MW,MWI,"Nkhata Bay","Nkhata Bay",MW-NB,district,,90.5,,,4,Africa/Blantyre,FALSE,1454891914
Chitanga,Chitanga,Chitango,-10.9185,33.5966,Malawi,MW,MWI,Rumphi,Rumphi,MW-RU,district,,82.8,,,4,Africa/Blantyre,FALSE,1454070587
Kapata,Kapata,,-9.8150,33.3346,Malawi,MW,MWI,Chitipa,Chitipa,MW-CT,district,,83.3,,,4,Africa/Blantyre,FALSE,1454000315
"Joshua Mtonga","Joshua Mtonga",,-11.8796,33.3556,Malawi,MW,MWI,Mzimba,Mzimba,MW-MZ,district,,131.2,,,4,Africa/Blantyre,FALSE,1454001378
Kanyika,Kanyika,,-12.7095,33.6582,Malawi,MW,MWI,Mzimba,Mzimba,MW-MZ,district,,186.8,,,4,Africa/Blantyre,FALSE,1454002158
Chilemba,Chilemba,,-12.7693,33.4363,Malawi,MW,MWI,Kasungu,Kasungu,MW-KS,district,,158.4,,,4,Africa/Blantyre,FALSE,1454000426
Mtambo,Mtambo,,-13.4778,34.2910,Malawi,MW,MWI,Salima,Salima,MW-SA,district,,144.6,,,4,Africa/Blantyre,FALSE,1454132384
Nkoko,Nkoko,,-14.9833,35.5667,Malawi,MW,MWI,Machinga,Machinga,MW-MH,district,,533.7,,,3,Africa/Blantyre,FALSE,1454902986
Kasinda,Kasinda,,-10.8196,34.2036,Malawi,MW,MWI,Rumphi,Rumphi,MW-RU,district,,46.1,,,4,Africa/Blantyre,FALSE,1454205792
Chapumbwa,Chapumbwa,,-11.6167,34.2500,Malawi,MW,MWI,"Nkhata Bay","Nkhata Bay",MW-NB,district,,515.2,,,3,Africa/Blantyre,FALSE,1454826736
"Yona Mwangomba","Yona Mwangomba",,-9.6100,33.6354,Malawi,MW,MWI,Chitipa,Chitipa,MW-CT,district,,21.6,,,4,Africa/Blantyre,FALSE,1454001368
"Zakeyo Kayidoke Luhanga","Zakeyo Kayidoke Luhanga","Kayidoke Luhanga",-11.4232,33.5705,Malawi,MW,MWI,Mzimba,Mzimba,MW-MZ,district,,138.5,,,4,Africa/Blantyre,FALSE,1454354044
Chisenga,Chisenga,,-13.7282,33.9665,Malawi,MW,MWI,Dowa,Dowa,MW-DO,district,,197.3,,,4,Africa/Blantyre,FALSE,1454964340
Kansilikiza,Kansilikiza,,-13.6530,33.4213,Malawi,MW,MWI,Lilongwe,Lilongwe,MW-LI,district,,323.3,,,3,Africa/Blantyre,FALSE,1454348805
Chavura,Chavura,,-12.7415,33.4541,Malawi,MW,MWI,Kasungu,Kasungu,MW-KS,district,,252.8,,,3,Africa/Blantyre,FALSE,1454000961
Chavura,Chavura,,-12.8220,33.6356,Malawi,MW,MWI,Kasungu,Kasungu,MW-KS,district,,127.5,,,4,Africa/Blantyre,TRUE,1454007340
Kachuta,Kachuta,,-13.7667,33.0167,Malawi,MW,MWI,Mchinji,Mchinji,MW-MC,district,,304.8,,,3,Africa/Blantyre,FALSE,1454448894
Mwabuwila,Mwabuwila,,-10.9724,33.8300,Malawi,MW,MWI,Rumphi,Rumphi,MW-RU,district,,128.9,,,4,Africa/Blantyre,FALSE,1454001406
Mbwelele,Mbwelele,,-13.9389,33.2776,Malawi,MW,MWI,Mchinji,Mchinji,MW-MC,district,,793.5,,,3,Africa/Blantyre,FALSE,1454571473
Gwaza,Gwaza,,-14.8785,34.8114,Malawi,MW,MWI,Ntcheu,Ntcheu,MW-NU,district,,352.1,,,3,Africa/Blantyre,FALSE,1454966714
Mvyapi,Mvyapi,,-10.9748,33.7039,Malawi,MW,MWI,Rumphi,Rumphi,MW-RU,district,,219.9,,,3,Africa/Blantyre,FALSE,1454002016
Mawawa-Theu,Mawawa-Theu,Mawawa,-13.0968,33.3716,Malawi,MW,MWI,Kasungu,Kasungu,MW-KS,district,,200.4,,,3,Africa/Blantyre,FALSE,1454112918
Chawala,Chawala,,-13.5500,32.9667,Malawi,MW,MWI,Mchinji,Mchinji,MW-MC,district,,244.2,,,3,Africa/Blantyre,FALSE,1454937636
Kanamula,Kanamula,,-13.7888,33.8239,Malawi,MW,MWI,Lilongwe,Lilongwe,MW-LI,district,,2483.1,,,2,Africa/Blantyre,FALSE,1454002939
"Simoni Mwahoboke","Simoni Mwahoboke",,-9.8502,33.8623,Malawi,MW,MWI,Karonga,Karonga,MW-KR,district,,488.3,,,3,Africa/Blantyre,FALSE,1454001136
Kalimanyungu,Kalimanyungu,,-12.7237,33.5445,Malawi,MW,MWI,Kasungu,Kasungu,MW-KS,district,,141.3,,,4,Africa/Blantyre,FALSE,1454002133
Manoro,Manoro,,-11.2288,33.4541,Malawi,MW,MWI,Mzimba,Mzimba,MW-MZ,district,,97.6,,,4,Africa/Blantyre,FALSE,1454000485
Kampalilo,Kampalilo,,-12.6167,33.4500,Malawi,MW,MWI,Kasungu,Kasungu,MW-KS,district,,97.1,,,4,Africa/Blantyre,FALSE,1454250330
Chipwayila,Chipwayila,,-13.6833,33.7333,Malawi,MW,MWI,Lilongwe,Lilongwe,MW-LI,district,,492.5,,,3,Africa/Blantyre,FALSE,1454000011
Msowoya,Msowoya,,-10.9920,34.0966,Malawi,MW,MWI,Rumphi,Rumphi,MW-RU,district,,44.9,,,4,Africa/Blantyre,FALSE,1454001434
Semuka,Semuka,,-14.3167,34.4500,Malawi,MW,MWI,Dedza,Dedza,MW-DE,district,,111.8,,,4,Africa/Blantyre,FALSE,1454835683
Chizungu,Chizungu,,-11.7651,33.4348,Malawi,MW,MWI,Mzimba,Mzimba,MW-MZ,district,,240.4,,,3,Africa/Blantyre,FALSE,1454001499
Kumatundu,Kumatundu,,-13.9527,33.8283,Malawi,MW,MWI,Lilongwe,Lilongwe,MW-LI,district,,681.8,,,3,Africa/Blantyre,FALSE,1454002902
Mkulumimba,Mkulumimba,,-12.7406,33.3272,Malawi,MW,MWI,Kasungu,Kasungu,MW-KS,district,,126.5,,,4,Africa/Blantyre,FALSE,1454000953
Nguniwe,Nguniwe,,-14.0167,34.1167,Malawi,MW,MWI,Lilongwe,Lilongwe,MW-LI,district,,599.7,,,3,Africa/Blantyre,FALSE,1454022253
Kalolo,Kalolo,,-14.0000,33.3833,Malawi,MW,MWI,Lilongwe,Lilongwe,MW-LI,district,,391.6,,,3,Africa/Blantyre,FALSE,1454779305
Gumba,Gumba,,-13.0887,33.5022,Malawi,MW,MWI,Kasungu,Kasungu,MW-KS,district,,238.4,,,3,Africa/Blantyre,FALSE,1454230670
Ngalaura,Ngalaura,,-13.1667,34.3000,Malawi,MW,MWI,Nkhotakota,Nkhotakota,MW-NK,district,,232.4,,,3,Africa/Blantyre,FALSE,1454800431
Asembe,Asembe,,-13.6819,33.7414,Malawi,MW,MWI,Lilongwe,Lilongwe,MW-LI,district,,351.8,,,3,Africa/Blantyre,FALSE,1454041891
Mbozo,Mbozo,,-13.1086,33.7739,Malawi,MW,MWI,Kasungu,Kasungu,MW-KS,district,,211.5,,,3,Africa/Blantyre,FALSE,1454238602
Mbozo,Mbozo,,-13.0970,33.7711,Malawi,MW,MWI,Kasungu,Kasungu,MW-KS,district,,173.3,,,4,Africa/Blantyre,TRUE,1454845382
Kelula,Kelula,,-12.5838,33.5075,Malawi,MW,MWI,Kasungu,Kasungu,MW-KS,district,,697.2,,,3,Africa/Blantyre,FALSE,1454852119
Kadyamaliro,Kadyamaliro,,-13.8430,33.3498,Malawi,MW,MWI,Lilongwe,Lilongwe,MW-LI,district,,146.4,,,4,Africa/Blantyre,FALSE,1454000637
Likongaji,Likongaji,,-15.3167,35.4500,Malawi,MW,MWI,Zomba,Zomba,MW-ZO,district,,380.8,,,3,Africa/Blantyre,FALSE,1454872041
Masaka,Masaka,,-14.8833,35.5333,Malawi,MW,MWI,Machinga,Machinga,MW-MH,district,,2278.6,,,2,Africa/Blantyre,FALSE,1454665500
"Kamuzunguzeni Zgambo","Kamuzunguzeni Zgambo","Kamkunguzeni Zgambo",-11.3503,33.8805,Malawi,MW,MWI,Mzimba,Mzimba,MW-MZ,district,,80.9,,,4,Africa/Blantyre,FALSE,1454999628
Kumaani,Kumaani,Kauma,-13.8308,33.9108,Malawi,MW,MWI,Lilongwe,Lilongwe,MW-LI,district,,279.6,,,3,Africa/Blantyre,FALSE,1454435672
Moffat,Moffat,,-14.3200,33.8986,Malawi,MW,MWI,Dedza,Dedza,MW-DE,district,,463.7,,,3,Africa/Blantyre,FALSE,1454494844
Kadewere,Kadewere,,-15.8398,35.6965,Malawi,MW,MWI,Phalombe,Phalombe,MW-PH,district,,336.1,,,3,Africa/Blantyre,FALSE,1454552419
John,John,,-13.0917,33.5046,Malawi,MW,MWI,Kasungu,Kasungu,MW-KS,district,,293.1,,,3,Africa/Blantyre,FALSE,1454391378
Chavukuka,Chavukuka,,-11.6493,34.2160,Malawi,MW,MWI,"Nkhata Bay","Nkhata Bay",MW-NB,district,,79.6,,,4,Africa/Blantyre,FALSE,1454275074
Luwagha,Luwagha,,-10.8971,33.9919,Malawi,MW,MWI,Rumphi,Rumphi,MW-RU,district,,184.8,,,4,Africa/Blantyre,FALSE,1454001524
Humbu,Humbu,,-10.4395,34.1809,Malawi,MW,MWI,Karonga,Karonga,MW-KR,district,,138.2,,,4,Africa/Blantyre,FALSE,1454001651
Kanolo,Kanolo,,-12.9478,33.4357,Malawi,MW,MWI,Kasungu,Kasungu,MW-KS,district,,128.9,,,4,Africa/Blantyre,FALSE,1454000402
Mbingwa,Mbingwa,,-14.0667,33.7500,Malawi,MW,MWI,Lilongwe,Lilongwe,MW-LI,district,,628.4,,,3,Africa/Blantyre,FALSE,1454792853
Baquira,Baquira,,-13.9000,35.1833,Malawi,MW,MWI,Mangochi,Mangochi,MW-MG,district,,0,,,5,Africa/Blantyre,FALSE,1454655773
Chiwoko,Chiwoko,,-13.6628,33.4976,Malawi,MW,MWI,Dowa,Dowa,MW-DO,district,,473.4,,,3,Africa/Blantyre,FALSE,1454002725
Nkhwakhwa,Nkhwakhwa,,-13.5833,33.3333,Malawi,MW,MWI,Kasungu,Kasungu,MW-KS,district,,142.7,,,4,Africa/Blantyre,FALSE,1454759211
Kalima,Kalima,,-13.7667,32.9833,Malawi,MW,MWI,Mchinji,Mchinji,MW-MC,district,,366.9,,,3,Africa/Blantyre,FALSE,1454894769
"Simon Mziya Msowoya","Simon Mziya Msowoya",Msowoya,-11.0444,33.9271,Malawi,MW,MWI,Mzimba,Mzimba,MW-MZ,district,,325.5,,,3,Africa/Blantyre,FALSE,1454724663
Emuthuzini,Emuthuzini,,-11.8410,33.4463,Malawi,MW,MWI,Mzimba,Mzimba,MW-MZ,district,,174.3,,,4,Africa/Blantyre,FALSE,1454001488
Gome,Gome,,-13.9849,33.4771,Malawi,MW,MWI,Lilongwe,Lilongwe,MW-LI,district,,345.5,,,3,Africa/Blantyre,FALSE,1454002607
Chinganji,Chinganji,Cinganji,-12.8677,33.9370,Malawi,MW,MWI,Kasungu,Kasungu,MW-KS,district,,261.3,,,3,Africa/Blantyre,FALSE,1454112222
Nkhala,Nkhala,,-13.3866,34.2886,Malawi,MW,MWI,Nkhotakota,Nkhotakota,MW-NK,district,,419.5,,,3,Africa/Blantyre,FALSE,1454113538
Wikson,Wikson,,-14.5000,34.4500,Malawi,MW,MWI,Ntcheu,Ntcheu,MW-NU,district,,482.0,,,3,Africa/Maputo,FALSE,1454688034
"Kampala Ndhlovu","Kampala Ndhlovu",,-12.1967,33.3941,Malawi,MW,MWI,Mzimba,Mzimba,MW-MZ,district,,209.7,,,3,Africa/Blantyre,FALSE,1454348373
"Chilambe Mkandawire","Chilambe Mkandawire",,-11.4283,33.3999,Malawi,MW,MWI,Mzimba,Mzimba,MW-MZ,district,,139.8,,,4,Africa/Blantyre,FALSE,1454000777
Chandika,Chandika,,-13.9024,33.9906,Malawi,MW,MWI,Lilongwe,Lilongwe,MW-LI,district,,214.1,,,3,Africa/Blantyre,FALSE,1454002998
Chipuothika,Chipuothika,,-13.7285,33.2189,Malawi,MW,MWI,Mchinji,Mchinji,MW-MC,district,,189.7,,,4,Africa/Blantyre,FALSE,1454002510
Malula,Malula,,-14.9666,34.9919,Malawi,MW,MWI,Balaka,Balaka,MW-BA,district,,225.4,,,3,Africa/Blantyre,FALSE,1454607319
Ulisa,Ulisa,,-12.0574,34.7245,Malawi,MW,MWI,Likoma,Likoma,MW-LK,district,,841.6,,,3,Africa/Blantyre,FALSE,1454770633
Simwaga,Simwaga,,-10.2342,33.6678,Malawi,MW,MWI,Chitipa,Chitipa,MW-CT,district,,43.8,,,4,Africa/Blantyre,FALSE,1454001963
Mtanila,Mtanila,,-13.2218,33.3683,Malawi,MW,MWI,Kasungu,Kasungu,MW-KS,district,,88.0,,,4,Africa/Blantyre,FALSE,1454001992
Mkandamoto,Mkandamoto,,-13.7734,32.7906,Malawi,MW,MWI,Mchinji,Mchinji,MW-MC,district,,155.1,,,4,Africa/Blantyre,FALSE,1454276916
Khomani,Khomani,,-13.5500,33.4833,Malawi,MW,MWI,Dowa,Dowa,MW-DO,district,,233.0,,,3,Africa/Blantyre,FALSE,1454456891
Ntonda,Ntonda,,-15.3000,35.4833,Malawi,MW,MWI,Zomba,Zomba,MW-ZO,district,,447.1,,,3,Africa/Blantyre,FALSE,1454164086
Patenje,Patenje,,-13.6667,33.0500,Malawi,MW,MWI,Mchinji,Mchinji,MW-MC,district,,372.2,,,3,Africa/Blantyre,FALSE,1454005518
Kasiya,Kasiya,,-12.7970,33.7216,Malawi,MW,MWI,Kasungu,Kasungu,MW-KS,district,,80.8,,,4,Africa/Blantyre,FALSE,1454904882
"Chisavu Nkhuwani","Chisavu Nkhuwani",,-11.7662,33.3451,Malawi,MW,MWI,Mzimba,Mzimba,MW-MZ,district,,46.3,,,4,Africa/Blantyre,FALSE,1454001495
"Zakara Honde","Zakara Honde",,-11.4099,33.9054,Malawi,MW,MWI,Mzimba,Mzimba,MW-MZ,district,,190.4,,,4,Africa/Blantyre,FALSE,1454000533
Ipenza,Ipenza,,-9.4529,33.0816,Malawi,MW,MWI,Chitipa,Chitipa,MW-CT,district,,92.0,,,4,Africa/Blantyre,FALSE,1454000023
Milenje,Milenje,,-12.6334,33.5824,Malawi,MW,MWI,Mzimba,Mzimba,MW-MZ,district,,110.3,,,4,Africa/Blantyre,FALSE,1454002122
"Jeremani Shonga","Jeremani Shonga",,-12.5833,33.6320,Malawi,MW,MWI,Mzimba,Mzimba,MW-MZ,district,,123.2,,,4,Africa/Blantyre,FALSE,1454002263
Mwanjage,Mwanjage,,-14.1833,35.2167,Malawi,MW,MWI,Mangochi,Mangochi,MW-MG,district,,353.6,,,3,Africa/Blantyre,FALSE,1454643354
Chimbwanda,Chimbwanda,,-13.3375,33.9128,Malawi,MW,MWI,Ntchisi,Ntchisi,MW-NI,district,,315.0,,,3,Africa/Blantyre,FALSE,1454579722
Jana,Jana,,-13.6333,33.2000,Malawi,MW,MWI,Mchinji,Mchinji,MW-MC,district,,235.8,,,3,Africa/Blantyre,FALSE,1454281273
Mphanza,Mphanza,,-13.9596,33.9605,Malawi,MW,MWI,Lilongwe,Lilongwe,MW-LI,district,,397.6,,,3,Africa/Blantyre,FALSE,1454002989
Mpeni,Mpeni,,-13.1833,33.4833,Malawi,MW,MWI,Kasungu,Kasungu,MW-KS,district,,92.9,,,4,Africa/Blantyre,FALSE,1454383430
Machemba,Machemba,,-14.6766,35.4231,Malawi,MW,MWI,Mangochi,Mangochi,MW-MG,district,,332.7,,,3,Africa/Blantyre,FALSE,1454240398
"Mjuma Gondwe","Mjuma Gondwe",,-10.9644,33.7682,Malawi,MW,MWI,Rumphi,Rumphi,MW-RU,district,,135.0,,,4,Africa/Blantyre,FALSE,1454001401
Mjoka,Mjoka,,-13.6667,33.4333,Malawi,MW,MWI,Lilongwe,Lilongwe,MW-LI,district,,224.6,,,3,Africa/Blantyre,FALSE,1454672610
Mjoka,Mjoka,,-13.6730,33.4518,Malawi,MW,MWI,Lilongwe,Lilongwe,MW-LI,district,,161.9,,,4,Africa/Blantyre,TRUE,1454097889
"Muloyi Neba","Muloyi Neba",,-11.4508,33.6621,Malawi,MW,MWI,Mzimba,Mzimba,MW-MZ,district,,81.5,,,4,Africa/Blantyre,FALSE,1454001110
Thudzu,Thudzu,,-16.5333,35.0000,Malawi,MW,MWI,Chikwawa,Chikwawa,MW-CK,district,,934.7,,,3,Africa/Blantyre,FALSE,1454378842
"Makura Longwe","Makura Longwe",,-11.3854,33.9689,Malawi,MW,MWI,Mzimba,Mzimba,MW-MZ,district,,243.0,,,3,Africa/Blantyre,FALSE,1454000584
Chipumi,Chipumi,,-13.6235,33.0826,Malawi,MW,MWI,Mchinji,Mchinji,MW-MC,district,,408.5,,,3,Africa/Blantyre,FALSE,1454362929
"Chinombo Matimba","Chinombo Matimba",,-11.9468,33.5989,Malawi,MW,MWI,Mzimba,Mzimba,MW-MZ,district,,60.7,,,4,Africa/Blantyre,FALSE,1454001775
Hara,Hara,,-10.5001,34.2022,Malawi,MW,MWI,Karonga,Karonga,MW-KR,district,,555.1,,,3,Africa/Blantyre,FALSE,1454001095
"Josen Nkhoma","Josen Nkhoma",,-12.0696,33.3078,Malawi,MW,MWI,Mzimba,Mzimba,MW-MZ,district,,198.9,,,4,Africa/Blantyre,FALSE,1454000818
Mzembera,Mzembera,,-13.9333,33.9167,Malawi,MW,MWI,Lilongwe,Lilongwe,MW-LI,district,,388.7,,,3,Africa/Blantyre,FALSE,1454286652
Miyowe,Miyowe,,-12.6964,33.2981,Malawi,MW,MWI,Kasungu,Kasungu,MW-KS,district,,134.7,,,4,Africa/Blantyre,FALSE,1454024107
Moya,Moya,,-13.6317,33.9286,Malawi,MW,MWI,Dowa,Dowa,MW-DO,district,,412.7,,,3,Africa/Blantyre,FALSE,1454938812
Itulo,Itulo,,-9.6521,33.5901,Malawi,MW,MWI,Chitipa,Chitipa,MW-CT,district,,55.8,,,4,Africa/Blantyre,FALSE,1454001298
Kavinkhama,Kavinkhama,,-12.4922,33.5852,Malawi,MW,MWI,Mzimba,Mzimba,MW-MZ,district,,145.6,,,4,Africa/Blantyre,FALSE,1454001577
Mandwe,Mandwe,,-13.2941,33.9918,Malawi,MW,MWI,Ntchisi,Ntchisi,MW-NI,district,,138.2,,,4,Africa/Blantyre,FALSE,1454957431
Maenje,Maenje,,-13.8942,33.4521,Malawi,MW,MWI,Lilongwe,Lilongwe,MW-LI,district,,264.0,,,3,Africa/Blantyre,FALSE,1454002666
Akubilila,Akubilila,,-14.7452,34.8020,Malawi,MW,MWI,Ntcheu,Ntcheu,MW-NU,district,,149.7,,,4,Africa/Blantyre,FALSE,1454101037
Chisasu,Chisasu,,-9.7354,33.4424,Malawi,MW,MWI,Chitipa,Chitipa,MW-CT,district,,97.8,,,4,Africa/Blantyre,FALSE,1454000136
Euthini,Euthini,Eutini,-11.4508,33.4154,Malawi,MW,MWI,Mzimba,Mzimba,MW-MZ,district,,232.9,,,3,Africa/Blantyre,FALSE,1454003348
Amazi,Amazi,,-12.7573,33.3754,Malawi,MW,MWI,Kasungu,Kasungu,MW-KS,district,,167.6,,,4,Africa/Blantyre,FALSE,1454603757
Kachenpanje,Kachenpanje,,-13.5000,33.4167,Malawi,MW,MWI,Lilongwe,Lilongwe,MW-LI,district,,153.1,,,4,Africa/Blantyre,FALSE,1454121938
Kangulu,Kangulu,,-14.2164,34.0067,Malawi,MW,MWI,Dedza,Dedza,MW-DE,district,,292.2,,,3,Africa/Blantyre,FALSE,1454245253
Kasenza,Kasenza,,-14.0500,33.3667,Malawi,MW,MWI,Lilongwe,Lilongwe,MW-LI,district,,198.9,,,4,Africa/Blantyre,FALSE,1454836343
Kamchira,Kamchira,,-13.6773,33.8009,Malawi,MW,MWI,Dowa,Dowa,MW-DO,district,,281.5,,,3,Africa/Blantyre,FALSE,1454977273
Misango,Misango,,-13.7198,33.8808,Malawi,MW,MWI,Dowa,Dowa,MW-DO,district,,260.1,,,3,Africa/Blantyre,FALSE,1454956528
Nkope,Nkope,,-10.9255,34.2161,Malawi,MW,MWI,Rumphi,Rumphi,MW-RU,district,,38.6,,,4,Africa/Blantyre,FALSE,1454492833
"Thomasi Kathibi","Thomasi Kathibi",,-11.8741,33.7652,Malawi,MW,MWI,Mzimba,Mzimba,MW-MZ,district,,181.5,,,4,Africa/Blantyre,FALSE,1454000205
"Chibisa Zimba","Chibisa Zimba",,-12.3400,33.5783,Malawi,MW,MWI,Mzimba,Mzimba,MW-MZ,district,,192.8,,,4,Africa/Blantyre,FALSE,1454001583
"Chalowataya Zulanga","Chalowataya Zulanga",,-12.1979,33.4952,Malawi,MW,MWI,Mzimba,Mzimba,MW-MZ,district,,123.7,,,4,Africa/Blantyre,FALSE,1454000837
Padzani,Padzani,,-13.6814,33.0708,Malawi,MW,MWI,Mchinji,Mchinji,MW-MC,district,,313.6,,,3,Africa/Blantyre,FALSE,1454476227
Mkombe,Mkombe,,-13.2191,33.7805,Malawi,MW,MWI,Ntchisi,Ntchisi,MW-NI,district,,240.3,,,3,Africa/Blantyre,FALSE,1454002203
Mkombe,Mkombe,,-13.1123,33.9025,Malawi,MW,MWI,Ntchisi,Ntchisi,MW-NI,district,,213.1,,,3,Africa/Blantyre,TRUE,1454002224
Murwa,Murwa,,-11.2641,34.2139,Malawi,MW,MWI,"Nkhata Bay","Nkhata Bay",MW-NB,district,,79.4,,,4,Africa/Blantyre,FALSE,1454363503
"Hannock Ng’oma","Hannock Ng'oma",,-11.5148,33.5280,Malawi,MW,MWI,Mzimba,Mzimba,MW-MZ,district,,94.0,,,4,Africa/Blantyre,FALSE,1454000566
Nseme,Nseme,,-13.7167,33.6500,Malawi,MW,MWI,Lilongwe,Lilongwe,MW-LI,district,,318.4,,,3,Africa/Blantyre,FALSE,1454182124
Mphonde,Mphonde,,-14.9575,35.7624,Malawi,MW,MWI,Machinga,Machinga,MW-MH,district,,74.6,,,4,Africa/Blantyre,FALSE,1454243742
Chinkande,Chinkande,,-13.4053,33.9369,Malawi,MW,MWI,Ntchisi,Ntchisi,MW-NI,district,,140.4,,,4,Africa/Blantyre,FALSE,1454231022
Msundu,Msundu,,-11.8426,34.1523,Malawi,MW,MWI,"Nkhata Bay","Nkhata Bay",MW-NB,district,,747.2,,,3,Africa/Blantyre,FALSE,1454203891
Mbalachanda,Mbalachanda,,-11.3587,33.3706,Malawi,MW,MWI,Mzimba,Mzimba,MW-MZ,district,,285.0,,,3,Africa/Blantyre,FALSE,1454000738
Mahata,Mahata,,-14.8333,35.7333,Malawi,MW,MWI,Machinga,Machinga,MW-MH,district,,252.9,,,3,Africa/Blantyre,FALSE,1454401527
Chimelera,Chimelera,,-13.5004,33.2139,Malawi,MW,MWI,Kasungu,Kasungu,MW-KS,district,,109.3,,,4,Africa/Blantyre,FALSE,1454002513
Kafotokoza,Kafotokoza,Kapotokoza,-14.4032,33.9647,Malawi,MW,MWI,Dedza,Dedza,MW-DE,district,,300.9,,,3,Africa/Blantyre,FALSE,1454253308
Kwera,Kwera,,-13.3500,33.9000,Malawi,MW,MWI,Ntchisi,Ntchisi,MW-NI,district,,328.5,,,3,Africa/Blantyre,FALSE,1454880671
Pingo,Pingo,,-14.7000,35.6167,Malawi,MW,MWI,Machinga,Machinga,MW-MH,district,,129.8,,,4,Africa/Blantyre,FALSE,1454369718
Njebwa,Njebwa,,-12.0736,33.4065,Malawi,MW,MWI,Mzimba,Mzimba,MW-MZ,district,,140.3,,,4,Africa/Blantyre,FALSE,1454323546
Chalaghala,Chalaghala,,-10.3405,33.6522,Malawi,MW,MWI,Chitipa,Chitipa,MW-CT,district,,56.7,,,4,Africa/Blantyre,FALSE,1454002169
Myayi,Myayi,,-12.6167,33.4000,Malawi,MW,MWI,Kasungu,Kasungu,MW-KS,district,,168.3,,,4,Africa/Blantyre,FALSE,1454513328
Mkanile,Mkanile,Mkauile,-13.2024,33.7900,Malawi,MW,MWI,Ntchisi,Ntchisi,MW-NI,district,,225.1,,,3,Africa/Blantyre,FALSE,1454088423
"Handile Ndhlovu","Handile Ndhlovu","Handire Ndhlovu",-12.0618,33.4433,Malawi,MW,MWI,Mzimba,Mzimba,MW-MZ,district,,176.8,,,4,Africa/Blantyre,FALSE,1454683595
Kambalima,Kambalima,,-13.6884,33.6966,Malawi,MW,MWI,Dowa,Dowa,MW-DO,district,,430.9,,,3,Africa/Blantyre,FALSE,1454814582
Namkumba,Namkumba,,-13.3678,33.5947,Malawi,MW,MWI,Dowa,Dowa,MW-DO,district,,344.7,,,3,Africa/Blantyre,FALSE,1454054310
Chuzu,Chuzu,,-13.3333,33.4000,Malawi,MW,MWI,Kasungu,Kasungu,MW-KS,district,,84.5,,,4,Africa/Blantyre,FALSE,1454694348
Zakeyu,Zakeyu,,-13.5502,33.2547,Malawi,MW,MWI,Kasungu,Kasungu,MW-KS,district,,133.1,,,4,Africa/Blantyre,FALSE,1454002602
Nsume,Nsume,,-14.8333,35.5500,Malawi,MW,MWI,Machinga,Machinga,MW-MH,district,,408.3,,,3,Africa/Blantyre,FALSE,1454008037
"Andrea Musukwa","Andrea Musukwa",,-9.6488,33.5732,Malawi,MW,MWI,Chitipa,Chitipa,MW-CT,district,,55.7,,,4,Africa/Blantyre,FALSE,1454001299
Kamwenye,Kamwenye,,-12.5646,33.6524,Malawi,MW,MWI,Mzimba,Mzimba,MW-MZ,district,,86.9,,,4,Africa/Blantyre,FALSE,1454087192
Kalisha,Kalisha,,-13.7337,33.8882,Malawi,MW,MWI,Dowa,Dowa,MW-DO,district,,191.4,,,4,Africa/Blantyre,FALSE,1454051893
"Simion Banda","Simion Banda",,-12.4032,33.7639,Malawi,MW,MWI,Mzimba,Mzimba,MW-MZ,district,,64.6,,,4,Africa/Blantyre,FALSE,1454000176
Kanjerenjere,Kanjerenjere,,-12.6450,33.2951,Malawi,MW,MWI,Kasungu,Kasungu,MW-KS,district,,112.3,,,4,Africa/Blantyre,FALSE,1454001039
Eliko,Eliko,,-13.7780,33.9273,Malawi,MW,MWI,Lilongwe,Lilongwe,MW-LI,district,,278.9,,,3,Africa/Blantyre,FALSE,1454002946
Kapinya,Kapinya,,-12.5758,33.3976,Malawi,MW,MWI,Kasungu,Kasungu,MW-KS,district,,143.0,,,4,Africa/Blantyre,FALSE,1454000877
Kapinya,Kapinya,,-13.0511,33.5965,Malawi,MW,MWI,Kasungu,Kasungu,MW-KS,district,,71.1,,,4,Africa/Blantyre,TRUE,1454803355
Thornwood,Thornwood,,-16.0815,35.7076,Malawi,MW,MWI,Mulanje,Mulanje,MW-MU,district,,2350.2,,,2,Africa/Blantyre,FALSE,1454639728
Nyanthumbi,Nyanthumbi,,-16.7000,35.2167,Malawi,MW,MWI,Nsanje,Nsanje,MW-NS,district,,166.1,,,4,Africa/Blantyre,FALSE,1454264704
Chinunda,Chinunda,,-13.6850,32.9405,Malawi,MW,MWI,Mchinji,Mchinji,MW-MC,district,,79.6,,,4,Africa/Blantyre,FALSE,1454369205
Ciseko,Ciseko,,-13.7500,33.7167,Malawi,MW,MWI,Lilongwe,Lilongwe,MW-LI,district,,253.5,,,3,Africa/Blantyre,FALSE,1454287867
Guliguli,Guliguli,,-14.0500,33.3500,Malawi,MW,MWI,Lilongwe,Lilongwe,MW-LI,district,,206.2,,,3,Africa/Blantyre,FALSE,1454671635
Dambe,Dambe,,-15.3819,34.5709,Malawi,MW,MWI,Neno,Neno,MW-NE,district,,197.7,,,4,Africa/Blantyre,FALSE,1454138722
Kaigwazanga,Kaigwazanga,,-13.6315,32.9273,Malawi,MW,MWI,Mchinji,Mchinji,MW-MC,district,,656.6,,,3,Africa/Blantyre,FALSE,1454478635
Kasichi,Kasichi,,-12.9811,33.8552,Malawi,MW,MWI,Kasungu,Kasungu,MW-KS,district,,258.7,,,3,Africa/Blantyre,FALSE,1454081263
Kasichi,Kasichi,,-12.5218,33.4876,Malawi,MW,MWI,Kasungu,Kasungu,MW-KS,district,,251.1,,,3,Africa/Blantyre,TRUE,1454298272
Kasichi,Kasichi,,-12.8649,33.3167,Malawi,MW,MWI,Kasungu,Kasungu,MW-KS,district,,169.1,,,4,Africa/Blantyre,TRUE,1454000390
Mtambalala,Mtambalala,,-13.0462,33.4924,Malawi,MW,MWI,Kasungu,Kasungu,MW-KS,district,,6326.8,,,2,Africa/Blantyre,FALSE,1454110829
Mkusa,Mkusa,,-13.9670,33.2459,Malawi,MW,MWI,Mchinji,Mchinji,MW-MC,district,,415.7,,,3,Africa/Blantyre,FALSE,1454002543
Nkhwazi,Nkhwazi,Nkwazi,-13.9200,33.2306,Malawi,MW,MWI,Mchinji,Mchinji,MW-MC,district,,885.8,,,3,Africa/Blantyre,FALSE,1454274914
Mwenitete,Mwenitete,,-9.8118,33.8745,Malawi,MW,MWI,Karonga,Karonga,MW-KR,district,,808.0,,,3,Africa/Blantyre,FALSE,1454001175
Chikhutu,Chikhutu,Cikutu,-13.7473,33.6829,Malawi,MW,MWI,Lilongwe,Lilongwe,MW-LI,district,,882.5,,,3,Africa/Blantyre,FALSE,1454261379
Kapiri,Kapiri,,-14.3667,34.6500,Malawi,MW,MWI,Dedza,Dedza,MW-DE,district,,78.1,,,4,Africa/Blantyre,FALSE,1454527674
"Josofati Luqoto","Josofati Luqoto",,-12.2156,33.3820,Malawi,MW,MWI,Mzimba,Mzimba,MW-MZ,district,,120.4,,,4,Africa/Blantyre,FALSE,1454001195
Chibwana,Chibwana,,-12.9133,33.9675,Malawi,MW,MWI,Kasungu,Kasungu,MW-KS,district,,251.4,,,3,Africa/Blantyre,FALSE,1454002827
"William Ndindani Ngalamila Sibande","William Ndindani Ngalamila Sibande",,-11.6347,33.6805,Malawi,MW,MWI,Mzimba,Mzimba,MW-MZ,district,,142.5,,,4,Africa/Blantyre,FALSE,1454001221
"Simon Jere","Simon Jere",,-11.2220,33.4998,Malawi,MW,MWI,Mzimba,Mzimba,MW-MZ,district,,109.7,,,4,Africa/Blantyre,FALSE,1454000512
Chimbongonda,Chimbongonda,,-11.4745,33.7924,Malawi,MW,MWI,Mzimba,Mzimba,MW-MZ,district,,114.8,,,4,Africa/Blantyre,FALSE,1454000508
Cesalino,Cesalino,,-13.7038,34.2794,Malawi,MW,MWI,Dowa,Dowa,MW-DO,district,,250.3,,,3,Africa/Blantyre,FALSE,1454003735
Zelema,Zelema,,-12.5000,33.4333,Malawi,MW,MWI,Kasungu,Kasungu,MW-KS,district,,169.0,,,4,Africa/Blantyre,FALSE,1454369279
Chitsulo,Chitsulo,,-13.1425,33.7065,Malawi,MW,MWI,Kasungu,Kasungu,MW-KS,district,,232.7,,,3,Africa/Blantyre,FALSE,1454626886
Mbalamanja,Mbalamanja,,-14.1425,34.9352,Malawi,MW,MWI,Mangochi,Mangochi,MW-MG,district,,1444.1,,,3,Africa/Blantyre,FALSE,1454615142
Kaugule,Kaugule,,-15.1833,35.5000,Malawi,MW,MWI,Machinga,Machinga,MW-MH,district,,88.0,,,4,Africa/Blantyre,FALSE,1454801626
Mbuyedziko,Mbuyedziko,Nbuyedziko,-13.3728,33.8070,Malawi,MW,MWI,Ntchisi,Ntchisi,MW-NI,district,,268.2,,,3,Africa/Blantyre,FALSE,1454089840
Mthuku,Mthuku,Nthukwa,-13.4103,33.9775,Malawi,MW,MWI,Ntchisi,Ntchisi,MW-NI,district,,115.5,,,4,Africa/Blantyre,FALSE,1454305341
Chiteyeye,Chiteyeye,,-13.0500,33.5000,Malawi,MW,MWI,Kasungu,Kasungu,MW-KS,district,,2117.4,,,2,Africa/Blantyre,FALSE,1454231012
Chidzalo,Chidzalo,,-13.8381,33.4589,Malawi,MW,MWI,Lilongwe,Lilongwe,MW-LI,district,,310.5,,,3,Africa/Blantyre,FALSE,1454002711
Chidzalo,Chidzalo,,-13.8249,33.8813,Malawi,MW,MWI,Lilongwe,Lilongwe,MW-LI,district,,309.1,,,3,Africa/Blantyre,TRUE,1454002954
Chindoka,Chindoka,,-12.2846,33.5642,Malawi,MW,MWI,Mzimba,Mzimba,MW-MZ,district,,123.3,,,4,Africa/Blantyre,FALSE,1454885463
Njewa,Njewa,Njawa,-13.9833,33.7167,Malawi,MW,MWI,Lilongwe,Lilongwe,MW-LI,district,,647.0,,,3,Africa/Blantyre,FALSE,1454693571
"Phulos Nyaluanga","Phulos Nyaluanga",,-12.3000,34.0333,Malawi,MW,MWI,Nkhotakota,Nkhotakota,MW-NK,district,,108.1,,,4,Africa/Blantyre,FALSE,1454810366
Mayoka,Mayoka,,-9.6966,33.8500,Malawi,MW,MWI,Karonga,Karonga,MW-KR,district,,300.1,,,3,Africa/Blantyre,FALSE,1454001241
Mtimasonjo,Mtimasonjo,,-13.6452,34.5556,Malawi,MW,MWI,Salima,Salima,MW-SA,district,,104.6,,,4,Africa/Blantyre,FALSE,1454267287
Sopani,Sopani,,-12.6679,33.5216,Malawi,MW,MWI,Kasungu,Kasungu,MW-KS,district,,201.6,,,3,Africa/Blantyre,FALSE,1454284178
"Chikwa Theu","Chikwa Theu",,-12.0180,33.7359,Malawi,MW,MWI,Mzimba,Mzimba,MW-MZ,district,,10.9,,,4,Africa/Blantyre,FALSE,1454002322
Chikomakuka,Chikomakuka,,-13.4313,33.6794,Malawi,MW,MWI,Dowa,Dowa,MW-DO,district,,204.6,,,3,Africa/Blantyre,FALSE,1454873268
Kanjedza,Kanjedza,Kanjesa,-13.6563,33.3777,Malawi,MW,MWI,Lilongwe,Lilongwe,MW-LI,district,,283.1,,,3,Africa/Blantyre,FALSE,1454886919
Nakagamba,Nakagamba,,-9.6537,33.3719,Malawi,MW,MWI,Chitipa,Chitipa,MW-CT,district,,84.3,,,4,Africa/Blantyre,FALSE,1454000152
Katenje,Katenje,Katenji,-13.5912,33.3025,Malawi,MW,MWI,Kasungu,Kasungu,MW-KS,district,,168.2,,,4,Africa/Blantyre,FALSE,1454235256
Katenje,Katenje,,-13.4614,33.2331,Malawi,MW,MWI,Kasungu,Kasungu,MW-KS,district,,101.9,,,4,Africa/Blantyre,TRUE,1454000224
Chimbalu,Chimbalu,,-13.7167,33.6000,Malawi,MW,MWI,Lilongwe,Lilongwe,MW-LI,district,,319.3,,,3,Africa/Blantyre,FALSE,1454207636
"Chivwara Muzumara","Chivwara Muzumara",,-11.1886,33.5730,Malawi,MW,MWI,Mzimba,Mzimba,MW-MZ,district,,201.8,,,3,Africa/Blantyre,FALSE,1454000919
"Chikhozola Mjumila","Chikhozola Mjumila",,-11.4465,33.2860,Malawi,MW,MWI,Mzimba,Mzimba,MW-MZ,district,,63.8,,,4,Africa/Blantyre,FALSE,1454000728
Ulaya,Ulaya,,-15.7751,34.8603,Malawi,MW,MWI,Blantyre,Blantyre,MW-BL,district,,122.1,,,4,Africa/Blantyre,FALSE,1454672067
Katantha,Katantha,,-12.5911,33.3017,Malawi,MW,MWI,Kasungu,Kasungu,MW-KS,district,,146.9,,,4,Africa/Blantyre,FALSE,1454078481
Masanga,Masanga,,-13.8762,33.8954,Malawi,MW,MWI,Lilongwe,Lilongwe,MW-LI,district,,330.5,,,3,Africa/Blantyre,FALSE,1454002963
Mazawa,Mazawa,,-13.8441,33.1207,Malawi,MW,MWI,Mchinji,Mchinji,MW-MC,district,,249.4,,,3,Africa/Blantyre,FALSE,1454002523
Nkhalambailawe,Nkhalambailawe,,-13.7549,33.3942,Malawi,MW,MWI,Lilongwe,Lilongwe,MW-LI,district,,294.3,,,3,Africa/Blantyre,FALSE,1454002762
Mpondu,Mpondu,,-13.8333,34.5333,Malawi,MW,MWI,Salima,Salima,MW-SA,district,,273.0,,,3,Africa/Blantyre,FALSE,1454536397
Chimwala,Chimwala,,-14.6386,35.1833,Malawi,MW,MWI,Mangochi,Mangochi,MW-MG,district,,990.6,,,3,Africa/Blantyre,FALSE,1454000989
Chimwere,Chimwere,,-15.4000,35.3000,Malawi,MW,MWI,Zomba,Zomba,MW-ZO,district,,2573.1,,,2,Africa/Blantyre,FALSE,1454868428
Chimwala,Chimwala,,-13.5585,33.0842,Malawi,MW,MWI,Mchinji,Mchinji,MW-MC,district,,66.0,,,4,Africa/Blantyre,FALSE,1454002423
Cibwata,Cibwata,,-14.1167,34.0500,Malawi,MW,MWI,Lilongwe,Lilongwe,MW-LI,district,,197.4,,,4,Africa/Blantyre,FALSE,1454088612
Munyimbo,Munyimbo,,-9.4897,33.0009,Malawi,MW,MWI,Chitipa,Chitipa,MW-CT,district,,50.9,,,4,Africa/Blantyre,FALSE,1454000017
Upighu,Upighu,,-9.5098,33.3466,Malawi,MW,MWI,Chitipa,Chitipa,MW-CT,district,,84.0,,,4,Africa/Blantyre,FALSE,1454000098
Chikombe,Chikombe,,-12.8333,34.2167,Malawi,MW,MWI,Nkhotakota,Nkhotakota,MW-NK,district,,172.5,,,4,Africa/Blantyre,FALSE,1454464030
Nzinda,Nzinda,,-14.7000,35.5500,Malawi,MW,MWI,Machinga,Machinga,MW-MH,district,,347.2,,,3,Africa/Blantyre,FALSE,1454738551
Kobyo,Kobyo,,-11.0257,33.9151,Malawi,MW,MWI,Rumphi,Rumphi,MW-RU,district,,125.6,,,4,Africa/Blantyre,FALSE,1454000696
Kalawa,Kalawa,,-13.6333,33.4167,Malawi,MW,MWI,Lilongwe,Lilongwe,MW-LI,district,,312.8,,,3,Africa/Blantyre,FALSE,1454097689
Chiwaula,Chiwaula,,-13.9153,33.0154,Malawi,MW,MWI,Mchinji,Mchinji,MW-MC,district,,467.6,,,3,Africa/Blantyre,FALSE,1454766395
Mwenegamba,Mwenegamba,,-10.4708,33.6574,Malawi,MW,MWI,Chitipa,Chitipa,MW-CT,district,,43.6,,,4,Africa/Blantyre,FALSE,1454002101
Magasu,Magasu,,-16.4167,35.1500,Malawi,MW,MWI,Nsanje,Nsanje,MW-NS,district,,538.7,,,3,Africa/Blantyre,FALSE,1454309627
Kambamula,Kambamula,Kambumula,-13.6393,33.4551,Malawi,MW,MWI,Lilongwe,Lilongwe,MW-LI,district,,230.6,,,3,Africa/Blantyre,FALSE,1454329962
Musomba,Musomba,,-9.8119,33.8897,Malawi,MW,MWI,Karonga,Karonga,MW-KR,district,,168.8,,,4,Africa/Blantyre,FALSE,1454000753
Sigulane,Sigulane,,-15.6844,34.4058,Malawi,MW,MWI,Mwanza,Mwanza,MW-MW,district,,369.8,,,3,Africa/Blantyre,FALSE,1454651320
Chikudzulire,Chikudzulire,Chikuzulire,-13.9590,33.3638,Malawi,MW,MWI,Lilongwe,Lilongwe,MW-LI,district,,401.4,,,3,Africa/Blantyre,FALSE,1454211423
Kacembere,Kacembere,,-13.9130,33.9159,Malawi,MW,MWI,Lilongwe,Lilongwe,MW-LI,district,,218.7,,,3,Africa/Blantyre,FALSE,1454002975
Chatanga,Chatanga,,-13.6440,33.5239,Malawi,MW,MWI,Dowa,Dowa,MW-DO,district,,496.8,,,3,Africa/Blantyre,FALSE,1454488116
Chizangwe,Chizangwe,,-13.2000,34.3167,Malawi,MW,MWI,Nkhotakota,Nkhotakota,MW-NK,district,,223.3,,,3,Africa/Blantyre,FALSE,1454202785
Khalapamuhanya,Khalapamuhanya,"Khara Pamuhanya Gondwe",-10.9861,33.5773,Malawi,MW,MWI,Rumphi,Rumphi,MW-RU,district,,83.8,,,4,Africa/Blantyre,FALSE,1454632229
Kanyimbo,Kanyimbo,,-13.7561,33.0975,Malawi,MW,MWI,Mchinji,Mchinji,MW-MC,district,,232.1,,,3,Africa/Blantyre,FALSE,1454393786
Mdauka,Mdauka,,-12.7803,33.4534,Malawi,MW,MWI,Kasungu,Kasungu,MW-KS,district,,230.1,,,3,Africa/Blantyre,FALSE,1454522500
"Davide Jere","Davide Jere","Daud Jere",-11.4729,33.7350,Malawi,MW,MWI,Mzimba,Mzimba,MW-MZ,district,,262.1,,,3,Africa/Blantyre,FALSE,1454509960
Msinje,Msinje,,-13.5167,34.8667,Malawi,MW,MWI,Mangochi,Mangochi,MW-MG,district,,37.4,,,4,Africa/Blantyre,FALSE,1454608864
Zifa,Zifa,,-12.7946,33.3910,Malawi,MW,MWI,Kasungu,Kasungu,MW-KS,district,,147.9,,,4,Africa/Blantyre,FALSE,1454843579
Ngumeni,Ngumeni,,-15.7591,34.8505,Malawi,MW,MWI,Blantyre,Blantyre,MW-BL,district,,157.0,,,4,Africa/Blantyre,FALSE,1454213769
Fisi,Fisi,,-13.9382,33.3586,Malawi,MW,MWI,Lilongwe,Lilongwe,MW-LI,district,,295.6,,,3,Africa/Blantyre,FALSE,1454286798
Chilemba,Chilemba,,-13.3542,33.5932,Malawi,MW,MWI,Dowa,Dowa,MW-DO,district,,304.5,,,3,Africa/Blantyre,FALSE,1454844240
Chilemba,Chilemba,,-13.6207,33.5960,Malawi,MW,MWI,Dowa,Dowa,MW-DO,district,,272.1,,,3,Africa/Blantyre,TRUE,1454003069
Katengeza,Katengeza,,-12.9167,34.2500,Malawi,MW,MWI,Nkhotakota,Nkhotakota,MW-NK,district,,268.0,,,3,Africa/Blantyre,FALSE,1454952923
Sese,Sese,,-13.5756,33.6349,Malawi,MW,MWI,Dowa,Dowa,MW-DO,district,,271.2,,,3,Africa/Blantyre,FALSE,1454003016
Malekeza,Malekeza,,-16.9705,35.2840,Malawi,MW,MWI,Nsanje,Nsanje,MW-NS,district,,191.6,,,4,Africa/Blantyre,FALSE,1454954038
Balangombe,Balangombe,,-13.8710,33.9403,Malawi,MW,MWI,Lilongwe,Lilongwe,MW-LI,district,,366.9,,,3,Africa/Blantyre,FALSE,1454003003
Mwakaboko,Mwakaboko,,-9.6318,33.8105,Malawi,MW,MWI,Karonga,Karonga,MW-KR,district,,228.6,,,3,Africa/Blantyre,FALSE,1454001212
Kagoti,Kagoti,,-13.6500,33.3000,Malawi,MW,MWI,Mchinji,Mchinji,MW-MC,district,,203.8,,,3,Africa/Blantyre,FALSE,1454589034
Mpagaja,Mpagaja,,-15.8212,34.9621,Malawi,MW,MWI,Blantyre,Blantyre,MW-BL,district,,741.1,,,3,Africa/Blantyre,FALSE,1454371027
"Musaya Tembo","Musaya Tembo",,-12.3054,33.4344,Malawi,MW,MWI,Mzimba,Mzimba,MW-MZ,district,,119.0,,,4,Africa/Blantyre,FALSE,1454001070
Muhoni,Muhoni,,-12.5440,33.6705,Malawi,MW,MWI,Mzimba,Mzimba,MW-MZ,district,,204.6,,,3,Africa/Blantyre,FALSE,1454249785
Limela,Limela,,-14.8833,34.7167,Malawi,MW,MWI,Ntcheu,Ntcheu,MW-NU,district,,286.4,,,3,Africa/Blantyre,FALSE,1454086198
Malembe,Malembe,,-13.8689,33.7555,Malawi,MW,MWI,Lilongwe,Lilongwe,MW-LI,district,,3305.6,,,2,Africa/Blantyre,FALSE,1454002879
Mpakaka,Mpakaka,,-14.6870,35.7942,Malawi,MW,MWI,Machinga,Machinga,MW-MH,district,,242.4,,,3,Africa/Blantyre,FALSE,1454692914
Msanyama,Msanyama,,-13.7947,33.4552,Malawi,MW,MWI,Lilongwe,Lilongwe,MW-LI,district,,216.7,,,3,Africa/Blantyre,FALSE,1454002745
Sanga,Sanga,Isanga,-9.7301,33.5374,Malawi,MW,MWI,Chitipa,Chitipa,MW-CT,district,,25.0,,,4,Africa/Blantyre,FALSE,1454275943
Gwenje,Gwenje,,-13.8333,33.1000,Malawi,MW,MWI,Mchinji,Mchinji,MW-MC,district,,159.6,,,4,Africa/Blantyre,FALSE,1454753969
Chombwe,Chombwe,,-13.9227,33.2572,Malawi,MW,MWI,Mchinji,Mchinji,MW-MC,district,,277.8,,,3,Africa/Blantyre,FALSE,1454002578
Kolongolera,Kolongolera,,-9.7258,33.8879,Malawi,MW,MWI,Karonga,Karonga,MW-KR,district,,350.9,,,3,Africa/Blantyre,FALSE,1454001265
"Vitanda Chihana","Vitanda Chihana",,-10.9145,34.0280,Malawi,MW,MWI,Rumphi,Rumphi,MW-RU,district,,265.0,,,3,Africa/Blantyre,FALSE,1454001427
"Kenan Dangali","Kenan Dangali",,-9.4637,32.9553,Malawi,MW,MWI,Chitipa,Chitipa,MW-CT,district,,44.9,,,4,Africa/Blantyre,FALSE,1454000014
Kankhomba,Kankhomba,,-15.4500,35.3500,Malawi,MW,MWI,Zomba,Zomba,MW-ZO,district,,567.4,,,3,Africa/Blantyre,FALSE,1454103770
Ubale,Ubale,,-16.4500,34.9667,Malawi,MW,MWI,Chikwawa,Chikwawa,MW-CK,district,,80.4,,,4,Africa/Blantyre,FALSE,1454707058
"St. Pauls","St. Pauls",,-11.8922,33.6067,Malawi,MW,MWI,Mzimba,Mzimba,MW-MZ,district,,2527.4,,,2,Africa/Blantyre,FALSE,1454001759
Chidothe,Chidothe,,-15.4333,35.2833,Malawi,MW,MWI,Zomba,Zomba,MW-ZO,district,,329.3,,,3,Africa/Blantyre,FALSE,1454399697
Kazonga,Kazonga,,-13.9647,33.2097,Malawi,MW,MWI,Mchinji,Mchinji,MW-MC,district,,299.9,,,3,Africa/Blantyre,FALSE,1454002492
"Chifya Kandulu Chibere","Chifya Kandulu Chibere",,-11.7000,34.3167,Malawi,MW,MWI,"Nkhata Bay","Nkhata Bay",MW-NB,district,,300.1,,,3,Africa/Blantyre,FALSE,1454471075
Nkhokwe,Nkhokwe,Ngokwe,-14.7093,35.8017,Malawi,MW,MWI,Machinga,Machinga,MW-MH,district,,251.2,,,3,Africa/Blantyre,FALSE,1454475331
Luvwere,Luvwere,,-11.7509,33.6533,Malawi,MW,MWI,Mzimba,Mzimba,MW-MZ,district,,82.1,,,4,Africa/Blantyre,FALSE,1454001624
Mphembamoto,Mphembamoto,,-9.7921,33.8896,Malawi,MW,MWI,Karonga,Karonga,MW-KR,district,,734.3,,,3,Africa/Blantyre,FALSE,1454000750
Kamzunguzeni,Kamzunguzeni,,-12.1967,33.7267,Malawi,MW,MWI,Mzimba,Mzimba,MW-MZ,district,,67.8,,,4,Africa/Blantyre,FALSE,1454831555
Mchenga,Mchenga,,-10.7158,34.1548,Malawi,MW,MWI,Rumphi,Rumphi,MW-RU,district,,195.4,,,4,Africa/Blantyre,FALSE,1454000983
Sani,Sani,,-13.6000,34.4667,Malawi,MW,MWI,Salima,Salima,MW-SA,district,,40.9,,,4,Africa/Blantyre,FALSE,1454610883
Kamwendo,Kamwendo,,-13.5559,33.4410,Malawi,MW,MWI,Dowa,Dowa,MW-DO,district,,233.6,,,3,Africa/Blantyre,FALSE,1454918846
Dzuwa,Dzuwa,,-13.5086,33.4325,Malawi,MW,MWI,Lilongwe,Lilongwe,MW-LI,district,,189.3,,,4,Africa/Blantyre,FALSE,1454002687
Dzuwa,Dzuwa,,-13.4984,33.4177,Malawi,MW,MWI,Lilongwe,Lilongwe,MW-LI,district,,153.1,,,4,Africa/Blantyre,TRUE,1454000347
Chimpanzi,Chimpanzi,,-15.4833,34.6333,Malawi,MW,MWI,Neno,Neno,MW-NE,district,,121.6,,,4,Africa/Blantyre,FALSE,1454659208
Mundola,Mundola,,-11.6369,34.2900,Malawi,MW,MWI,"Nkhata Bay","Nkhata Bay",MW-NB,district,,218.1,,,3,Africa/Blantyre,FALSE,1454830210
Tungali,Tungali,,-12.0833,34.0500,Malawi,MW,MWI,"Nkhata Bay","Nkhata Bay",MW-NB,district,,177.6,,,4,Africa/Blantyre,FALSE,1454989009
Kadaluma,Kadaluma,,-10.7532,33.5525,Malawi,MW,MWI,Rumphi,Rumphi,MW-RU,district,,78.1,,,4,Africa/Blantyre,FALSE,1454001837
Chegama,Chegama,,-10.0326,33.8863,Malawi,MW,MWI,Karonga,Karonga,MW-KR,district,,9.7,,,5,Africa/Blantyre,FALSE,1454001930
Chimaimba,Chimaimba,,-13.2173,33.8436,Malawi,MW,MWI,Ntchisi,Ntchisi,MW-NI,district,,169.7,,,4,Africa/Blantyre,FALSE,1454002198
Mzimuli,Mzimuli,,-12.7207,33.5109,Malawi,MW,MWI,Kasungu,Kasungu,MW-KS,district,,281.2,,,3,Africa/Blantyre,FALSE,1454002136
Katangara,Katangara,,-13.6000,34.0167,Malawi,MW,MWI,Dowa,Dowa,MW-DO,district,,336.6,,,3,Africa/Blantyre,FALSE,1454574467
Nyongole,Nyongole,,-13.8667,34.5667,Malawi,MW,MWI,Salima,Salima,MW-SA,district,,380.0,,,3,Africa/Blantyre,FALSE,1454648856
"Kambitoto Chausiku","Kambitoto Chausiku",,-9.8873,33.9047,Malawi,MW,MWI,Karonga,Karonga,MW-KR,district,,777.4,,,3,Africa/Blantyre,FALSE,1454000781
Matapi,Matapi,,-15.3333,35.4167,Malawi,MW,MWI,Zomba,Zomba,MW-ZO,district,,312.2,,,3,Africa/Blantyre,FALSE,1454642738
"David Nkhambule","David Nkhambule",,-11.5486,33.6727,Malawi,MW,MWI,Mzimba,Mzimba,MW-MZ,district,,95.2,,,4,Africa/Blantyre,FALSE,1454001229
Isaac,Isaac,,-13.3106,33.6653,Malawi,MW,MWI,Dowa,Dowa,MW-DO,district,,299.7,,,3,Africa/Blantyre,FALSE,1454778840
Vichiro,Vichiro,,-12.7330,33.3320,Malawi,MW,MWI,Kasungu,Kasungu,MW-KS,district,,166.9,,,4,Africa/Blantyre,FALSE,1454000952
Magomero,Magomero,,-15.6000,35.2667,Malawi,MW,MWI,Zomba,Zomba,MW-ZO,district,,477.5,,,3,Africa/Blantyre,FALSE,1454158477
M’dzoole,M'dzoole,,-13.7291,33.6084,Malawi,MW,MWI,Lilongwe,Lilongwe,MW-LI,district,,287.2,,,3,Africa/Blantyre,FALSE,1454003085
Mkanzo,Mkanzo,,-13.4167,33.4167,Malawi,MW,MWI,Kasungu,Kasungu,MW-KS,district,,177.3,,,4,Africa/Blantyre,FALSE,1454347607
"Kamangadazi Nhlema","Kamangadazi Nhlema",,-11.2053,33.9037,Malawi,MW,MWI,Mzimba,Mzimba,MW-MZ,district,,249.1,,,3,Africa/Blantyre,FALSE,1454000658
Konka,Konka,,-14.0833,34.1667,Malawi,MW,MWI,Dedza,Dedza,MW-DE,district,,242.3,,,3,Africa/Blantyre,FALSE,1454138612
Mchinanguŵo,Mchinanguwo,,-10.9321,33.5703,Malawi,MW,MWI,Rumphi,Rumphi,MW-RU,district,,71.7,,,4,Africa/Blantyre,FALSE,1454001868
Shani,Shani,,-13.6139,33.9327,Malawi,MW,MWI,Dowa,Dowa,MW-DO,district,,145.7,,,4,Africa/Blantyre,FALSE,1454721743
Makanjila,Makanjila,,-13.5532,33.8991,Malawi,MW,MWI,Dowa,Dowa,MW-DO,district,,262.0,,,3,Africa/Blantyre,FALSE,1454288769
Chankhanga,Chankhanga,,-11.2310,33.7933,Malawi,MW,MWI,Mzimba,Mzimba,MW-MZ,district,,82.1,,,4,Africa/Blantyre,FALSE,1454000646
Gumbi,Gumbi,,-14.9604,34.8802,Malawi,MW,MWI,Ntcheu,Ntcheu,MW-NU,district,,403.4,,,3,Africa/Blantyre,FALSE,1454999554
Chikangawa,Chikangawa,,-11.8425,33.8022,Malawi,MW,MWI,Mzimba,Mzimba,MW-MZ,district,,327.5,,,3,Africa/Blantyre,FALSE,1454642557
Nganga,Nganga,,-13.4838,33.9062,Malawi,MW,MWI,Ntchisi,Ntchisi,MW-NI,district,,171.2,,,4,Africa/Blantyre,FALSE,1454001660
Mwakasungula,Mwakasungula,,-9.9410,33.8909,Malawi,MW,MWI,Karonga,Karonga,MW-KR,district,,590.7,,,3,Africa/Blantyre,FALSE,1454000933
Jasoni,Jasoni,,-13.7773,33.4603,Malawi,MW,MWI,Lilongwe,Lilongwe,MW-LI,district,,223.9,,,3,Africa/Blantyre,FALSE,1454002754
Thulamela,Thulamela,,-15.4667,35.4833,Malawi,MW,MWI,Zomba,Zomba,MW-ZO,district,,163.4,,,4,Africa/Blantyre,FALSE,1454726269
Dsoka,Dsoka,,-13.9167,33.8000,Malawi,MW,MWI,Lilongwe,Lilongwe,MW-LI,district,,283.2,,,3,Africa/Blantyre,FALSE,1454199129
Malangazi,Malangazi,,-11.7012,33.5866,Malawi,MW,MWI,Mzimba,Mzimba,MW-MZ,district,,101.3,,,4,Africa/Blantyre,FALSE,1454000462
Kanzati,Kanzati,,-14.9600,34.7443,Malawi,MW,MWI,Ntcheu,Ntcheu,MW-NU,district,,172.5,,,4,Africa/Blantyre,FALSE,1454488190
Kanyakatika,Kanyakatika,,-12.6113,33.3748,Malawi,MW,MWI,Kasungu,Kasungu,MW-KS,district,,134.4,,,4,Africa/Blantyre,FALSE,1454000870
Kumbuyo,Kumbuyo,,-13.3131,33.3447,Malawi,MW,MWI,Kasungu,Kasungu,MW-KS,district,,86.8,,,4,Africa/Blantyre,FALSE,1454000268
Kazionetsa,Kazionetsa,,-13.3326,33.8681,Malawi,MW,MWI,Ntchisi,Ntchisi,MW-NI,district,,447.3,,,3,Africa/Blantyre,FALSE,1454001800
"Ephandeni Ziwa","Ephandeni Ziwa",,-11.5044,33.6283,Malawi,MW,MWI,Mzimba,Mzimba,MW-MZ,district,,131.1,,,4,Africa/Blantyre,FALSE,1454615028
Chibeni,Chibeni,,-14.0333,33.8500,Malawi,MW,MWI,Lilongwe,Lilongwe,MW-LI,district,,568.5,,,3,Africa/Blantyre,FALSE,1454621940
Chasukusila,Chasukusila,,-12.9555,33.3744,Malawi,MW,MWI,Kasungu,Kasungu,MW-KS,district,,151.6,,,4,Africa/Blantyre,FALSE,1454000403
Jonasi,Jonasi,,-16.6167,35.1500,Malawi,MW,MWI,Nsanje,Nsanje,MW-NS,district,,593.8,,,3,Africa/Blantyre,FALSE,1454649223
Mughona,Mughona,,-9.6217,33.6167,Malawi,MW,MWI,Chitipa,Chitipa,MW-CT,district,,21.6,,,4,Africa/Blantyre,FALSE,1454001025
Chipinjika,Chipinjika,,-13.1524,33.8681,Malawi,MW,MWI,Ntchisi,Ntchisi,MW-NI,district,,292.8,,,3,Africa/Blantyre,FALSE,1454002223
Mkondowe,Mkondowe,,-11.0417,34.2127,Malawi,MW,MWI,"Nkhata Bay","Nkhata Bay",MW-NB,district,,53.3,,,4,Africa/Blantyre,FALSE,1454953458
Kasingu,Kasingu,,-11.7713,34.2340,Malawi,MW,MWI,"Nkhata Bay","Nkhata Bay",MW-NB,district,,763.4,,,3,Africa/Blantyre,FALSE,1454001170
Mndoka,Mndoka,,-12.9167,34.2667,Malawi,MW,MWI,Nkhotakota,Nkhotakota,MW-NK,district,,257.7,,,3,Africa/Blantyre,FALSE,1454328138
Zakaria,Zakaria,,-14.3667,34.2833,Malawi,MW,MWI,Dedza,Dedza,MW-DE,district,,223.2,,,3,Africa/Blantyre,FALSE,1454115731
Mbayo,Mbayo,,-13.5199,33.5934,Malawi,MW,MWI,Dowa,Dowa,MW-DO,district,,295.6,,,3,Africa/Blantyre,FALSE,1454330138
Chapita,Chapita,,-13.6923,33.2429,Malawi,MW,MWI,Mchinji,Mchinji,MW-MC,district,,199.4,,,4,Africa/Blantyre,FALSE,1454830360
"Wayihola Ndabandaba","Wayihola Ndabandaba",,-12.3613,33.7404,Malawi,MW,MWI,Mzimba,Mzimba,MW-MZ,district,,93.2,,,4,Africa/Blantyre,FALSE,1454001554
Cipeta,Cipeta,,-12.6833,33.6667,Malawi,MW,MWI,Mzimba,Mzimba,MW-MZ,district,,156.1,,,4,Africa/Blantyre,FALSE,1454249458
Khombe,Khombe,,-13.4438,33.6605,Malawi,MW,MWI,Dowa,Dowa,MW-DO,district,,391.0,,,3,Africa/Blantyre,FALSE,1454040160
"Zinolema Chikufwa Nkhonje","Zinolema Chikufwa Nkhonje",,-11.3387,33.8425,Malawi,MW,MWI,Mzimba,Mzimba,MW-MZ,district,,119.9,,,4,Africa/Blantyre,FALSE,1454000464
Nepiyala,Nepiyala,,-14.7794,35.8230,Malawi,MW,MWI,Machinga,Machinga,MW-MH,district,,235.3,,,3,Africa/Blantyre,FALSE,1454739558
Kaigunde,Kaigunde,,-12.3629,33.6075,Malawi,MW,MWI,Mzimba,Mzimba,MW-MZ,district,,263.0,,,3,Africa/Blantyre,FALSE,1454395258
Mkhuta,Mkhuta,,-13.8378,33.4151,Malawi,MW,MWI,Lilongwe,Lilongwe,MW-LI,district,,223.3,,,3,Africa/Blantyre,FALSE,1454002715
Kasoba,Kasoba,,-9.8744,33.8732,Malawi,MW,MWI,Karonga,Karonga,MW-KR,district,,315.4,,,3,Africa/Blantyre,FALSE,1454001156
Chapu,Chapu,,-17.0000,35.2833,Malawi,MW,MWI,Nsanje,Nsanje,MW-NS,district,,51.7,,,4,Africa/Blantyre,FALSE,1454468888
Chafuwa,Chafuwa,,-13.4384,33.0634,Malawi,MW,MWI,Mchinji,Mchinji,MW-MC,district,,156.9,,,4,Africa/Blantyre,FALSE,1454000233
Saulos,Saulos,,-11.4114,33.8321,Malawi,MW,MWI,Mzimba,Mzimba,MW-MZ,district,,116.0,,,4,Africa/Blantyre,FALSE,1454560630
"Adam Mwamkumbwa","Adam Mwamkumbwa",Adam,-9.5116,33.2184,Malawi,MW,MWI,Chitipa,Chitipa,MW-CT,district,,197.8,,,4,Africa/Blantyre,FALSE,1454062458
Mndelemani,Mndelemani,,-13.5432,33.4807,Malawi,MW,MWI,Dowa,Dowa,MW-DO,district,,233.0,,,3,Africa/Blantyre,FALSE,1454868201
Deni,Deni,,-12.4781,33.6069,Malawi,MW,MWI,Mzimba,Mzimba,MW-MZ,district,,133.0,,,4,Africa/Blantyre,FALSE,1454886415
Kaulamwene,Kaulamwene,,-12.6667,33.4667,Malawi,MW,MWI,Kasungu,Kasungu,MW-KS,district,,197.0,,,4,Africa/Blantyre,FALSE,1454280781
"Jeremiya Mabaso","Jeremiya Mabaso",,-11.8433,33.5942,Malawi,MW,MWI,Mzimba,Mzimba,MW-MZ,district,,53.3,,,4,Africa/Blantyre,FALSE,1454001714
"Paulosi Nthara","Paulosi Nthara",,-11.9804,33.3201,Malawi,MW,MWI,Mzimba,Mzimba,MW-MZ,district,,133.9,,,4,Africa/Blantyre,FALSE,1454001389
Mkototera,Mkototera,,-13.2000,33.6500,Malawi,MW,MWI,Kasungu,Kasungu,MW-KS,district,,169.6,,,4,Africa/Blantyre,FALSE,1454201850
Kakhomwa,Kakhomwa,,-13.8333,34.3500,Malawi,MW,MWI,Salima,Salima,MW-SA,district,,111.1,,,4,Africa/Blantyre,FALSE,1454917911
Bilale,Bilale,,-13.0505,33.3810,Malawi,MW,MWI,Kasungu,Kasungu,MW-KS,district,,125.9,,,4,Africa/Blantyre,FALSE,1454562526
Yangalani,Yangalani,,-12.9924,33.4992,Malawi,MW,MWI,Kasungu,Kasungu,MW-KS,district,,311.9,,,3,Africa/Blantyre,FALSE,1454000437
Chikomeni,Chikomeni,,-13.7693,33.1241,Malawi,MW,MWI,Mchinji,Mchinji,MW-MC,district,,222.5,,,3,Africa/Blantyre,FALSE,1454002535
Chitedze,Chitedze,,-13.2781,33.7796,Malawi,MW,MWI,Ntchisi,Ntchisi,MW-NI,district,,210.1,,,3,Africa/Blantyre,FALSE,1454001703
"Zikoti Saka","Zikoti Saka","Zikoti Zaka",-11.9728,33.3367,Malawi,MW,MWI,Mzimba,Mzimba,MW-MZ,district,,157.3,,,4,Africa/Blantyre,FALSE,1454148838
Lambulila,Lambulila,,-14.9946,35.4928,Malawi,MW,MWI,Machinga,Machinga,MW-MH,district,,2284.5,,,2,Africa/Blantyre,FALSE,1454756765
Chinkhuwiri,Chinkhuwiri,,-10.7619,34.1995,Malawi,MW,MWI,Rumphi,Rumphi,MW-RU,district,,343.3,,,3,Africa/Blantyre,FALSE,1454000643
"Kasamu Boy Pelete","Kasamu Boy Pelete",Pelete,-12.8989,33.9367,Malawi,MW,MWI,Kasungu,Kasungu,MW-KS,district,,336.2,,,3,Africa/Blantyre,FALSE,1454293993
Fungwe,Fungwe,,-12.9795,33.7746,Malawi,MW,MWI,Kasungu,Kasungu,MW-KS,district,,96.9,,,4,Africa/Blantyre,FALSE,1454627375
Fungwe,Fungwe,,-13.3433,33.3697,Malawi,MW,MWI,Kasungu,Kasungu,MW-KS,district,,84.2,,,4,Africa/Blantyre,TRUE,1454000368
Kalikumbi,Kalikumbi,,-12.2110,33.3325,Malawi,MW,MWI,Mzimba,Mzimba,MW-MZ,district,,152.9,,,4,Africa/Blantyre,FALSE,1454000831
Gondwe,Gondwe,,-11.3787,33.4757,Malawi,MW,MWI,Mzimba,Mzimba,MW-MZ,district,,116.6,,,4,Africa/Blantyre,FALSE,1454998716
Nankumba,Nankumba,"Namkumba Village",-14.3645,34.8227,Malawi,MW,MWI,Mangochi,Mangochi,MW-MG,district,,814.4,,,3,Africa/Blantyre,FALSE,1454786592
"Mloyi Nemba","Mloyi Nemba",,-11.4610,33.5862,Malawi,MW,MWI,Mzimba,Mzimba,MW-MZ,district,,129.8,,,4,Africa/Blantyre,FALSE,1454001105
Maupi,Maupi,,-14.3833,34.3333,Malawi,MW,MWI,Dedza,Dedza,MW-DE,district,,2219.4,,,2,Africa/Blantyre,FALSE,1454391509
Kamanga,Kamanga,,-13.6458,33.5716,Malawi,MW,MWI,Dowa,Dowa,MW-DO,district,,332.9,,,3,Africa/Blantyre,FALSE,1454999980
Kamanga,Kamanga,,-13.4700,33.6111,Malawi,MW,MWI,Dowa,Dowa,MW-DO,district,,257.8,,,3,Africa/Blantyre,TRUE,1454688515
Mapanjila,Mapanjila,,-12.1119,33.6261,Malawi,MW,MWI,Mzimba,Mzimba,MW-MZ,district,,62.9,,,4,Africa/Blantyre,FALSE,1454002307
Chiwangu-Wangu,Chiwangu-Wangu,,-12.6722,33.3590,Malawi,MW,MWI,Kasungu,Kasungu,MW-KS,district,,202.1,,,3,Africa/Blantyre,FALSE,1454001042
Leven,Leven,,-14.6883,34.9279,Malawi,MW,MWI,Mangochi,Mangochi,MW-MG,district,,50.4,,,4,Africa/Blantyre,FALSE,1454321164
Malande,Malande,,-13.7647,33.6947,Malawi,MW,MWI,Lilongwe,Lilongwe,MW-LI,district,,230.7,,,3,Africa/Blantyre,FALSE,1454866255
Chizimu,Chizimu,Chishimu,-9.5817,33.2874,Malawi,MW,MWI,Chitipa,Chitipa,MW-CT,district,,117.2,,,4,Africa/Blantyre,FALSE,1454675831
Mpama,Mpama,,-14.6077,35.4690,Malawi,MW,MWI,Mangochi,Mangochi,MW-MG,district,,47.8,,,4,Africa/Blantyre,FALSE,1454001981
Cidewge,Cidewge,,-14.3444,33.9886,Malawi,MW,MWI,Dedza,Dedza,MW-DE,district,,640.4,,,3,Africa/Blantyre,FALSE,1454145763
Nambela,Nambela,Nambera,-13.4940,32.9750,Malawi,MW,MWI,Mchinji,Mchinji,MW-MC,district,,229.1,,,3,Africa/Blantyre,FALSE,1454331521
Ching’anya,Ching'anya,,-10.4536,33.6795,Malawi,MW,MWI,Chitipa,Chitipa,MW-CT,district,,61.2,,,4,Africa/Blantyre,FALSE,1454002103
Lughesyo,Lughesyo,,-9.6879,33.5213,Malawi,MW,MWI,Chitipa,Chitipa,MW-CT,district,,433.2,,,3,Africa/Blantyre,FALSE,1454001305
"Longwe Kamanga","Longwe Kamanga",,-11.9519,33.4825,Malawi,MW,MWI,Mzimba,Mzimba,MW-MZ,district,,166.3,,,4,Africa/Blantyre,FALSE,1454001485
Chidote,Chidote,,-15.4667,35.2833,Malawi,MW,MWI,Zomba,Zomba,MW-ZO,district,,887.3,,,3,Africa/Blantyre,FALSE,1454904744
Zowde,Zowde,,-14.0667,33.4333,Malawi,MW,MWI,Lilongwe,Lilongwe,MW-LI,district,,357.9,,,3,Africa/Blantyre,FALSE,1454012634
Chivwamila,Chivwamila,,-12.9537,33.8434,Malawi,MW,MWI,Kasungu,Kasungu,MW-KS,district,,294.0,,,3,Africa/Blantyre,FALSE,1454489664
Singano,Singano,,-16.2667,35.0500,Malawi,MW,MWI,Chikwawa,Chikwawa,MW-CK,district,,401.3,,,3,Africa/Blantyre,FALSE,1454324197
Kaphatika,Kaphatika,Kapatika,-13.1333,33.8199,Malawi,MW,MWI,Ntchisi,Ntchisi,MW-NI,district,,136.0,,,4,Africa/Blantyre,FALSE,1454725447
Mwenengolongo,Mwenengolongo,,-9.6522,33.8123,Malawi,MW,MWI,Karonga,Karonga,MW-KR,district,,842.5,,,3,Africa/Blantyre,FALSE,1454001215
Lupaso,Lupaso,,-9.9322,33.8677,Malawi,MW,MWI,Karonga,Karonga,MW-KR,district,,942.3,,,3,Africa/Blantyre,FALSE,1454001152
"Mwana Na Njovu","Mwana Na Njovu",,-16.5000,35.0500,Malawi,MW,MWI,Nsanje,Nsanje,MW-NS,district,,106.7,,,4,Africa/Blantyre,FALSE,1454435169
"Mungori Makamo","Mungori Makamo",,-11.8181,33.3825,Malawi,MW,MWI,Mzimba,Mzimba,MW-MZ,district,,243.4,,,3,Africa/Blantyre,FALSE,1454001491
"Chitete Saka","Chitete Saka",,-12.5975,33.7928,Malawi,MW,MWI,Mzimba,Mzimba,MW-MZ,district,,48.4,,,4,Africa/Blantyre,FALSE,1454002358
Katowo,Katowo,,-10.8152,33.5216,Malawi,MW,MWI,Rumphi,Rumphi,MW-RU,district,,290.8,,,3,Africa/Blantyre,FALSE,1454466922
Mkolama,Mkolama,,-15.4500,35.2667,Malawi,MW,MWI,Zomba,Zomba,MW-ZO,district,,386.8,,,3,Africa/Blantyre,FALSE,1454516685
Chitedzi,Chitedzi,,-13.5167,33.1833,Malawi,MW,MWI,Mchinji,Mchinji,MW-MC,district,,179.7,,,4,Africa/Blantyre,FALSE,1454005857
Mtuwa,Mtuwa,Ntuwa,-14.5392,35.3718,Malawi,MW,MWI,Mangochi,Mangochi,MW-MG,district,,361.0,,,3,Africa/Blantyre,FALSE,1454905182
"Kapatamoyo Mhango","Kapatamoyo Mhango",,-11.4410,33.6353,Malawi,MW,MWI,Mzimba,Mzimba,MW-MZ,district,,112.1,,,4,Africa/Blantyre,FALSE,1454001111
Limbe,Limbe,,-15.8167,35.0500,Malawi,MW,MWI,Blantyre,Blantyre,MW-BL,district,,646.9,,,3,Africa/Blantyre,FALSE,1454089080
"Mbongo Mwanza","Mbongo Mwanza",,-11.9172,33.5023,Malawi,MW,MWI,Mzimba,Mzimba,MW-MZ,district,,233.5,,,3,Africa/Blantyre,FALSE,1454001765
Mulima,Mulima,,-13.7801,33.0018,Malawi,MW,MWI,Mchinji,Mchinji,MW-MC,district,,253.4,,,3,Africa/Blantyre,FALSE,1454114807
Kachinda,Kachinda,Kacinda,-12.5054,33.4261,Malawi,MW,MWI,Kasungu,Kasungu,MW-KS,district,,169.0,,,4,Africa/Blantyre,FALSE,1454531171
Kungungwe,Kungungwe,,-14.1167,34.2833,Malawi,MW,MWI,Dedza,Dedza,MW-DE,district,,320.9,,,3,Africa/Blantyre,FALSE,1454093194
Thundeni,Thundeni,Thudezi,-11.6920,33.9281,Malawi,MW,MWI,"Nkhata Bay","Nkhata Bay",MW-NB,district,,94.7,,,4,Africa/Blantyre,FALSE,1454044806
Wuledi,Wuledi,,-13.7303,33.2870,Malawi,MW,MWI,Lilongwe,Lilongwe,MW-LI,district,,142.8,,,4,Africa/Blantyre,FALSE,1454394143
Lukali,Lukali,,-11.0008,33.9215,Malawi,MW,MWI,Rumphi,Rumphi,MW-RU,district,,116.9,,,4,Africa/Blantyre,FALSE,1454000702
Chikanda,Chikanda,,-13.9167,34.4667,Malawi,MW,MWI,Salima,Salima,MW-SA,district,,1065.6,,,3,Africa/Blantyre,FALSE,1454275741
Mbwindi,Mbwindi,,-13.3125,33.4756,Malawi,MW,MWI,Kasungu,Kasungu,MW-KS,district,,275.3,,,3,Africa/Blantyre,FALSE,1454834492
Chileka,Chileka,,-14.0071,33.3909,Malawi,MW,MWI,Lilongwe,Lilongwe,MW-LI,district,,563.2,,,3,Africa/Blantyre,FALSE,1454931920
"Zakeyo Sibande","Zakeyo Sibande",,-12.5921,33.6177,Malawi,MW,MWI,Mzimba,Mzimba,MW-MZ,district,,204.0,,,3,Africa/Blantyre,FALSE,1454002264
Chikande,Chikande,,-13.4084,33.1560,Malawi,MW,MWI,Kasungu,Kasungu,MW-KS,district,,164.6,,,4,Africa/Blantyre,FALSE,1454000221
Mikaeli,Mikaeli,,-13.8006,33.0113,Malawi,MW,MWI,Mchinji,Mchinji,MW-MC,district,,238.0,,,3,Africa/Blantyre,FALSE,1454002443
Salatiele,Salatiele,,-13.8193,33.4067,Malawi,MW,MWI,Lilongwe,Lilongwe,MW-LI,district,,404.4,,,3,Africa/Blantyre,FALSE,1454002731
Nyimbiri,Nyimbiri,,-10.0195,33.5151,Malawi,MW,MWI,Chitipa,Chitipa,MW-CT,district,,20.6,,,4,Africa/Blantyre,FALSE,1454001879
"Ngomiyabo Moyo","Ngomiyabo Moyo",,-11.7207,33.5397,Malawi,MW,MWI,Mzimba,Mzimba,MW-MZ,district,,114.0,,,4,Africa/Blantyre,FALSE,1454000516
Makina,Makina,,-13.7860,33.3926,Malawi,MW,MWI,Lilongwe,Lilongwe,MW-LI,district,,365.5,,,3,Africa/Blantyre,FALSE,1454002742
Kabanga,Kabanga,,-13.8654,33.3687,Malawi,MW,MWI,Lilongwe,Lilongwe,MW-LI,district,,242.1,,,3,Africa/Blantyre,FALSE,1454002703
Nyachikadza,Nyachikadza,Nachikadza,-17.1167,35.3000,Malawi,MW,MWI,Nsanje,Nsanje,MW-NS,district,,21.8,,,4,Africa/Blantyre,FALSE,1454225009
Narata,Narata,,-9.6000,33.3667,Malawi,MW,MWI,Chitipa,Chitipa,MW-CT,district,,160.9,,,4,Africa/Blantyre,FALSE,1454470518
Kawere,Kawere,,-13.5837,32.9550,Malawi,MW,MWI,Mchinji,Mchinji,MW-MC,district,,363.3,,,3,Africa/Blantyre,FALSE,1454792609
Waliranji,Waliranji,,-13.9765,33.2705,Malawi,MW,MWI,Mchinji,Mchinji,MW-MC,district,,429.1,,,3,Africa/Blantyre,FALSE,1454002594
Mphonde,Mphonde,,-16.5500,34.9000,Malawi,MW,MWI,Chikwawa,Chikwawa,MW-CK,district,,479.4,,,3,Africa/Blantyre,FALSE,1454408951
"Malivenje Chavura","Malivenje Chavura",,-11.2244,33.8641,Malawi,MW,MWI,Mzimba,Mzimba,MW-MZ,district,,135.3,,,4,Africa/Blantyre,FALSE,1454000688
Chiponde,Chiponde,,-14.3655,35.5964,Malawi,MW,MWI,Mangochi,Mangochi,MW-MG,district,,512.3,,,3,Africa/Blantyre,FALSE,1454480514
Nkawa,Nkawa,,-13.4550,33.5906,Malawi,MW,MWI,Dowa,Dowa,MW-DO,district,,281.3,,,3,Africa/Blantyre,FALSE,1454012027
Katowoka,Katowoka,,-10.7264,34.1963,Malawi,MW,MWI,Rumphi,Rumphi,MW-RU,district,,161.7,,,4,Africa/Blantyre,FALSE,1454000900
Ruhono,Ruhono,,-10.9783,33.6186,Malawi,MW,MWI,Rumphi,Rumphi,MW-RU,district,,79.7,,,4,Africa/Blantyre,FALSE,1454001825
Zamula,Zamula,,-13.8700,33.7693,Malawi,MW,MWI,Lilongwe,Lilongwe,MW-LI,district,,2201.8,,,2,Africa/Blantyre,FALSE,1454002882
Hola,Hola,,-14.8000,34.8333,Malawi,MW,MWI,Ntcheu,Ntcheu,MW-NU,district,,384.0,,,3,Africa/Blantyre,FALSE,1454187062
Malinyete,Malinyete,,-11.7103,33.5240,Malawi,MW,MWI,Mzimba,Mzimba,MW-MZ,district,,152.1,,,4,Africa/Blantyre,FALSE,1454000517
"Kapopo Mhlanga","Kapopo Mhlanga",,-12.3272,33.4420,Malawi,MW,MWI,Mzimba,Mzimba,MW-MZ,district,,247.1,,,3,Africa/Blantyre,FALSE,1454001081
Chipaka,Chipaka,,-13.5060,33.7343,Malawi,MW,MWI,Dowa,Dowa,MW-DO,district,,323.7,,,3,Africa/Blantyre,FALSE,1454003048
Mkandawire,Mkandawire,,-12.6815,33.5188,Malawi,MW,MWI,Kasungu,Kasungu,MW-KS,district,,198.0,,,4,Africa/Blantyre,FALSE,1454728777
Chiboko,Chiboko,Ciboko,-12.8181,34.2548,Malawi,MW,MWI,Nkhotakota,Nkhotakota,MW-NK,district,,528.8,,,3,Africa/Blantyre,FALSE,1454917093
Nkanga,Nkanga,,-13.4471,33.6383,Malawi,MW,MWI,Dowa,Dowa,MW-DO,district,,414.2,,,3,Africa/Blantyre,FALSE,1454601431
Chimpamba,Chimpamba,,-13.0667,33.5833,Malawi,MW,MWI,Kasungu,Kasungu,MW-KS,district,,71.1,,,4,Africa/Blantyre,FALSE,1454919520
Chikadza,Chikadza,,-13.9380,33.9965,Malawi,MW,MWI,Lilongwe,Lilongwe,MW-LI,district,,155.8,,,4,Africa/Blantyre,FALSE,1454002856
Nchaka,Nchaka,,-13.8954,33.2902,Malawi,MW,MWI,Mchinji,Mchinji,MW-MC,district,,274.5,,,3,Africa/Blantyre,FALSE,1454002560
Chilima,Chilima,,-13.8008,34.1180,Malawi,MW,MWI,Dowa,Dowa,MW-DO,district,,203.2,,,3,Africa/Blantyre,FALSE,1454814518
Majiri,Majiri,,-14.7667,34.8333,Malawi,MW,MWI,Ntcheu,Ntcheu,MW-NU,district,,395.8,,,3,Africa/Blantyre,FALSE,1454355609
Mdima,Mdima,,-14.0633,33.4852,Malawi,MW,MWI,Lilongwe,Lilongwe,MW-LI,district,,343.1,,,3,Africa/Blantyre,FALSE,1454083791
Chaolamokanda,Chaolamokanda,,-13.4333,33.8667,Malawi,MW,MWI,Ntchisi,Ntchisi,MW-NI,district,,267.6,,,3,Africa/Blantyre,FALSE,1454258919
Chitumba,Chitumba,,-13.9531,33.3098,Malawi,MW,MWI,Mchinji,Mchinji,MW-MC,district,,595.7,,,3,Africa/Blantyre,FALSE,1454002588
Chitumba,Chitumba,,-13.7726,33.0198,Malawi,MW,MWI,Mchinji,Mchinji,MW-MC,district,,304.8,,,3,Africa/Blantyre,TRUE,1454452121
Macece,Macece,,-14.8000,35.7667,Malawi,MW,MWI,Machinga,Machinga,MW-MH,district,,295.0,,,3,Africa/Blantyre,FALSE,1454911494
"Seda Chirwa","Seda Chirwa",,-12.6549,33.3743,Malawi,MW,MWI,Kasungu,Kasungu,MW-KS,district,,188.9,,,4,Africa/Blantyre,FALSE,1454001058
Nyanya,Nyanya,,-15.4000,35.3667,Malawi,MW,MWI,Zomba,Zomba,MW-ZO,district,,526.2,,,3,Africa/Blantyre,FALSE,1454318074
Mkwichi,Mkwichi,,-13.6740,33.5117,Malawi,MW,MWI,Dowa,Dowa,MW-DO,district,,389.8,,,3,Africa/Blantyre,FALSE,1454003079
Kanyinji,Kanyinji,,-12.6333,33.5333,Malawi,MW,MWI,Kasungu,Kasungu,MW-KS,district,,176.8,,,4,Africa/Blantyre,FALSE,1454305424
Kanyinji,Kanyinji,,-12.5914,33.4175,Malawi,MW,MWI,Kasungu,Kasungu,MW-KS,district,,147.4,,,4,Africa/Blantyre,TRUE,1454975825
Msosa,Msosa,,-15.4667,35.2667,Malawi,MW,MWI,Zomba,Zomba,MW-ZO,district,,576.9,,,3,Africa/Blantyre,FALSE,1454792865
Kasengwa,Kasengwa,,-13.3313,33.9517,Malawi,MW,MWI,Ntchisi,Ntchisi,MW-NI,district,,212.9,,,3,Africa/Blantyre,FALSE,1454145773
Chiganda,Chiganda,,-13.5489,33.9289,Malawi,MW,MWI,Dowa,Dowa,MW-DO,district,,263.6,,,3,Africa/Blantyre,FALSE,1454066156
Chizozoma,Chizozoma,,-13.5719,33.4177,Malawi,MW,MWI,Lilongwe,Lilongwe,MW-LI,district,,182.9,,,4,Africa/Blantyre,FALSE,1454002691
Nkudzula,Nkudzula,,-13.1333,34.2667,Malawi,MW,MWI,Nkhotakota,Nkhotakota,MW-NK,district,,217.6,,,3,Africa/Blantyre,FALSE,1454551032
Maluma,Maluma,,-12.6293,34.1736,Malawi,MW,MWI,Nkhotakota,Nkhotakota,MW-NK,district,,1548.3,,,3,Africa/Blantyre,FALSE,1454333780
Mwandenga,Mwandenga,,-9.6010,33.7801,Malawi,MW,MWI,Karonga,Karonga,MW-KR,district,,45.9,,,4,Africa/Blantyre,FALSE,1454001272
Kasakarawe,Kasakarawe,,-10.3712,34.2437,Malawi,MW,MWI,Karonga,Karonga,MW-KR,district,,102.8,,,4,Africa/Blantyre,FALSE,1454001729
Kamvenje,Kamvenje,,-13.0848,33.8995,Malawi,MW,MWI,Ntchisi,Ntchisi,MW-NI,district,,85.3,,,4,Africa/Blantyre,FALSE,1454002226
Makoko,Makoko,,-17.0022,35.1912,Malawi,MW,MWI,Nsanje,Nsanje,MW-NS,district,,183.8,,,4,Africa/Blantyre,FALSE,1454163617
Kadzimete,Kadzimete,,-13.1667,33.6833,Malawi,MW,MWI,Kasungu,Kasungu,MW-KS,district,,165.1,,,4,Africa/Blantyre,FALSE,1454341579
