city,city_ascii,city_alt,lat,lng,country,iso2,iso3,admin_name,admin_name_ascii,admin_code,admin_type,capital,density,population,population_proper,ranking,timezone,same_name,id
Bamako,Bamako,Bammako|Bammaco|Bamaku,12.6392,-8.0028,Mali,ML,MLI,Bamako,Bamako,ML-BKO,district,primary,16776.0,4227569,4227569,1,Africa/Bamako,FALSE,1466965925
Balandougou,Balandougou,,13.3558,-9.5517,Mali,ML,MLI,Kayes,Kayes,ML-1,region,,1.3,1596882,1596882,1,Africa/Bamako,FALSE,1466367944
Zégoua,Zegoua,Zékoua|Zegua,10.4875,-5.6536,Mali,ML,MLI,,,,,,235.5,230360,230360,2,Africa/Bamako,FALSE,1466856084
Sikasso,Sikasso,,11.3167,-5.6667,Mali,ML,MLI,Sikasso,Sikasso,ML-3,region,admin,534.9,213977,213977,2,Africa/Bamako,FALSE,1466666150
Koutiala,Koutiala,Kutiala,12.3833,-5.4667,Mali,ML,MLI,Sikasso,Sikasso,ML-3,region,minor,964.7,137919,137919,2,Africa/Bamako,FALSE,1466253368
Ségou,Segou,,13.4500,-6.2667,Mali,ML,MLI,Ségou,Segou,ML-4,region,admin,473.8,133501,133501,2,Africa/Bamako,FALSE,1466684950
Kayes,Kayes,,14.4500,-11.4333,Mali,ML,MLI,Kayes,Kayes,ML-1,region,admin,6665.5,127368,127368,2,Africa/Bamako,FALSE,1466546429
Mopti,Mopti,,14.4900,-4.1800,Mali,ML,MLI,Mopti,Mopti,ML-5,region,admin,4656.2,108456,108456,2,Africa/Bamako,FALSE,1466352252
Niono,Niono,,14.2500,-5.9861,Mali,ML,MLI,Ségou,Segou,ML-4,region,minor,186.5,91554,91554,3,Africa/Bamako,FALSE,1466927773
Somasso,Somasso,Samasso,12.8667,-5.6000,Mali,ML,MLI,Ségou,Segou,ML-4,region,,94.8,69561,69561,3,Africa/Bamako,FALSE,1466104103
Kati,Kati,"Kati Ville",12.7504,-8.0800,Mali,ML,MLI,Koulikoro,Koulikoro,ML-2,region,minor,2301.3,66895,66895,2,Africa/Bamako,FALSE,1466006801
Koro,Koro,,14.0683,-3.0814,Mali,ML,MLI,Mopti,Mopti,ML-5,region,minor,57.2,62681,62681,3,Africa/Bamako,FALSE,1466120738
Nioro,Nioro,"Nioro du Sahel|Noiro",15.1833,-9.5500,Mali,ML,MLI,Kayes,Kayes,ML-1,region,minor,520.9,60112,60112,3,Africa/Bamako,FALSE,1466532076
Bougouni,Bougouni,Buguni|Bougoum,11.4167,-7.4833,Mali,ML,MLI,Sikasso,Sikasso,ML-3,region,minor,207.9,59679,59679,3,Africa/Bamako,FALSE,1466902797
Baguinéda,Baguineda,Saguiméda,12.6153,-7.7767,Mali,ML,MLI,Koulikoro,Koulikoro,ML-2,region,,59.4,58661,58661,3,Africa/Bamako,FALSE,1466285488
Kolondiéba,Kolondieba,,11.0833,-6.9000,Mali,ML,MLI,Sikasso,Sikasso,ML-3,region,minor,39.7,57898,57898,3,Africa/Bamako,FALSE,1466671740
Pèlèngana,Pelengana,Flangana|Pélenguéna|Palenguéna|Pélennguéna,13.4278,-6.2153,Mali,ML,MLI,Ségou,Segou,ML-4,region,,156.7,56259,56259,3,Africa/Bamako,FALSE,1466498684
Kouri,Kouri,Koury|Kuri,12.1833,-4.8056,Mali,ML,MLI,Sikasso,Sikasso,ML-3,region,,76.5,54435,54435,3,Africa/Bamako,FALSE,1466886162
Kadiolo,Kadiolo,,10.5556,-5.7597,Mali,ML,MLI,Sikasso,Sikasso,ML-3,region,minor,67.6,52932,52932,3,Africa/Bamako,FALSE,1466526601
Koumantou,Koumantou,,11.4167,-6.8333,Mali,ML,MLI,Sikasso,Sikasso,ML-3,region,,58.7,51348,51348,3,Africa/Bamako,FALSE,1466346695
Wolossébougou,Wolossebougou,Wolossédougou|Ouolossébougou|Ouéléssébougou,12.0000,-7.9111,Mali,ML,MLI,Koulikoro,Koulikoro,ML-2,region,,44.8,50056,50056,3,Africa/Bamako,FALSE,1466707380
Gao,Gao,,16.2667,-0.0500,Mali,ML,MLI,Gao,Gao,ML-7,region,admin,4611.8,49483,49483,2,Africa/Bamako,FALSE,1466571211
Dyero,Dyero,Dioro|Diéro,13.6858,-5.8342,Mali,ML,MLI,Ségou,Segou,ML-4,region,,81.7,47876,47876,3,Africa/Bamako,FALSE,1466686936
Kita,Kita,,13.0504,-9.4833,Mali,ML,MLI,Kayes,Kayes,ML-1,region,minor,2154.2,46435,46435,2,Africa/Bamako,FALSE,1466078415
Markala,Markala,,13.6739,-6.0750,Mali,ML,MLI,Ségou,Segou,ML-4,region,,144.5,45961,45961,3,Africa/Bamako,FALSE,1466526342
Dialakorodji,Dialakorodji,Dialakoroji,12.7083,-7.9689,Mali,ML,MLI,Koulikoro,Koulikoro,ML-2,region,,14669.2,45740,45740,2,Africa/Bamako,FALSE,1466632179
Sangarébougou,Sangarebougou,,12.6842,-7.9278,Mali,ML,MLI,Koulikoro,Koulikoro,ML-2,region,,11.5,45518,45518,3,Africa/Bamako,FALSE,1466951632
Misséni,Misseni,Zanlasso,10.3167,-6.0769,Mali,ML,MLI,,,,,,49.4,45240,45240,3,Africa/Bamako,FALSE,1466953386
Massigui,Massigui,,11.8667,-6.7667,Mali,ML,MLI,Koulikoro,Koulikoro,ML-2,region,,59.1,45120,45120,3,Africa/Bamako,FALSE,1466598599
Mondoro,Mondoro,Moundoro,14.6761,-1.9511,Mali,ML,MLI,Mopti,Mopti,ML-5,region,,7.6,42631,42631,3,Africa/Bamako,FALSE,1466279305
Sokoura,Sokoura,Sokouna,14.5472,-4.0894,Mali,ML,MLI,Mopti,Mopti,ML-5,region,,82.8,42553,42553,3,Africa/Bamako,FALSE,1466959154
Dandéresso,Danderesso,,11.4867,-5.4819,Mali,ML,MLI,Sikasso,Sikasso,ML-3,region,,25.4,41723,41723,3,Africa/Bamako,FALSE,1466000035
San,San,,13.3004,-4.9000,Mali,ML,MLI,Ségou,Segou,ML-4,region,minor,563.1,41386,41386,3,Africa/Bamako,FALSE,1466198810
Fourou,Fourou,,10.7472,-6.1403,Mali,ML,MLI,,,,,,30.6,40826,40826,3,Africa/Bamako,FALSE,1466622425
"Djidian Kéniéba","Djidian Kenieba","Kéniéba|Dyidyan Kényéba",13.1000,-11.4000,Mali,ML,MLI,Kayes,Kayes,ML-1,region,,77.6,39557,39557,3,Africa/Bamako,FALSE,1466235877
Sadiola,Sadiola,,13.8889,-11.7028,Mali,ML,MLI,Kayes,Kayes,ML-1,region,,7.8,39305,39305,3,Africa/Bamako,FALSE,1466289020
Sébékoro,Sebekoro,,12.9625,-8.9875,Mali,ML,MLI,Kayes,Kayes,ML-1,region,,2.5,39030,39030,3,Africa/Bamako,FALSE,1466884939
Garalo,Garalo,,10.9900,-7.4370,Mali,ML,MLI,Sikasso,Sikasso,ML-3,region,,57.8,38900,38900,3,Africa/Bamako,FALSE,1466137114
Kolongo-Bozo,Kolongo-Bozo,Noyou|Kolongo,13.8806,-5.6861,Mali,ML,MLI,Ségou,Segou,ML-4,region,,77.8,37648,37648,3,Africa/Bamako,FALSE,1466533239
Sanankoroba,Sanankoroba,Sanankoro,12.3986,-7.9378,Mali,ML,MLI,Koulikoro,Koulikoro,ML-2,region,,60.4,37294,37294,3,Africa/Bamako,FALSE,1466544383
Siribala,Siribala,,14.0419,-6.0617,Mali,ML,MLI,Ségou,Segou,ML-4,region,,83.3,37065,37065,3,Africa/Bamako,FALSE,1466261448
Kona,Kona,Konna,14.9467,-3.8933,Mali,ML,MLI,Mopti,Mopti,ML-5,region,,43.9,36767,36767,3,Africa/Bamako,FALSE,1466755043
Zinzana,Zinzana,Cinzana,13.2528,-5.9653,Mali,ML,MLI,Ségou,Segou,ML-4,region,,34.7,36440,36440,3,Africa/Bamako,FALSE,1466980740
Mpessoba,Mpessoba,Mpésoba,12.6639,-5.7167,Mali,ML,MLI,Sikasso,Sikasso,ML-3,region,,74.1,36297,36297,3,Africa/Bamako,FALSE,1466235935
Dinangorou,Dinangorou,Dinangourou|Dinagorou|Dinanguru,14.4519,-2.2419,Mali,ML,MLI,Mopti,Mopti,ML-5,region,,25.2,35886,35886,3,Africa/Bamako,FALSE,1466619930
Niamina,Niamina,Nyamina|Niaming,13.3167,-6.9819,Mali,ML,MLI,Koulikoro,Koulikoro,ML-2,region,,27.7,35548,35548,3,Africa/Bamako,FALSE,1466440831
Timbuktu,Timbuktu,Tombutu|Timbuctú|Timbuctoo|Tombouctou|Timboctú,16.7758,-3.0094,Mali,ML,MLI,Tombouctou,Tombouctou,ML-6,region,admin,238.9,35330,35330,2,Africa/Bamako,FALSE,1466595315
Diabali,Diabali,Diabal|Dyabali,14.6833,-6.0167,Mali,ML,MLI,Ségou,Segou,ML-4,region,,22.9,35266,35266,3,Africa/Bamako,FALSE,1466129863
Diakon,Diakon,,14.6264,-10.7319,Mali,ML,MLI,Kayes,Kayes,ML-1,region,,22.9,34100,34100,3,Africa/Bamako,FALSE,1466221390
Kignan,Kignan,Kinian|Kinyan,11.8511,-6.0153,Mali,ML,MLI,Sikasso,Sikasso,ML-3,region,,52.6,33962,33962,3,Africa/Bamako,FALSE,1466387933
Katiéna,Katiena,Katiana,13.3217,-5.6414,Mali,ML,MLI,Ségou,Segou,ML-4,region,,33.2,33180,33180,3,Africa/Bamako,FALSE,1466014503
Djenné,Djenne,Djénne,13.9056,-4.5550,Mali,ML,MLI,Mopti,Mopti,ML-5,region,minor,109.1,32944,32944,3,Africa/Bamako,FALSE,1466017388
Moninnpébougou,Moninnpebougou,Manimpé|Monimpebugu|Monimpébougou|Monimpé|Monempé,14.1475,-5.5217,Mali,ML,MLI,Ségou,Segou,ML-4,region,,14.6,32899,32899,3,Africa/Bamako,FALSE,1466881622
Barouéli,Baroueli,Barwéli,13.0667,-6.8333,Mali,ML,MLI,Ségou,Segou,ML-4,region,minor,69.7,32739,32739,3,Africa/Bamako,FALSE,1466725032
Ansongo,Ansongo,,15.6594,0.5017,Mali,ML,MLI,Gao,Gao,ML-7,region,minor,73.5,32709,32709,3,Africa/Bamako,FALSE,1466948813
Lobougoula,Lobougoula,Lougouboula,11.0431,-5.9819,Mali,ML,MLI,Sikasso,Sikasso,ML-3,region,,22.9,32505,32505,3,Africa/Bamako,FALSE,1466081174
Dioungani,Dioungani,Diougani|Diongani|Diungani,14.3131,-2.7394,Mali,ML,MLI,Mopti,Mopti,ML-5,region,,18.0,32418,32418,3,Africa/Bamako,FALSE,1466583871
Massantola,Massantola,,13.4833,-7.8000,Mali,ML,MLI,Koulikoro,Koulikoro,ML-2,region,,38.2,32358,32358,3,Africa/Bamako,FALSE,1466269912
Niéna,Niena,,11.4258,-6.3500,Mali,ML,MLI,Sikasso,Sikasso,ML-3,region,,31.0,32265,32265,3,Africa/Bamako,FALSE,1466898809
Boro,Boro,Boron,14.0075,-7.5072,Mali,ML,MLI,Koulikoro,Koulikoro,ML-2,region,,25.3,32250,32250,3,Africa/Bamako,FALSE,1466283433
Dialoubé,Dialoube,"Ouro Dialoubé|Ouro-Dialloubé|Dialloubé",15.0172,-4.2325,Mali,ML,MLI,Mopti,Mopti,ML-5,region,,22.1,31483,31483,3,Africa/Bamako,FALSE,1466226957
Kléla,Klela,Kéléla|Kiéla,11.6875,-5.6639,Mali,ML,MLI,Sikasso,Sikasso,ML-3,region,,39.9,31334,31334,3,Africa/Bamako,FALSE,1466561275
Konséguéla,Konseguela,,12.4033,-5.8847,Mali,ML,MLI,Sikasso,Sikasso,ML-3,region,,47.3,31007,31007,3,Africa/Bamako,FALSE,1466934058
Diéma,Diema,Diéna,14.5390,-9.1900,Mali,ML,MLI,Kayes,Kayes,ML-1,region,minor,25.9,30592,30592,3,Africa/Bamako,FALSE,1466128146
Banamba,Banamba,,13.5500,-7.4500,Mali,ML,MLI,Koulikoro,Koulikoro,ML-2,region,minor,77.2,30591,30591,3,Africa/Bamako,FALSE,1466760822
Ouatagouna,Ouatagouna,,15.1842,0.7217,Mali,ML,MLI,Gao,Gao,ML-7,region,,7.5,30519,30519,3,Africa/Bamako,FALSE,1466027154
"Ségala Mba","Segala Mba",,14.0625,-10.9722,Mali,ML,MLI,Kayes,Kayes,ML-1,region,,31.5,30305,30305,3,Africa/Bamako,FALSE,1466819019
Falou,Falou,Fallou,14.5978,-7.9319,Mali,ML,MLI,Koulikoro,Koulikoro,ML-2,region,,14.2,30239,30239,3,Africa/Bamako,FALSE,1466660476
Bankass,Bankass,Bankassé|Bankas|Bankassi,14.0667,-3.5167,Mali,ML,MLI,Mopti,Mopti,ML-5,region,minor,83.3,30159,30159,3,Africa/Bamako,FALSE,1466353555
"Bourèm Guindou","Bourem Guindou",Bourem,16.9004,-0.3500,Mali,ML,MLI,Gao,Gao,ML-7,region,,5.5,30000,30000,3,Africa/Bamako,FALSE,1466124401
Didiéni,Didieni,,13.8833,-8.1000,Mali,ML,MLI,Koulikoro,Koulikoro,ML-2,region,,21.6,29349,29349,3,Africa/Bamako,FALSE,1466933959
Dougabougou,Dougabougou,Douabougou,13.8186,-6.1189,Mali,ML,MLI,Ségou,Segou,ML-4,region,,162.3,29208,29208,3,Africa/Bamako,FALSE,1466208038
Moribabougou,Moribabougou,,12.6917,-7.8644,Mali,ML,MLI,Koulikoro,Koulikoro,ML-2,region,,33.4,28574,28574,3,Africa/Bamako,TRUE,1466904240
Bamba,Bamba,,17.0333,-1.4000,Mali,ML,MLI,Gao,Gao,ML-7,region,,6.0,28524,28524,3,Africa/Bamako,FALSE,1466722054
"Diangouté Kamara","Diangoute Kamara","Diangounté Kamara|Diangounté Camara|Diangounté",14.5450,-9.5130,Mali,ML,MLI,Kayes,Kayes,ML-1,region,,31.0,28213,28213,3,Africa/Bamako,FALSE,1466119280
Douentza,Douentza,Douenza,15.0000,-2.9500,Mali,ML,MLI,Mopti,Mopti,ML-5,region,minor,181.9,28005,28005,3,Africa/Bamako,FALSE,1466267384
Sirakorola,Sirakorola,Siracorola,13.2833,-7.5667,Mali,ML,MLI,Koulikoro,Koulikoro,ML-2,region,,49.8,27859,27859,3,Africa/Bamako,FALSE,1466917746
Sitakili,Sitakili,Sitakali,13.1075,-11.2286,Mali,ML,MLI,Kayes,Kayes,ML-1,region,,77.6,27501,27501,3,Africa/Bamako,FALSE,1466166460
Bourem,Bourem,Burem,16.9533,-0.3539,Mali,ML,MLI,Gao,Gao,ML-7,region,minor,4.4,27486,27486,3,Africa/Bamako,FALSE,1466560045
Toguéré-Koumbé,Toguere-Koumbe,Toguéré-Coumbé,14.9181,-4.5933,Mali,ML,MLI,Mopti,Mopti,ML-5,region,,18.7,27057,27057,3,Africa/Bamako,FALSE,1466368707
Mahina,Mahina,,13.7583,-10.8486,Mali,ML,MLI,Kayes,Kayes,ML-1,region,,38.9,26754,26754,3,Africa/Bamako,FALSE,1466622027
Sibi,Sibi,Siby,12.3786,-8.3333,Mali,ML,MLI,Koulikoro,Koulikoro,ML-2,region,,26.6,26633,26633,3,Africa/Bamako,FALSE,1466065498
Sokoura,Sokoura,,13.5000,-3.7667,Mali,ML,MLI,Mopti,Mopti,ML-5,region,,60.7,26478,26478,3,Africa/Bamako,TRUE,1466226918
Kaboïla,Kaboila,Kabwala,11.2136,-5.6347,Mali,ML,MLI,Sikasso,Sikasso,ML-3,region,,40.2,26272,26272,3,Africa/Bamako,FALSE,1466753931
"Gourma Rharous","Gourma Rharous",Gourma-Rarous|Rharous|Gourma-Rharous|Gourma-Barous,16.8800,-1.9238,Mali,ML,MLI,Tombouctou,Tombouctou,ML-6,region,minor,3.7,26115,26115,3,Africa/Bamako,FALSE,1466161752
Konobougou,Konobougou,,12.9167,-6.7667,Mali,ML,MLI,Ségou,Segou,ML-4,region,,74.6,26084,26084,3,Africa/Bamako,FALSE,1466639548
Béma,Bema,,15.0440,-9.3540,Mali,ML,MLI,Kayes,Kayes,ML-1,region,,19.1,25749,25749,3,Africa/Bamako,FALSE,1466764417
Bandiagara,Bandiagara,,14.3500,-3.6111,Mali,ML,MLI,Mopti,Mopti,ML-5,region,minor,1559.4,25564,25564,3,Africa/Bamako,FALSE,1466492811
Fatimé,Fatime,Fatiné,13.5761,-5.3833,Mali,ML,MLI,Ségou,Segou,ML-4,region,,25.0,25161,25161,3,Africa/Bamako,FALSE,1466029546
Koumia,Koumia,,12.5958,-4.6903,Mali,ML,MLI,Sikasso,Sikasso,ML-3,region,,34.7,24915,24915,3,Africa/Bamako,FALSE,1466056993
Gouna,Gouna,Gounao,10.9125,-8.0000,Mali,ML,MLI,,,,,,14.1,24704,24704,3,Africa/Bamako,FALSE,1466034631
Madougou,Madougou,,14.3992,-3.0789,Mali,ML,MLI,Mopti,Mopti,ML-5,region,,62.7,24600,24600,3,Africa/Bamako,FALSE,1466266536
Fatoma,Fatoma,Fotoma,14.6122,-4.0614,Mali,ML,MLI,Mopti,Mopti,ML-5,region,,60.1,24595,24595,3,Africa/Bamako,FALSE,1466840309
Ngorkou,Ngorkou,,15.6592,-3.7156,Mali,ML,MLI,Tombouctou,Tombouctou,ML-6,region,,27.7,24381,24381,3,Africa/Bamako,FALSE,1466990785
Kenndié,Kenndie,Kendié|Kendi|Kendé,14.6750,-3.5111,Mali,ML,MLI,Mopti,Mopti,ML-5,region,,9.7,24359,24359,3,Africa/Bamako,FALSE,1466329959
Sanando,Sanando,,12.9667,-6.4000,Mali,ML,MLI,Ségou,Segou,ML-4,region,,50.4,24033,24033,3,Africa/Bamako,FALSE,1466012809
Koulikoro,Koulikoro,Koulikoro-Liberté,12.8833,-7.5500,Mali,ML,MLI,Koulikoro,Koulikoro,ML-2,region,admin,4532.2,23919,23919,2,Africa/Bamako,FALSE,1466411645
Ourikela,Ourikela,Ourikéla,12.1106,-5.0625,Mali,ML,MLI,Sikasso,Sikasso,ML-3,region,,41.4,23855,23855,3,Africa/Bamako,FALSE,1466900028
Kébila,Kebila,Kébélé,11.2833,-7.0333,Mali,ML,MLI,Sikasso,Sikasso,ML-3,region,,51.0,23580,23580,3,Africa/Bamako,FALSE,1466884363
Sokolo,Sokolo,Soala|Swala,14.7389,-6.1211,Mali,ML,MLI,Ségou,Segou,ML-4,region,,10.5,23338,23338,3,Africa/Bamako,FALSE,1466033359
Kouoro,Kouoro,Koro,11.9681,-5.6886,Mali,ML,MLI,Sikasso,Sikasso,ML-3,region,,49.1,23169,23169,3,Africa/Bamako,FALSE,1466637738
Sansanding,Sansanding,,13.7267,-6.0058,Mali,ML,MLI,Ségou,Segou,ML-4,region,,73.4,23109,23109,3,Africa/Bamako,FALSE,1466011237
Hombori,Hombori,,15.2800,-1.7000,Mali,ML,MLI,Mopti,Mopti,ML-5,region,,7.9,23099,23099,3,Africa/Bamako,FALSE,1466111585
Koussané,Koussane,,14.8847,-11.2333,Mali,ML,MLI,Kayes,Kayes,ML-1,region,,10.4,23048,23048,3,Africa/Bamako,FALSE,1466081945
Youwarou,Youwarou,Youvarou,15.3750,-4.2625,Mali,ML,MLI,Mopti,Mopti,ML-5,region,minor,36.3,23046,23046,3,Africa/Bamako,FALSE,1466814525
Kamabougou,Kamabougou,,12.4833,-6.8000,Mali,ML,MLI,Koulikoro,Koulikoro,ML-2,region,,45.1,22949,22949,3,Africa/Bamako,FALSE,1466468833
Dialakoroba,Dialakoroba,Dyalakoroba,12.2628,-7.9269,Mali,ML,MLI,Koulikoro,Koulikoro,ML-2,region,,49.6,22907,22907,3,Africa/Bamako,FALSE,1466374326
Boura,Boura,Bura,12.4139,-4.5442,Mali,ML,MLI,Sikasso,Sikasso,ML-3,region,,25.6,22735,22735,3,Africa/Bamako,FALSE,1466222801
Finnkolo,Finnkolo,Finkolo|Fenkolo,11.2681,-5.5111,Mali,ML,MLI,Sikasso,Sikasso,ML-3,region,,47.0,22429,22429,3,Africa/Bamako,FALSE,1466630511
Sanso,Sanso,,11.7167,-6.8500,Mali,ML,MLI,Sikasso,Sikasso,ML-3,region,,91.8,22284,22284,3,Africa/Bamako,FALSE,1466863589
Yorosso,Yorosso,,12.3556,-4.7778,Mali,ML,MLI,Sikasso,Sikasso,ML-3,region,minor,45.3,22063,22063,3,Africa/Bamako,FALSE,1466751971
Dioumanzana,Dioumanzana,Dioumansana|Dyoumansana,12.5972,-7.3061,Mali,ML,MLI,Koulikoro,Koulikoro,ML-2,region,,21.0,22018,22018,3,Africa/Bamako,FALSE,1466811327
Gavimané,Gavimane,Gavinané,15.1167,-9.9000,Mali,ML,MLI,Kayes,Kayes,ML-1,region,,28.9,21986,21986,3,Africa/Bamako,FALSE,1466830019
Bankoumana,Bankoumana,Bankoumani,12.2047,-8.2667,Mali,ML,MLI,Koulikoro,Koulikoro,ML-2,region,,43.3,21714,21714,3,Africa/Bamako,FALSE,1466961300
Zantiébougou,Zantiebougou,,11.4000,-7.2500,Mali,ML,MLI,Sikasso,Sikasso,ML-3,region,,30.1,21666,21666,3,Africa/Bamako,FALSE,1466324443
Kontéla,Kontela,,14.0394,-10.3667,Mali,ML,MLI,Kayes,Kayes,ML-1,region,,36.9,21538,21538,3,Africa/Bamako,FALSE,1466782935
Kokofata,Kokofata,,12.8825,-9.9458,Mali,ML,MLI,,,,,,19.4,21117,21117,3,Africa/Bamako,FALSE,1466361890
Walia,Walia,Oualia|Oualla,13.6000,-10.3833,Mali,ML,MLI,Kayes,Kayes,ML-1,region,,8.4,20989,20989,3,Africa/Bamako,FALSE,1466405334
Ménaka,Menaka,,15.9167,2.4000,Mali,ML,MLI,Gao,Gao,ML-7,region,minor,2.3,20702,20702,3,Africa/Bamako,FALSE,1466373205
Soye,Soye,Soï,14.2306,-4.2792,Mali,ML,MLI,Mopti,Mopti,ML-5,region,,27.4,20684,20684,3,Africa/Bamako,FALSE,1466578669
Fangasso,Fangasso,Pakui,13.5333,-4.4500,Mali,ML,MLI,Ségou,Segou,ML-4,region,,42.7,20317,20317,3,Africa/Bamako,FALSE,1466346303
Touna,Touna,Tuna,13.1167,-5.8333,Mali,ML,MLI,Ségou,Segou,ML-4,region,,83.6,20238,20238,3,Africa/Bamako,FALSE,1466267250
Diondiori,Diondiori,Diondéni,14.6119,-4.7742,Mali,ML,MLI,Mopti,Mopti,ML-5,region,,24.5,20160,20160,3,Africa/Bamako,FALSE,1466140510
Bafoulabé,Bafoulabe,Bafulabe,13.8083,-10.8306,Mali,ML,MLI,Kayes,Kayes,ML-1,region,minor,18.1,19955,19955,3,Africa/Bamako,FALSE,1466740370
Guiré,Guire,Giré,14.6417,-6.6917,Mali,ML,MLI,Koulikoro,Koulikoro,ML-2,region,,2.9,19879,19879,3,Africa/Bamako,FALSE,1466650563
Sangasso,Sangasso,Zangasso,12.1569,-5.6194,Mali,ML,MLI,Sikasso,Sikasso,ML-3,region,,43.3,19496,19496,3,Africa/Bamako,FALSE,1466764054
Dorou,Dorou,,14.3000,-3.4333,Mali,ML,MLI,Mopti,Mopti,ML-5,region,,31.5,19411,19411,3,Africa/Bamako,FALSE,1466322624
Saré-Yamou,Sare-Yamou,Sarayamou,16.0897,-3.2353,Mali,ML,MLI,Tombouctou,Tombouctou,ML-6,region,,36.2,19357,19357,3,Africa/Bamako,FALSE,1466371925
Kassama,Kassama,,13.0564,-11.1167,Mali,ML,MLI,Kayes,Kayes,ML-1,region,,22.0,19230,19230,3,Africa/Bamako,FALSE,1466883737
Sibila,Sibila,,13.7778,-5.8778,Mali,ML,MLI,Ségou,Segou,ML-4,region,,68.5,19185,19185,3,Africa/Bamako,FALSE,1466256518
Kouloum,Kouloum,,14.4500,-11.3708,Mali,ML,MLI,Kayes,Kayes,ML-1,region,,197.7,18994,18994,3,Africa/Bamako,FALSE,1466022111
Diallassagou,Diallassagou,Diallassagu|Dialsago|Dialassagou,13.7333,-3.6333,Mali,ML,MLI,Mopti,Mopti,ML-5,region,,91.8,18799,18799,3,Africa/Bamako,FALSE,1466193284
Koporo-Kénié-na,Koporo-Kenie-na,Koporo-Kéméma|Kaborokindié|Koporokondié-Na,14.1308,-3.3539,Mali,ML,MLI,Mopti,Mopti,ML-5,region,,95.3,18746,18746,3,Africa/Bamako,FALSE,1466025271
Djidian,Djidian,Dyidyan|Didian,13.2017,-9.4553,Mali,ML,MLI,Kayes,Kayes,ML-1,region,,46.8,18702,18702,3,Africa/Bamako,FALSE,1466076762
Tyèlè,Tyele,Tiélé,12.3028,-7.5681,Mali,ML,MLI,Koulikoro,Koulikoro,ML-2,region,,31.9,18696,18696,3,Africa/Bamako,FALSE,1466318611
Andéranboukan,Anderanboukan,Andéramboukane|Amderamboukan|Amdéramboukane|Anderamboukan|Andéranboukane,15.4283,3.0183,Mali,ML,MLI,Gao,Gao,ML-7,region,,2.8,18688,18688,3,Africa/Bamako,FALSE,1466636444
Nara,Nara,,15.1800,-7.2800,Mali,ML,MLI,Koulikoro,Koulikoro,ML-2,region,minor,33.8,18459,18459,3,Africa/Bamako,FALSE,1466925477
Ngolonianasso,Ngolonianasso,,12.4222,-5.6833,Mali,ML,MLI,Sikasso,Sikasso,ML-3,region,,45.9,18446,18446,3,Africa/Bamako,FALSE,1466009785
Kassaro,Kassaro,Kasaro|Kossaro,12.9544,-8.8811,Mali,ML,MLI,Kayes,Kayes,ML-1,region,,17.1,18442,18442,3,Africa/Bamako,FALSE,1466577037
Sandaré,Sandare,,14.7000,-10.3000,Mali,ML,MLI,Kayes,Kayes,ML-1,region,,16.3,18328,18328,3,Africa/Bamako,FALSE,1466093567
Nossombougou,Nossombougou,Nossobougou,13.1000,-7.9333,Mali,ML,MLI,Koulikoro,Koulikoro,ML-2,region,,59.9,18306,18306,3,Africa/Bamako,FALSE,1466000032
Sakouéba,Sakoueba,,13.3119,-6.2800,Mali,ML,MLI,Ségou,Segou,ML-4,region,,50.8,18282,18282,3,Africa/Bamako,FALSE,1466970715
Blindio,Blindio,Blendio|Blinndio,11.6133,-6.3444,Mali,ML,MLI,Sikasso,Sikasso,ML-3,region,,49.3,18207,18207,3,Africa/Bamako,FALSE,1466419548
Tominian,Tominian,Tomina,13.2833,-4.5833,Mali,ML,MLI,Ségou,Segou,ML-4,region,minor,60.7,18130,18130,3,Africa/Bamako,FALSE,1466049963
Ouankoro,Ouankoro,Ouonkoro|Wenkoro|Wankoro|Ouenkoro,13.3833,-3.8333,Mali,ML,MLI,Mopti,Mopti,ML-5,region,,38.0,18123,18123,3,Africa/Bamako,FALSE,1466911369
Souba,Souba,,13.4139,-6.5972,Mali,ML,MLI,Ségou,Segou,ML-4,region,,16.3,17961,17961,3,Africa/Bamako,FALSE,1466962028
Koula,Koula,,13.1167,-7.6500,Mali,ML,MLI,Koulikoro,Koulikoro,ML-2,region,,33.4,17953,17953,3,Africa/Bamako,FALSE,1466008985
Segué,Segue,,13.8333,-3.7500,Mali,ML,MLI,Mopti,Mopti,ML-5,region,,57.2,17868,17868,3,Africa/Bamako,FALSE,1466283757
Dialafara,Dialafara,Dialalara,13.4606,-11.3786,Mali,ML,MLI,Kayes,Kayes,ML-1,region,,9.4,17705,17705,3,Africa/Bamako,FALSE,1466206372
Faléa,Falea,,12.2647,-11.2750,Mali,ML,MLI,Kayes,Kayes,ML-1,region,,12.2,17455,17455,3,Africa/Bamako,FALSE,1466262689
Douétiré,Douetire,Douékiré,16.5736,-3.3719,Mali,ML,MLI,Tombouctou,Tombouctou,ML-6,region,,12.2,17401,17401,3,Africa/Bamako,FALSE,1466520431
Kanrangana,Kanrangana,Karangana,12.2208,-5.0333,Mali,ML,MLI,Sikasso,Sikasso,ML-3,region,,43.5,17299,17299,3,Africa/Bamako,FALSE,1466153386
Zébala,Zebala,,12.3100,-5.1569,Mali,ML,MLI,Sikasso,Sikasso,ML-3,region,,55.4,17278,17278,3,Africa/Bamako,FALSE,1466799988
Kangaba,Kangaba,Kaba|Kangara,11.9333,-8.4167,Mali,ML,MLI,Koulikoro,Koulikoro,ML-2,region,minor,57.5,17232,17232,3,Africa/Bamako,FALSE,1466770326
Sinsina,Sinsina,Sincina|Sinssina,12.3517,-5.4417,Mali,ML,MLI,Sikasso,Sikasso,ML-3,region,,81.1,17025,17025,3,Africa/Bamako,FALSE,1466029265
Boki-Wéré,Boki-Were,"Boki Ouéré|Boky-Were",14.0106,-5.6033,Mali,ML,MLI,Ségou,Segou,ML-4,region,,77.0,16934,16934,3,Africa/Bamako,FALSE,1466966957
Bambara-Maoundé,Bambara-Maounde,Bambara-Maude|Oddari|Bambara-Maoudé,15.8519,-2.7861,Mali,ML,MLI,Tombouctou,Tombouctou,ML-6,region,,12.3,16864,16864,3,Africa/Bamako,FALSE,1466502325
Konodimini,Konodimini,Konolimini|Konadimini,13.3239,-6.4228,Mali,ML,MLI,Ségou,Segou,ML-4,region,,46.2,16719,16719,3,Africa/Bamako,FALSE,1466328309
Soumpi,Soumpi,Sumpi|Sompi,15.8458,-4.3217,Mali,ML,MLI,Tombouctou,Tombouctou,ML-6,region,,11.0,16590,16590,3,Africa/Bamako,FALSE,1466405551
Kassorola,Kassorola,,12.7556,-4.9742,Mali,ML,MLI,Ségou,Segou,ML-4,region,,47.2,16275,16275,3,Africa/Bamako,FALSE,1466068246
Goundam,Goundam,,16.4167,-3.6667,Mali,ML,MLI,Tombouctou,Tombouctou,ML-6,region,minor,160.9,16253,16253,3,Africa/Bamako,FALSE,1466655191
Ségoubougou,Segoubougou,,13.4181,-6.3069,Mali,ML,MLI,Ségou,Segou,ML-4,region,,140.7,16175,16175,3,Africa/Bamako,FALSE,1466209607
Mafuné,Mafune,Mafouné|Mafauné,12.7833,-4.3667,Mali,ML,MLI,Ségou,Segou,ML-4,region,,42.3,16141,16141,3,Africa/Bamako,FALSE,1466428196
Diabigué,Diabigue,Diabgué,15.1500,-9.3167,Mali,ML,MLI,Kayes,Kayes,ML-1,region,,31.1,16107,16107,3,Africa/Bamako,FALSE,1466174404
Léré,Lere,,15.7153,-4.9042,Mali,ML,MLI,Tombouctou,Tombouctou,ML-6,region,,12.0,16072,16072,3,Africa/Bamako,FALSE,1466628152
Safo,Safo,,12.7686,-7.9286,Mali,ML,MLI,Koulikoro,Koulikoro,ML-2,region,,52.3,16066,16066,3,Africa/Bamako,FALSE,1466531724
Guioyo,Guioyo,Guihoyo,13.5000,-8.2500,Mali,ML,MLI,Koulikoro,Koulikoro,ML-2,region,,29.0,15988,15988,3,Africa/Bamako,FALSE,1466719816
Mandiakui,Mandiakui,Mandjakoui|Manzanhui|Manjakui|Mandjakuy|Mandjakui,13.0167,-4.4667,Mali,ML,MLI,Ségou,Segou,ML-4,region,,56.0,15949,15949,3,Africa/Bamako,FALSE,1466936893
Lakamané,Lakamane,Lakaminé|Lankamané,14.5060,-9.9070,Mali,ML,MLI,Kayes,Kayes,ML-1,region,,15.9,15912,15912,3,Africa/Bamako,FALSE,1466412139
Diafarabé,Diafarabe,,14.1389,-5.0189,Mali,ML,MLI,Mopti,Mopti,ML-5,region,,16.1,15748,15748,3,Africa/Bamako,FALSE,1466466241
"Namala Guimbala","Namala Guimbala",Namala,13.3642,-9.3864,Mali,ML,MLI,Kayes,Kayes,ML-1,region,,13.2,15667,15667,3,Africa/Bamako,FALSE,1466256962
Kifosso,Kifosso,Tiéfosso,12.5042,-4.9028,Mali,ML,MLI,Sikasso,Sikasso,ML-3,region,,34.8,15502,15502,3,Africa/Bamako,FALSE,1466594446
Nkouraba,Nkouraba,Kouraba|Kourouba,12.4250,-7.4903,Mali,ML,MLI,Koulikoro,Koulikoro,ML-2,region,,26.7,15474,15474,3,Africa/Bamako,FALSE,1466619193
Sagala,Sagala,,14.1103,-7.8881,Mali,ML,MLI,Koulikoro,Koulikoro,ML-2,region,,5.3,15464,15464,3,Africa/Bamako,FALSE,1466140051
Nonkon,Nonkon,Nonkho|Nonko,13.2167,-7.8500,Mali,ML,MLI,Koulikoro,Koulikoro,ML-2,region,,43.2,15253,15253,3,Africa/Bamako,FALSE,1466061790
Bangassi-Nangou,Bangassi-Nangou,Bangassi|Bangasse,14.4933,-11.5067,Mali,ML,MLI,Kayes,Kayes,ML-1,region,,20.5,15191,15191,3,Africa/Bamako,FALSE,1466429061
Dougouni,Dougouni,Dogoni,12.1436,-6.0103,Mali,ML,MLI,Sikasso,Sikasso,ML-3,region,,42.1,15186,15186,3,Africa/Bamako,FALSE,1466682815
Doumanaba,Doumanaba,Dumanaba|Doumana,11.6692,-5.9306,Mali,ML,MLI,Sikasso,Sikasso,ML-3,region,,52.4,15105,15105,3,Africa/Bamako,FALSE,1466783109
Kidal,Kidal,,18.4389,1.4083,Mali,ML,MLI,Kidal,Kidal,ML-8,region,admin,1.5,15086,15086,2,Africa/Bamako,FALSE,1466444510
Lambidou,Lambidou,,14.3136,-9.5515,Mali,ML,MLI,Kayes,Kayes,ML-1,region,,44.9,14947,14947,3,Africa/Bamako,FALSE,1466544469
Ngolobougou,Ngolobougou,N’Golabougou,12.1733,-6.7089,Mali,ML,MLI,Koulikoro,Koulikoro,ML-2,region,,66.2,14880,14880,3,Africa/Bamako,FALSE,1466137512
Tamani,Tamani,,13.1167,-7.8333,Mali,ML,MLI,Koulikoro,Koulikoro,ML-2,region,,33.4,14858,14858,3,Africa/Bamako,FALSE,1466811966
Koumaïra,Koumaira,,15.7864,-3.8642,Mali,ML,MLI,Tombouctou,Tombouctou,ML-6,region,,31.2,14839,14839,3,Africa/Bamako,FALSE,1466639325
Timissa,Timissa,,13.8167,-4.2000,Mali,ML,MLI,Ségou,Segou,ML-4,region,,34.3,14829,14829,3,Africa/Bamako,FALSE,1466100201
Konina,Konina,,12.4792,-6.1778,Mali,ML,MLI,Sikasso,Sikasso,ML-3,region,,20.2,14786,14786,3,Africa/Bamako,FALSE,1466228520
Diankabou,Diankabou,Diankabo,14.5833,-3.0833,Mali,ML,MLI,Mopti,Mopti,ML-5,region,,13.4,14760,14760,3,Africa/Bamako,FALSE,1466359730
Youdiou,Youdiou,,14.2833,-3.1667,Mali,ML,MLI,Mopti,Mopti,ML-5,region,,96.7,14737,14737,3,Africa/Bamako,FALSE,1466943053
Pinia,Pinia,Pigna,14.2600,-3.9511,Mali,ML,MLI,Mopti,Mopti,ML-5,region,,56.9,14630,14630,3,Africa/Bamako,FALSE,1466826925
Diéramana,Dieramana,Diaramana,12.8500,-5.4000,Mali,ML,MLI,Ségou,Segou,ML-4,region,,76.6,14514,14514,3,Africa/Bamako,FALSE,1466866439
Yangasso,Yangasso,,13.0667,-5.3167,Mali,ML,MLI,Ségou,Segou,ML-4,region,,59.8,14456,14456,3,Africa/Bamako,FALSE,1466775823
Yéréré,Yerere,,15.2590,-9.4270,Mali,ML,MLI,Kayes,Kayes,ML-1,region,,48.0,14408,14408,3,Africa/Bamako,FALSE,1466674377
Miena,Miena,,12.6306,-5.9972,Mali,ML,MLI,Sikasso,Sikasso,ML-3,region,,75.6,14365,14365,3,Africa/Bamako,FALSE,1466207096
Fakola,Fakola,,10.5444,-6.9147,Mali,ML,MLI,,,,,,49.9,14301,14301,3,Africa/Bamako,FALSE,1466659709
Aïbongo,Aibongo,Haïbongo|Haïbongho,16.2231,-3.2450,Mali,ML,MLI,Tombouctou,Tombouctou,ML-6,region,,59.4,14247,14247,3,Africa/Bamako,FALSE,1466596375
Toubakoro,Toubakoro,,13.8833,-7.1833,Mali,ML,MLI,Koulikoro,Koulikoro,ML-2,region,,15.0,14239,14239,3,Africa/Bamako,FALSE,1466578660
Koundian,Koundian,Koudian,13.1597,-10.6806,Mali,ML,MLI,Kayes,Kayes,ML-1,region,,7.9,14075,14075,3,Africa/Bamako,FALSE,1466837569
Sibirila,Sibirila,,11.4272,-7.7667,Mali,ML,MLI,Sikasso,Sikasso,ML-3,region,,26.7,14012,14012,3,Africa/Bamako,FALSE,1466535159
Kambila,Kambila,,12.7967,-8.1033,Mali,ML,MLI,Koulikoro,Koulikoro,ML-2,region,,32.6,13974,13974,3,Africa/Bamako,FALSE,1466088020
Sido,Sido,,11.6653,-7.5997,Mali,ML,MLI,Sikasso,Sikasso,ML-3,region,,31.5,13877,13877,3,Africa/Bamako,FALSE,1466942741
"Diaï Koura","Diai Koura",,15.1800,-9.9840,Mali,ML,MLI,Kayes,Kayes,ML-1,region,,30.7,13691,13691,3,Africa/Bamako,FALSE,1466360478
Bamafélé,Bamafele,,13.1000,-10.4000,Mali,ML,MLI,Kayes,Kayes,ML-1,region,,14.8,13622,13622,3,Africa/Bamako,FALSE,1466880246
Koubel-Koundia,Koubel-Koundia,,14.9861,-3.0339,Mali,ML,MLI,Mopti,Mopti,ML-5,region,,39.7,13529,13529,3,Africa/Bamako,FALSE,1466710090
Sébékoro,Sebekoro,,13.0000,-8.0833,Mali,ML,MLI,Koulikoro,Koulikoro,ML-2,region,,38.2,13445,13445,3,Africa/Bamako,FALSE,1466175421
Kokri,Kokri,Kokry,13.9606,-5.5153,Mali,ML,MLI,Ségou,Segou,ML-4,region,,83.7,13393,13393,3,Africa/Bamako,FALSE,1466792719
"Sanankoro Djitoumou","Sanankoro Djitoumou",Sanankoro,12.0550,-7.7061,Mali,ML,MLI,Koulikoro,Koulikoro,ML-2,region,,21.2,13382,13382,3,Africa/Bamako,FALSE,1466601469
Dinbéla,Dinbela,Tiétembougou|Dembéla,11.7278,-6.3611,Mali,ML,MLI,Sikasso,Sikasso,ML-3,region,,30.7,13061,13061,3,Africa/Bamako,FALSE,1466030364
Kani-Bonzon,Kani-Bonzon,,14.1403,-3.6183,Mali,ML,MLI,Mopti,Mopti,ML-5,region,,90.2,13046,13046,3,Africa/Bamako,FALSE,1466062821
Danga,Danga,Denha,16.4650,-3.1364,Mali,ML,MLI,Tombouctou,Tombouctou,ML-6,region,,108.7,13045,13045,3,Africa/Bamako,FALSE,1466716384
Niandjila,Niandjila,Niendjila,11.7975,-6.5447,Mali,ML,MLI,Koulikoro,Koulikoro,ML-2,region,,43.7,12845,12845,3,Africa/Bamako,FALSE,1466000081
Samé,Same,"Goui- Samé|Gouy Samé|Goui Samié",14.4833,-11.5667,Mali,ML,MLI,Kayes,Kayes,ML-1,region,,21.5,12820,12820,3,Africa/Bamako,FALSE,1466031210
Toukoroba,Toukoroba,Torokoroba,13.6083,-7.0389,Mali,ML,MLI,Koulikoro,Koulikoro,ML-2,region,,13.3,12793,12793,3,Africa/Bamako,FALSE,1466980257
Dianguirdé,Dianguirde,,14.4886,-9.0161,Mali,ML,MLI,Kayes,Kayes,ML-1,region,,11.1,12684,12684,3,Africa/Bamako,FALSE,1466779159
Dianké,Dianke,,15.7333,-4.6500,Mali,ML,MLI,Tombouctou,Tombouctou,ML-6,region,,15.9,12684,12684,3,Africa/Bamako,FALSE,1466785037
Nangola,Nangola,,12.6667,-6.6000,Mali,ML,MLI,Koulikoro,Koulikoro,ML-2,region,,56.8,12642,12642,3,Africa/Bamako,FALSE,1466277928
Diéli,Dieli,,13.0667,-5.1167,Mali,ML,MLI,Ségou,Segou,ML-4,region,,55.9,12593,12593,3,Africa/Bamako,FALSE,1466198734
Diamou,Diamou,,14.0886,-11.2631,Mali,ML,MLI,Kayes,Kayes,ML-1,region,,6.7,12550,12550,3,Africa/Bamako,FALSE,1466700073
Kobiri,Kobiri,,13.1183,-9.8997,Mali,ML,MLI,Kayes,Kayes,ML-1,region,,15.8,12445,12445,3,Africa/Bamako,FALSE,1466704362
Gogui,Gogui,Gouguel,15.6833,-9.3333,Mali,ML,MLI,Kayes,Kayes,ML-1,region,,27.4,12433,12433,3,Africa/Bamako,FALSE,1466252524
Madiama,Madiama,,13.8000,-4.4000,Mali,ML,MLI,Mopti,Mopti,ML-5,region,,91.1,12406,12406,3,Africa/Bamako,FALSE,1466148569
Kadiana,Kadiana,,10.7500,-6.5000,Mali,ML,MLI,,,,,,29.6,12404,12404,3,Africa/Bamako,FALSE,1466279881
Boussé,Bousse,Busse,13.5069,-5.9361,Mali,ML,MLI,Ségou,Segou,ML-4,region,,69.7,12401,12401,3,Africa/Bamako,FALSE,1466457848
"Bourem Inali","Bourem Inali",Inali,16.6883,-2.8528,Mali,ML,MLI,Tombouctou,Tombouctou,ML-6,region,,13.3,12336,12336,3,Africa/Bamako,FALSE,1466332978
Soubala,Soubala,,13.8633,-3.5019,Mali,ML,MLI,Mopti,Mopti,ML-5,region,,80.6,12332,12332,3,Africa/Bamako,FALSE,1466368303
Tioribougou,Tioribougou,Toribougou,13.3833,-7.9833,Mali,ML,MLI,Koulikoro,Koulikoro,ML-2,region,,35.5,12166,12166,3,Africa/Bamako,FALSE,1466471555
Diré,Dire,,16.2561,-3.4100,Mali,ML,MLI,Tombouctou,Tombouctou,ML-6,region,minor,133.3,12092,12092,3,Africa/Bamako,FALSE,1466571290
Niagadina,Niagadina,,12.1333,-8.2319,Mali,ML,MLI,Koulikoro,Koulikoro,ML-2,region,,137.5,11961,11961,3,Africa/Bamako,FALSE,1466726369
Mountougoula,Mountougoula,Moundougoula|Moutoukoula,12.5297,-7.8222,Mali,ML,MLI,Koulikoro,Koulikoro,ML-2,region,,32.0,11814,11814,3,Africa/Bamako,FALSE,1466110892
Barapiré,Barapire,,14.3053,-3.0517,Mali,ML,MLI,Mopti,Mopti,ML-5,region,,79.7,11796,11796,3,Africa/Bamako,FALSE,1466651153
Alahina,Alahina,,15.2275,-8.7403,Mali,ML,MLI,Koulikoro,Koulikoro,ML-2,region,,7.5,11673,11673,3,Africa/Bamako,FALSE,1466349882
Lessogou,Lessogou,Lessagou,13.8167,-3.6000,Mali,ML,MLI,Mopti,Mopti,ML-5,region,,96.9,11646,11646,3,Africa/Bamako,FALSE,1466420153
Doukombo,Doukombo,Diukombo|Dioukombo,14.3550,-3.6561,Mali,ML,MLI,Mopti,Mopti,ML-5,region,,39.3,11510,11510,3,Africa/Bamako,FALSE,1466368351
Sinkolo,Sinkolo,,12.0875,-5.5500,Mali,ML,MLI,Sikasso,Sikasso,ML-3,region,,38.8,11470,11470,3,Africa/Bamako,FALSE,1466845782
Tourougoumbé,Tourougoumbe,Tourougombé,15.2660,-9.2290,Mali,ML,MLI,Kayes,Kayes,ML-1,region,,161.8,11412,11412,3,Africa/Bamako,FALSE,1466310280
Pemmpéréna,Pemmperena,Pempéréna|Pampéréna,11.4306,-5.7542,Mali,ML,MLI,Sikasso,Sikasso,ML-3,region,,70.4,11329,11329,3,Africa/Bamako,FALSE,1466569115
Ténenkou,Tenenkou,,14.4556,-4.9181,Mali,ML,MLI,Mopti,Mopti,ML-5,region,minor,1800.8,11310,11310,3,Africa/Bamako,FALSE,1466000049
Dimmbal,Dimmbal,Dimbal|Dimal,14.0167,-3.6167,Mali,ML,MLI,Mopti,Mopti,ML-5,region,,79.3,11306,11306,3,Africa/Bamako,FALSE,1466080201
Niasso,Niasso,,12.6333,-4.5333,Mali,ML,MLI,Ségou,Segou,ML-4,region,,53.2,11257,11257,3,Africa/Bamako,FALSE,1466909425
Kourouma,Kourouma,,11.8806,-5.8375,Mali,ML,MLI,Sikasso,Sikasso,ML-3,region,,38.3,11234,11234,3,Africa/Bamako,FALSE,1466530477
Kassa,Kassa,,14.7247,-3.0664,Mali,ML,MLI,Mopti,Mopti,ML-5,region,,177.9,11218,11218,3,Africa/Bamako,FALSE,1466965364
Sanzana,Sanzana,,11.7486,-5.9500,Mali,ML,MLI,Sikasso,Sikasso,ML-3,region,,34.4,11214,11214,3,Africa/Bamako,FALSE,1466525770
Tambaga,Tambaga,Tanbaga,12.9689,-9.8728,Mali,ML,MLI,,,,,,37.0,11152,11152,3,Africa/Bamako,FALSE,1466903109
Sorontona,Sorontona,Souroutouna|Sourountouna,13.0667,-4.9000,Mali,ML,MLI,Ségou,Segou,ML-4,region,,46.6,11107,11107,3,Africa/Bamako,FALSE,1466209907
Nanpala,Nanpala,Nampala|Nambala,15.2792,-5.5528,Mali,ML,MLI,Ségou,Segou,ML-4,region,,2.2,11052,11052,3,Africa/Bamako,FALSE,1466032382
Dabiya,Dabiya,Dabia,12.6714,-11.1375,Mali,ML,MLI,Kayes,Kayes,ML-1,region,,42.9,10832,10832,3,Africa/Bamako,FALSE,1466859589
Matomou,Matomou,Matomo|Matom|Matoma,13.8500,-4.9667,Mali,ML,MLI,Ségou,Segou,ML-4,region,,45.9,10802,10802,3,Africa/Bamako,FALSE,1466070701
Bougoula,Bougoula,,12.3081,-7.7922,Mali,ML,MLI,Koulikoro,Koulikoro,ML-2,region,,43.5,10780,10780,3,Africa/Bamako,TRUE,1466859513
Gori,Gori,,15.1089,-10.7581,Mali,ML,MLI,Kayes,Kayes,ML-1,region,,23.9,10760,10760,3,Africa/Bamako,FALSE,1466805275
Bendougouba,Bendougouba,Bindougouba,13.0569,-9.3956,Mali,ML,MLI,Kayes,Kayes,ML-1,region,,41.4,10752,10752,3,Africa/Bamako,FALSE,1466035730
Ouolodo,Ouolodo,Wolodo,13.2000,-7.9333,Mali,ML,MLI,Koulikoro,Koulikoro,ML-2,region,,47.3,10483,10483,3,Africa/Bamako,FALSE,1466050421
Folomana,Folomana,,13.6028,-5.1542,Mali,ML,MLI,Ségou,Segou,ML-4,region,,71.8,10478,10478,3,Africa/Bamako,FALSE,1466256892
Krèmiss,Kremiss,Khemis,15.3506,-10.3458,Mali,ML,MLI,Kayes,Kayes,ML-1,region,,36.4,10467,10467,3,Africa/Bamako,FALSE,1466491986
Minanba,Minanba,Minamba|Manenba|Ménamba,12.3956,-4.6733,Mali,ML,MLI,Sikasso,Sikasso,ML-3,region,,31.9,10449,10449,3,Africa/Bamako,FALSE,1466274040
Da,Da,,13.1600,-4.9111,Mali,ML,MLI,Ségou,Segou,ML-4,region,,48.4,10446,10446,3,Africa/Bamako,FALSE,1466513687
Sirakoro,Sirakoro,,12.6833,-9.2292,Mali,ML,MLI,Kayes,Kayes,ML-1,region,,13.2,10325,10325,3,Africa/Bamako,FALSE,1466537189
Bougaribaya,Bougaribaya,,12.8167,-9.8436,Mali,ML,MLI,,,,,,37.1,10251,10251,3,Africa/Bamako,FALSE,1466712933
Guémoukouraba,Guemoukouraba,Guémoukoura|Guémoui-Kouraba,14.2639,-9.3208,Mali,ML,MLI,Kayes,Kayes,ML-1,region,,13.6,10094,10094,3,Africa/Bamako,FALSE,1466668846
Zaniéna,Zaniena,,11.2708,-6.4236,Mali,ML,MLI,Sikasso,Sikasso,ML-3,region,,57.7,10038,10038,3,Africa/Bamako,FALSE,1466279171
Toukoto,Toukoto,Tukoto,13.4500,-9.8792,Mali,ML,MLI,Kayes,Kayes,ML-1,region,,5.0,10020,10020,3,Africa/Bamako,FALSE,1466388501
Mora,Mora,Murray|Mourrary|Mourrari|Murrari|Mourra,14.3278,-4.6000,Mali,ML,MLI,Mopti,Mopti,ML-5,region,,40.4,10000,10000,4,Africa/Bamako,FALSE,1466150735
Souleï,Soulei,Souley,13.8778,-5.2425,Mali,ML,MLI,Ségou,Segou,ML-4,region,,25.5,9885,9885,3,Africa/Bamako,FALSE,1466104831
Ntorosso,Ntorosso,,12.3167,-4.9500,Mali,ML,MLI,Ségou,Segou,ML-4,region,,113.1,9863,9863,3,Africa/Bamako,FALSE,1466857138
Dandoli,Dandoli,,14.3981,-3.5450,Mali,ML,MLI,Mopti,Mopti,ML-5,region,,73.2,9853,9853,3,Africa/Bamako,FALSE,1466460537
Dindanko,Dindanko,,14.1233,-9.5031,Mali,ML,MLI,Kayes,Kayes,ML-1,region,,8.5,9840,9840,3,Africa/Bamako,FALSE,1466076268
Samabouro,Samabouro,Samabogo,13.0167,-6.3833,Mali,ML,MLI,Ségou,Segou,ML-4,region,,88.5,9808,9808,3,Africa/Bamako,FALSE,1466109035
Kiban,Kiban,Kiba,13.5833,-7.3500,Mali,ML,MLI,Koulikoro,Koulikoro,ML-2,region,,68.1,9781,9781,3,Africa/Bamako,FALSE,1466800750
Farako,Farako,,11.3583,-6.5797,Mali,ML,MLI,Sikasso,Sikasso,ML-3,region,,34.0,9769,9769,3,Africa/Bamako,FALSE,1466843486
Wakoro,Wakoro,Ouakoro|Ouakou,12.5994,-6.6900,Mali,ML,MLI,Koulikoro,Koulikoro,ML-2,region,,114.7,9706,9706,3,Africa/Bamako,FALSE,1466252036
Dényékoro,Denyekoro,Déniékoro|Dégnékoro,12.3500,-6.6667,Mali,ML,MLI,Koulikoro,Koulikoro,ML-2,region,,29.1,9464,9464,3,Africa/Bamako,FALSE,1466419644
Banikane,Banikane,Banekane|Banikan,16.9494,-1.7481,Mali,ML,MLI,Tombouctou,Tombouctou,ML-6,region,,30.6,9433,9433,3,Africa/Bamako,FALSE,1466052086
Diouna,Diouna,,13.4325,-5.8194,Mali,ML,MLI,Ségou,Segou,ML-4,region,,52.8,9244,9244,3,Africa/Bamako,FALSE,1466338282
Fatao,Fatao,Fataou,14.3260,-9.5320,Mali,ML,MLI,Kayes,Kayes,ML-1,region,,50.5,9239,9239,3,Africa/Bamako,FALSE,1466458405
Wa,Wa,Ouan|Nioumankui|Oua,13.7000,-4.4000,Mali,ML,MLI,Ségou,Segou,ML-4,region,,40.6,9165,9165,3,Africa/Bamako,FALSE,1466086379
"Baniré Koré","Banire Kore",,15.2072,-9.1517,Mali,ML,MLI,Kayes,Kayes,ML-1,region,,14.9,9044,9044,3,Africa/Bamako,FALSE,1466641846
Méridiala,Meridiala,Méridyala,12.0917,-7.2592,Mali,ML,MLI,Sikasso,Sikasso,ML-3,region,,20.7,9037,9037,3,Africa/Bamako,FALSE,1466743136
Togou,Togou,,13.5917,-5.9986,Mali,ML,MLI,Ségou,Segou,ML-4,region,,61.1,8987,8987,3,Africa/Bamako,FALSE,1466511755
Diamou,Diamou,Dyamou,12.1469,-7.2544,Mali,ML,MLI,Sikasso,Sikasso,ML-3,region,,20.7,8869,8869,3,Africa/Bamako,FALSE,1466795170
Kaï,Kai,Kay,10.9694,-5.6944,Mali,ML,MLI,,,,,,48.2,8827,8827,3,Africa/Bamako,FALSE,1466076830
Baramandougou,Baramandougou,Pé,13.6000,-4.6000,Mali,ML,MLI,Ségou,Segou,ML-4,region,,53.4,8814,8814,3,Africa/Bamako,FALSE,1466891818
Ntossoni,Ntossoni,,12.5311,-5.7714,Mali,ML,MLI,Sikasso,Sikasso,ML-3,region,,56.7,8793,8793,3,Africa/Bamako,FALSE,1466953618
Gendou,Gendou,Guendo|Gouénou|Guendou,12.8292,-6.4964,Mali,ML,MLI,Ségou,Segou,ML-4,region,,36.9,8724,8724,3,Africa/Bamako,FALSE,1466334708
Inékar,Inekar,,15.9492,3.1592,Mali,ML,MLI,Gao,Gao,ML-7,region,,0.3,8714,8714,3,Africa/Bamako,FALSE,1466792792
Moribila,Moribila,,12.6667,-5.0500,Mali,ML,MLI,Ségou,Segou,ML-4,region,,110.9,8614,8614,3,Africa/Bamako,FALSE,1466777167
Tougouni,Tougouni,,13.2167,-7.2000,Mali,ML,MLI,Koulikoro,Koulikoro,ML-2,region,,32.7,8579,8579,3,Africa/Bamako,FALSE,1466038237
Dougoufé,Dougoufe,Dougofié,13.3150,-6.6311,Mali,ML,MLI,Ségou,Segou,ML-4,region,,118.1,8557,8557,3,Africa/Bamako,FALSE,1466655692
Dala,Dala,Dallah,15.1069,-2.6400,Mali,ML,MLI,Mopti,Mopti,ML-5,region,,8.5,8504,8504,3,Africa/Bamako,FALSE,1466258884
Gongasso,Gongasso,,11.5306,-5.7964,Mali,ML,MLI,Sikasso,Sikasso,ML-3,region,,22.4,8465,8465,3,Africa/Bamako,FALSE,1466550773
Naréna,Narena,Naréma,12.3667,-8.3667,Mali,ML,MLI,Koulikoro,Koulikoro,ML-2,region,,31.3,8275,8275,3,Africa/Bamako,FALSE,1466508661
Kourouba,Kourouba,,12.0086,-8.2914,Mali,ML,MLI,Koulikoro,Koulikoro,ML-2,region,,33.7,8248,8248,3,Africa/Bamako,FALSE,1466098626
Dio-Gare,Dio-Gare,Dio,12.8083,-8.2472,Mali,ML,MLI,Koulikoro,Koulikoro,ML-2,region,,45.3,8161,8161,3,Africa/Bamako,FALSE,1466101078
Koniakari,Koniakari,Koniakary|Koniakory|Koniakori,14.5764,-10.9000,Mali,ML,MLI,Kayes,Kayes,ML-1,region,,327.5,8135,8135,3,Africa/Bamako,FALSE,1466709155
Tiémana,Tiemana,,13.1167,-6.9167,Mali,ML,MLI,Ségou,Segou,ML-4,region,,93.6,8115,8115,3,Africa/Bamako,FALSE,1466142109
Domba,Domba,,12.1125,-7.2244,Mali,ML,MLI,Sikasso,Sikasso,ML-3,region,,20.7,8107,8107,3,Africa/Bamako,FALSE,1466969183
Aguelhok,Aguelhok,Aguelock|Aguelok|Aguel-Hoc,19.4650,0.8560,Mali,ML,MLI,Kidal,Kidal,ML-8,region,,0.4,8080,8080,3,Africa/Bamako,FALSE,1466967655
Guétéma,Guetema,,15.1167,-9.5833,Mali,ML,MLI,Kayes,Kayes,ML-1,region,,58.6,8049,8049,3,Africa/Bamako,FALSE,1466930659
Kouroukoto,Kouroukoto,Kourkota|Kourokoto,12.6075,-10.4044,Mali,ML,MLI,,,,,,7.8,7980,7980,3,Africa/Bamako,FALSE,1466130444
Farakala,Farakala,,11.3583,-6.0056,Mali,ML,MLI,Sikasso,Sikasso,ML-3,region,,28.4,7960,7960,3,Africa/Bamako,FALSE,1466863884
Fama,Fama,,11.5278,-5.6917,Mali,ML,MLI,Sikasso,Sikasso,ML-3,region,,35.9,7960,7960,3,Africa/Bamako,FALSE,1466228075
Gargando,Gargando,Gorgonda,16.4667,-4.1833,Mali,ML,MLI,Tombouctou,Tombouctou,ML-6,region,,5.8,7950,7950,3,Africa/Bamako,FALSE,1466000086
Koronga,Koronga,Karounga,15.3333,-7.6083,Mali,ML,MLI,Koulikoro,Koulikoro,ML-2,region,,11.5,7931,7931,3,Africa/Bamako,FALSE,1466970624
Nagalasso,Nagalasso,Mangalasso|Nangalasso,10.8833,-6.3167,Mali,ML,MLI,,,,,,34.2,7887,7887,3,Africa/Bamako,FALSE,1466193127
Soroli,Soroli,,14.4411,-3.4861,Mali,ML,MLI,Mopti,Mopti,ML-5,region,,87.2,7885,7885,3,Africa/Bamako,FALSE,1466128004
Fanga,Fanga,,15.0047,-10.4167,Mali,ML,MLI,Kayes,Kayes,ML-1,region,,31.1,7753,7753,3,Africa/Bamako,FALSE,1466309618
Nougani,Nougani,,12.0153,-8.7289,Mali,ML,MLI,Koulikoro,Koulikoro,ML-2,region,,20.2,7736,7736,3,Africa/Bamako,FALSE,1466135466
Ténéni,Teneni,Tene,13.3333,-4.8000,Mali,ML,MLI,Ségou,Segou,ML-4,region,,44.6,7726,7726,3,Africa/Bamako,FALSE,1466244758
Génèybé,Geneybe,Guéneybé,15.2819,-7.0861,Mali,ML,MLI,Koulikoro,Koulikoro,ML-2,region,,2.6,7668,7668,3,Africa/Bamako,FALSE,1466825852
Niala,Niala,,13.9167,-4.3667,Mali,ML,MLI,Mopti,Mopti,ML-5,region,,298.0,7667,7667,3,Africa/Bamako,FALSE,1466233759
Karaguana,Karaguana,Karagouana|Karagana,12.5681,-5.7622,Mali,ML,MLI,Sikasso,Sikasso,ML-3,region,,41.3,7520,7520,3,Africa/Bamako,FALSE,1466654865
Tafassirga,Tafassirga,Tafasirga,14.7569,-12.1911,Mali,ML,MLI,,,,,,127.2,7491,7491,3,Africa/Bamako,FALSE,1466330801
Nioumamakana,Nioumamakana,Noumakana|Nioumakana|Nyoumamakana,12.4128,-8.8786,Mali,ML,MLI,Koulikoro,Koulikoro,ML-2,region,,23.9,7442,7442,3,Africa/Bamako,FALSE,1466152085
Natié,Natie,,11.3319,-5.8264,Mali,ML,MLI,Sikasso,Sikasso,ML-3,region,,35.8,7404,7404,3,Africa/Bamako,FALSE,1466742835
Kendé,Kende,Kenndé,14.7028,-3.4167,Mali,ML,MLI,Mopti,Mopti,ML-5,region,,109.2,7372,7372,3,Africa/Bamako,FALSE,1466002987
Tilemsi,Tilemsi,,16.3333,-4.9625,Mali,ML,MLI,,,,,,4.1,7296,7296,3,Africa/Bamako,FALSE,1466946928
Zanférébougou,Zanferebougou,,11.2850,-6.0683,Mali,ML,MLI,Sikasso,Sikasso,ML-3,region,,107.0,7275,7275,3,Africa/Bamako,FALSE,1466324664
Nkontina,Nkontina,Mintiéra|Nioutina,12.2969,-5.4806,Mali,ML,MLI,Sikasso,Sikasso,ML-3,region,,30.8,7274,7274,3,Africa/Bamako,FALSE,1466133219
Yélékébougou,Yelekebougou,,12.9736,-8.0403,Mali,ML,MLI,Koulikoro,Koulikoro,ML-2,region,,25.2,7257,7257,3,Africa/Bamako,FALSE,1466603311
"Guénou Goré","Guenou Gore",Guénégore,12.7278,-11.0194,Mali,ML,MLI,Kayes,Kayes,ML-1,region,,13.7,7229,7229,3,Africa/Bamako,FALSE,1466233230
Ondougou,Ondougou,,14.6431,-3.2261,Mali,ML,MLI,Mopti,Mopti,ML-5,region,,74.1,7182,7182,3,Africa/Bamako,FALSE,1466652058
Dougouolo,Dougouolo,Dougala,12.9333,-5.5667,Mali,ML,MLI,Ségou,Segou,ML-4,region,,78.2,7120,7120,3,Africa/Bamako,FALSE,1466267211
Faragouaran,Faragouaran,Faragoueran,11.3167,-7.7667,Mali,ML,MLI,Sikasso,Sikasso,ML-3,region,,26.7,6971,6971,3,Africa/Bamako,FALSE,1466670372
Marintoumania,Marintoumania,,14.5833,-10.8653,Mali,ML,MLI,Kayes,Kayes,ML-1,region,,19.1,6927,6927,3,Africa/Bamako,FALSE,1466043830
Dialakoro,Dialakoro,,12.0764,-6.1200,Mali,ML,MLI,Sikasso,Sikasso,ML-3,region,,83.0,6893,6893,3,Africa/Bamako,FALSE,1466503059
Karan,Karan,Kara,12.1328,-8.5264,Mali,ML,MLI,Koulikoro,Koulikoro,ML-2,region,,35.2,6874,6874,3,Africa/Bamako,FALSE,1466160380
Diéna,Diena,,13.0403,-6.0250,Mali,ML,MLI,Ségou,Segou,ML-4,region,,93.6,6831,6831,3,Africa/Bamako,FALSE,1466928866
Zangaradougou,Zangaradougou,,11.3869,-5.5986,Mali,ML,MLI,Sikasso,Sikasso,ML-3,region,,68.9,6818,6818,3,Africa/Bamako,FALSE,1466674024
Diara,Diara,,15.3175,-9.3214,Mali,ML,MLI,Kayes,Kayes,ML-1,region,,28.4,6794,6794,3,Africa/Bamako,FALSE,1466128059
Diakourouna,Diakourouna,,12.8667,-5.1333,Mali,ML,MLI,Ségou,Segou,ML-4,region,,51.2,6779,6779,3,Africa/Bamako,FALSE,1466482415
Tédié,Tedie,,14.8461,-3.1639,Mali,ML,MLI,Mopti,Mopti,ML-5,region,,28.8,6733,6733,3,Africa/Bamako,FALSE,1466652408
Youri,Youri,,15.1069,-9.8111,Mali,ML,MLI,Kayes,Kayes,ML-1,region,,307.5,6721,6721,3,Africa/Bamako,FALSE,1466874790
Kabarasso,Kabarasso,Kabanasso|Kabaraso|Kabarosso,12.0117,-5.9361,Mali,ML,MLI,Sikasso,Sikasso,ML-3,region,,26.2,6687,6687,3,Africa/Bamako,FALSE,1466801311
Sansankidé,Sansankide,,14.4220,-9.9610,Mali,ML,MLI,Kayes,Kayes,ML-1,region,,21.2,6520,6520,3,Africa/Bamako,FALSE,1466702050
Sama-Foulala,Sama-Foulala,Samaflala,13.3828,-6.5092,Mali,ML,MLI,Ségou,Segou,ML-4,region,,40.1,6180,6180,3,Africa/Bamako,FALSE,1466557738
Dombia,Dombia,Donbia|Doumbia,12.7792,-11.0508,Mali,ML,MLI,Kayes,Kayes,ML-1,region,,45.7,6178,6178,3,Africa/Bamako,FALSE,1466600202
Waki,Waki,Ouaki,12.8394,-4.8206,Mali,ML,MLI,Ségou,Segou,ML-4,region,,63.7,6167,6167,3,Africa/Bamako,FALSE,1466816900
Tyankour,Tyankour,,16.2553,-3.3247,Mali,ML,MLI,Tombouctou,Tombouctou,ML-6,region,,32.7,6110,6110,3,Africa/Bamako,FALSE,1466309429
Danfina,Danfina,Denfina|Dienfina|Dianfina,11.0244,-7.1517,Mali,ML,MLI,Sikasso,Sikasso,ML-3,region,,62.8,6109,6109,3,Africa/Bamako,FALSE,1466649957
Mbouna,Mbouna,,16.6833,-3.9667,Mali,ML,MLI,Tombouctou,Tombouctou,ML-6,region,,10.4,6070,6070,3,Africa/Bamako,FALSE,1466647146
Gounfan,Gounfan,,13.4958,-11.0875,Mali,ML,MLI,Kayes,Kayes,ML-1,region,,14.9,6030,6030,3,Africa/Bamako,FALSE,1466013207
Tiongui,Tiongui,Tiongni|Tiongi,10.7667,-6.3833,Mali,ML,MLI,,,,,,27.5,6004,6004,3,Africa/Bamako,FALSE,1466064521
Sidibéla,Sidibela,,13.9500,-11.0833,Mali,ML,MLI,Kayes,Kayes,ML-1,region,,6.7,5966,5966,3,Africa/Bamako,FALSE,1466976162
Diébé,Diebe,,12.6167,-4.9667,Mali,ML,MLI,Sikasso,Sikasso,ML-3,region,,96.7,5958,5958,4,Africa/Bamako,FALSE,1466923238
Kotouba,Kotouba,Kotoubaguintan,13.4756,-8.7256,Mali,ML,MLI,Kayes,Kayes,ML-1,region,,6.3,5799,5799,3,Africa/Bamako,FALSE,1466061067
Borko,Borko,,14.9500,-3.3539,Mali,ML,MLI,Mopti,Mopti,ML-5,region,,42.8,5798,5798,3,Africa/Bamako,FALSE,1466111122
Débéré,Debere,,15.1039,-3.0111,Mali,ML,MLI,Mopti,Mopti,ML-5,region,,13.5,5760,5760,3,Africa/Bamako,FALSE,1466658105
Fio,Fio,Fion,13.3667,-4.3333,Mali,ML,MLI,Ségou,Segou,ML-4,region,,32.3,5686,5686,3,Africa/Bamako,FALSE,1466749065
Kaniégué,Kaniegue,,12.9400,-5.5803,Mali,ML,MLI,Ségou,Segou,ML-4,region,,75.6,5559,5559,3,Africa/Bamako,FALSE,1466857924
Fégui,Fegui,,14.6208,-12.1486,Mali,ML,MLI,Kayes,Kayes,ML-1,region,,81.4,5494,5494,3,Africa/Bamako,FALSE,1466759122
Kanzangasso,Kanzangasso,,13.0908,-5.5489,Mali,ML,MLI,Ségou,Segou,ML-4,region,,22.5,5481,5481,3,Africa/Bamako,FALSE,1466289087
Kilakouloumba,Kilakouloumba,Toulakoulouba,12.7639,-5.0475,Mali,ML,MLI,Ségou,Segou,ML-4,region,,60.8,5446,5446,3,Africa/Bamako,FALSE,1466957351
Tesserela,Tesserela,Tesserla|Tiesseria,13.1833,-6.1667,Mali,ML,MLI,Ségou,Segou,ML-4,region,,48.3,5388,5388,3,Africa/Bamako,FALSE,1466447761
Kourouninkoto,Kourouninkoto,Kourouninnkoto,13.8578,-9.5769,Mali,ML,MLI,Kayes,Kayes,ML-1,region,,6.3,5335,5335,3,Africa/Bamako,FALSE,1466883485
Ngassola,Ngassola,Gassola,13.0833,-6.2000,Mali,ML,MLI,Ségou,Segou,ML-4,region,,32.1,5235,5235,3,Africa/Bamako,FALSE,1466337155
Lanfiéra,Lanfiera,Lanféria,13.4936,-4.1486,Mali,ML,MLI,Ségou,Segou,ML-4,region,,45.0,5136,5136,3,Africa/Bamako,FALSE,1466495772
Fassoudébé,Fassoudebe,Fassoudabé,15.1190,-9.4350,Mali,ML,MLI,Kayes,Kayes,ML-1,region,,34.1,5120,5120,3,Africa/Bamako,FALSE,1466995102
Guélibiné,Guelibine,,15.0440,-9.3540,Mali,ML,MLI,Kayes,Kayes,ML-1,region,,22.7,5106,5106,3,Africa/Bamako,FALSE,1466469364
Doubabougou,Doubabougou,,12.7117,-8.1750,Mali,ML,MLI,Koulikoro,Koulikoro,ML-2,region,,94.8,5041,5041,3,Africa/Bamako,FALSE,1466167077
Ména,Mena,,11.1989,-6.7208,Mali,ML,MLI,Sikasso,Sikasso,ML-3,region,,34.0,5014,5014,3,Africa/Bamako,FALSE,1466098782
Niantassou,Niantassou,Niantanso|Niantansso,13.2758,-10.1742,Mali,ML,MLI,Kayes,Kayes,ML-1,region,,15.6,4965,4965,3,Africa/Bamako,FALSE,1466661223
Tosséguéla,Tosseguela,Tonséguéla,11.0539,-6.5861,Mali,ML,MLI,Sikasso,Sikasso,ML-3,region,,17.9,4894,4894,3,Africa/Bamako,FALSE,1466305085
Boudofo,Boudofo,Boudofoni|Boudofoba,13.0886,-9.5075,Mali,ML,MLI,Kayes,Kayes,ML-1,region,,27.0,4885,4885,3,Africa/Bamako,FALSE,1466582884
Kalifabougou,Kalifabougou,Kanfibougou,12.9522,-8.1731,Mali,ML,MLI,Koulikoro,Koulikoro,ML-2,region,,19.9,4796,4796,3,Africa/Bamako,FALSE,1466582858
Abeïbara,Abeibara,,19.3500,1.8450,Mali,ML,MLI,Kidal,Kidal,ML-8,region,minor,0.6,4585,4585,3,Africa/Bamako,FALSE,1466239228
Nougoussouala,Nougoussouala,Négou|Nongossouala,11.7592,-5.5633,Mali,ML,MLI,Sikasso,Sikasso,ML-3,region,,17.3,4578,4578,3,Africa/Bamako,FALSE,1466840693
Diabougou,Diabougou,,12.3772,-6.0558,Mali,ML,MLI,Sikasso,Sikasso,ML-3,region,,30.3,4449,4449,3,Africa/Bamako,FALSE,1466110795
Pelou,Pelou,Pelu,14.3431,-3.4419,Mali,ML,MLI,Mopti,Mopti,ML-5,region,,86.0,4348,4348,3,Africa/Bamako,FALSE,1466777401
Dioumaténe,Dioumatene,Dioumatenen,11.4161,-5.6556,Mali,ML,MLI,Sikasso,Sikasso,ML-3,region,,44.5,4274,4274,3,Africa/Bamako,FALSE,1466331737
Koumankou,Koumankou,Koumaukou|Koumankoun,12.0967,-6.1394,Mali,ML,MLI,Sikasso,Sikasso,ML-3,region,,17.4,4227,4227,3,Africa/Bamako,FALSE,1466513615
Tyènfala,Tyenfala,Tiènfala,12.7361,-7.7503,Mali,ML,MLI,Koulikoro,Koulikoro,ML-2,region,,34.8,4128,4128,3,Africa/Bamako,FALSE,1466533457
"Râs el Mâ","Ras el Ma","Raz el Ma",16.6000,-4.4667,Mali,ML,MLI,Tombouctou,Tombouctou,ML-6,region,,1.3,4121,4121,3,Africa/Bamako,FALSE,1466596113
"Souransan Toumoundo","Souransan Toumoundo","Souroussan Tounboundo|Sourousan Tounboundo",13.3511,-9.4972,Mali,ML,MLI,Kayes,Kayes,ML-1,region,,86.0,4105,4105,3,Africa/Bamako,FALSE,1466852427
Téléfoungou,Telefoungou,Séléfougou,11.7500,-8.3333,Mali,ML,MLI,,,,,,13.2,4102,4102,3,Africa/Bamako,FALSE,1466942985
Bintagoungou,Bintagoungou,Bicatongo|Bitagongo,16.7380,-3.7320,Mali,ML,MLI,Tombouctou,Tombouctou,ML-6,region,,43.5,4004,4004,3,Africa/Bamako,FALSE,1466573216
Ourou,Ourou,,11.7014,-7.9197,Mali,ML,MLI,Sikasso,Sikasso,ML-3,region,,28.7,3947,3947,3,Africa/Bamako,FALSE,1466653531
Tessalit,Tessalit,Tesalit,20.2011,1.0125,Mali,ML,MLI,Kidal,Kidal,ML-8,region,minor,0.1,3612,3612,3,Africa/Bamako,FALSE,1466140377
Dombila,Dombila,"Domila Ruines",12.7633,-8.2747,Mali,ML,MLI,Koulikoro,Koulikoro,ML-2,region,,45.0,3506,3506,3,Africa/Bamako,FALSE,1466117341
Tindirma,Tindirma,,16.1333,-3.6333,Mali,ML,MLI,Tombouctou,Tombouctou,ML-6,region,,50.3,3419,3419,3,Africa/Bamako,FALSE,1466631873
Boughessa,Boughessa,Bouressa,20.0200,2.2611,Mali,ML,MLI,Kidal,Kidal,ML-8,region,,0.3,3401,3401,3,Africa/Bamako,FALSE,1466119333
"Dianvèli Kèsèl","Dianveli Kesel","Dianvéli Kèssèl|Dianveli",14.8739,-2.9181,Mali,ML,MLI,Mopti,Mopti,ML-5,region,,20.3,3363,3363,3,Africa/Bamako,FALSE,1466406332
Kouniana,Kouniana,,12.5689,-5.1269,Mali,ML,MLI,Sikasso,Sikasso,ML-3,region,,41.7,3294,3294,3,Africa/Bamako,FALSE,1466192629
Kérano,Kerano,Kéréna,15.0311,-2.6861,Mali,ML,MLI,Mopti,Mopti,ML-5,region,,10.3,3289,3289,3,Africa/Bamako,FALSE,1466523142
Mininko,Mininko,Méninko,11.1756,-6.3333,Mali,ML,MLI,Sikasso,Sikasso,ML-3,region,,25.7,3288,3288,3,Africa/Bamako,FALSE,1466637950
Kondi,Kondi,Koundi,16.3667,-3.4833,Mali,ML,MLI,Tombouctou,Tombouctou,ML-6,region,,39.8,3269,3269,3,Africa/Bamako,FALSE,1466266737
Diago,Diago,Niago|Dyago,12.7775,-8.1564,Mali,ML,MLI,Koulikoro,Koulikoro,ML-2,region,,113.8,3269,3269,3,Africa/Bamako,FALSE,1466399668
"Ouro Modi","Ouro Modi","Uro Modi",14.2797,-4.5992,Mali,ML,MLI,Mopti,Mopti,ML-5,region,,36.2,3256,3256,3,Africa/Bamako,FALSE,1466404068
Nkolokoba,Nkolokoba,Koloko,11.2117,-5.9986,Mali,ML,MLI,,,,,,13.0,3242,3242,3,Africa/Bamako,FALSE,1466690553
Ndiébougou,Ndiebougou,Souanyiébougou|Soantiébougou,13.2150,-6.3478,Mali,ML,MLI,Ségou,Segou,ML-4,region,,38.4,3110,3110,3,Africa/Bamako,FALSE,1466800459
Taoudenni,Taoudenni,Taodéni|Taudeni|Taoudéni,22.6667,-3.9833,Mali,ML,MLI,Tombouctou,Tombouctou,ML-6,region,,0.2,3019,3019,4,Africa/Bamako,FALSE,1466976172
Dougouradji,Dougouradji,Doukouradji,16.5264,-3.5533,Mali,ML,MLI,Tombouctou,Tombouctou,ML-6,region,,2.7,3001,3001,3,Africa/Bamako,FALSE,1466729819
Gouméra,Goumera,,14.5575,-11.2986,Mali,ML,MLI,Kayes,Kayes,ML-1,region,,58.1,2770,2770,3,Africa/Bamako,FALSE,1466627441
Doumba,Doumba,,12.0261,-8.1200,Mali,ML,MLI,Koulikoro,Koulikoro,ML-2,region,,31.7,2647,2647,4,Africa/Bamako,TRUE,1466827492
Ngana,Ngana,,11.9000,-6.0500,Mali,ML,MLI,Sikasso,Sikasso,ML-3,region,,54.3,2596,2596,4,Africa/Bamako,FALSE,1466126004
Kola,Kola,,12.2500,-7.9928,Mali,ML,MLI,Koulikoro,Koulikoro,ML-2,region,,49.6,2568,2568,4,Africa/Bamako,TRUE,1466003153
Kanèy,Kaney,Kanaya,16.4167,-3.6000,Mali,ML,MLI,Tombouctou,Tombouctou,ML-6,region,,44.5,2418,2418,3,Africa/Bamako,FALSE,1466483632
Dogani,Dogani,Dagani|Dangani,14.8919,-3.4250,Mali,ML,MLI,Mopti,Mopti,ML-5,region,,30.5,2400,2400,3,Africa/Bamako,FALSE,1466356856
Kirchamba,Kirchamba,Kirssamba,16.3500,-3.2500,Mali,ML,MLI,Tombouctou,Tombouctou,ML-6,region,,72.0,2305,2305,3,Africa/Bamako,FALSE,1466401736
Ti-n-Zaouâtene,Ti-n-Zaouatene,"Fort Pierre Bordes|Bordj Pierre Bordes|Tin Zaouaten",19.9486,2.9678,Mali,ML,MLI,Kidal,Kidal,ML-8,region,,0.3,2300,2300,3,Africa/Bamako,FALSE,1466345222
Faradiélé,Faradiele,,11.3500,-7.6333,Mali,ML,MLI,Sikasso,Sikasso,ML-3,region,,22.3,2130,2130,3,Africa/Bamako,FALSE,1466652859
Missirikoro,Missirikoro,,11.2653,-5.7569,Mali,ML,MLI,Sikasso,Sikasso,ML-3,region,,15.2,2007,2007,3,Africa/Bamako,FALSE,1466858350
Yélimané,Yelimane,,15.1180,-10.5720,Mali,ML,MLI,Kayes,Kayes,ML-1,region,minor,60.8,988,988,3,Africa/Bamako,FALSE,1466380722
Satadougou,Satadougou,"Satadougeu|Satadougou Tintiba",12.6170,-11.4066,Mali,ML,MLI,Kayes,Kayes,ML-1,region,,37.9,706,706,4,Africa/Bamako,FALSE,1466591334
Araouane,Araouane,Araouan|Arawan|Araoune,18.9050,-3.5283,Mali,ML,MLI,Tombouctou,Tombouctou,ML-6,region,,0.2,300,300,4,Africa/Bamako,FALSE,1466354924
"In Khalil","In Khalil",al-Khalil|I-n-Khalil|In-Khalil|Inhalid|El-Khalil,21.1900,1.0403,Mali,ML,MLI,Kidal,Kidal,ML-8,region,,0.3,207,207,4,Africa/Bamako,FALSE,1466706772
Danbaka,Danbaka,,14.7692,-5.1059,Mali,ML,MLI,Mopti,Mopti,ML-5,region,,8.5,,,5,Africa/Bamako,FALSE,1466566093
Dibokori,Dibokori,Digokori,14.6769,-12.0010,Mali,ML,MLI,Kayes,Kayes,ML-1,region,,38.9,,,4,Africa/Bamako,FALSE,1466839406
"Siba Ouro Alifoné","Siba Ouro Alifone",,16.1338,-3.3579,Mali,ML,MLI,Tombouctou,Tombouctou,ML-6,region,,45.2,,,4,Africa/Bamako,FALSE,1466104155
Goulougu,Goulougu,Goulougui,12.9060,-11.1130,Mali,ML,MLI,Kayes,Kayes,ML-1,region,,15.5,,,4,Africa/Bamako,FALSE,1466054240
Laminibougou,Laminibougou,,11.4858,-5.6180,Mali,ML,MLI,Sikasso,Sikasso,ML-3,region,,78.4,,,4,Africa/Bamako,FALSE,1466919104
Laminibougou,Laminibougou,,12.7334,-7.0959,Mali,ML,MLI,Koulikoro,Koulikoro,ML-2,region,,50.7,,,4,Africa/Bamako,FALSE,1466787925
Wolonkotoba,Wolonkotoba,,13.1333,-7.6833,Mali,ML,MLI,,,,,,33.4,,,4,Africa/Bamako,FALSE,1466449025
Diatoula,Diatoula,,12.5101,-7.8583,Mali,ML,MLI,Koulikoro,Koulikoro,ML-2,region,,3333.3,,,2,Africa/Bamako,FALSE,1466669927
Toga,Toga,,15.9800,-3.5959,Mali,ML,MLI,Tombouctou,Tombouctou,ML-6,region,,35.8,,,4,Africa/Bamako,FALSE,1466720580
Toga,Toga,,15.4903,-4.0323,Mali,ML,MLI,Mopti,Mopti,ML-5,region,,34.3,,,4,Africa/Bamako,FALSE,1466431059
Maliguika,Maliguika,,13.4831,-5.9676,Mali,ML,MLI,Ségou,Segou,ML-4,region,,86.0,,,4,Africa/Bamako,FALSE,1466234047
Jibril-Bougou,Jibril-Bougou,,14.4809,-11.5883,Mali,ML,MLI,Kayes,Kayes,ML-1,region,,21.6,,,4,Africa/Bamako,FALSE,1466736658
Darrabougou,Darrabougou,,12.0333,-8.0667,Mali,ML,MLI,,,,,,31.7,,,4,Africa/Bamako,FALSE,1466037719
Sabougou,Sabougou,Saabougou,13.4031,-7.8039,Mali,ML,MLI,Koulikoro,Koulikoro,ML-2,region,,38.2,,,4,Africa/Bamako,FALSE,1466737912
Sabougou,Sabougou,Sobougou,14.9770,-7.5490,Mali,ML,MLI,Koulikoro,Koulikoro,ML-2,region,,23.0,,,4,Africa/Bamako,TRUE,1466474473
Sabougou,Sabougou,,13.9054,-8.0931,Mali,ML,MLI,Koulikoro,Koulikoro,ML-2,region,,21.6,,,4,Africa/Bamako,TRUE,1466444515
Dougourakoroni,Dougourakoroni,,13.2858,-9.4173,Mali,ML,MLI,Kayes,Kayes,ML-1,region,,51.9,,,4,Africa/Bamako,FALSE,1466405136
Sanbakrouïa,Sanbakrouia,,13.9369,-11.7755,Mali,ML,MLI,Kayes,Kayes,ML-1,region,,15.4,,,4,Africa/Bamako,FALSE,1466918305
Dali,Dali,,14.3707,-9.9972,Mali,ML,MLI,Kayes,Kayes,ML-1,region,,32.6,,,4,Africa/Bamako,FALSE,1466992604
Fanidiama,Fanidiama,Fanindiana,10.4833,-5.5667,Mali,ML,MLI,,,,,,175.8,,,4,Africa/Bamako,FALSE,1466000076
Kobadi,Kobadi,,15.3645,-5.4779,Mali,ML,MLI,Ségou,Segou,ML-4,region,,4.0,,,5,Africa/Bamako,FALSE,1466454710
Ti,Ti,,14.6028,-4.0669,Mali,ML,MLI,Mopti,Mopti,ML-5,region,,60.1,,,4,Africa/Bamako,FALSE,1466032137
Ti,Ti,,12.0181,-4.9827,Mali,ML,MLI,Sikasso,Sikasso,ML-3,region,,62.2,,,4,Africa/Bamako,FALSE,1466789400
Kologo,Kologo,,11.1340,-6.8408,Mali,ML,MLI,Sikasso,Sikasso,ML-3,region,,39.7,,,4,Africa/Bamako,FALSE,1466670866
Kologo,Kologo,,11.2230,-7.4910,Mali,ML,MLI,Sikasso,Sikasso,ML-3,region,,30.1,,,4,Africa/Bamako,TRUE,1466456655
Tatianédji,Tatianedji,,15.0405,-9.8103,Mali,ML,MLI,Kayes,Kayes,ML-1,region,,28.9,,,4,Africa/Bamako,FALSE,1466824791
"Komèy Koukou","Komey Koukou",Komékoukou|Komaikoukou,16.7190,-2.6410,Mali,ML,MLI,Tombouctou,Tombouctou,ML-6,region,,17.4,,,4,Africa/Bamako,FALSE,1466360686
Miélou,Mielou,,13.9832,-5.2958,Mali,ML,MLI,Ségou,Segou,ML-4,region,,52.2,,,4,Africa/Bamako,FALSE,1466583017
Fou,Fou,,11.8667,-8.3667,Mali,ML,MLI,,,,,,32.6,,,4,Africa/Bamako,FALSE,1466872384
Fantabougou,Fantabougou,,14.0378,-9.7271,Mali,ML,MLI,Kayes,Kayes,ML-1,region,,17.3,,,4,Africa/Bamako,FALSE,1466520366
Bouabougou,Bouabougou,,12.6934,-8.2354,Mali,ML,MLI,Koulikoro,Koulikoro,ML-2,region,,45.0,,,4,Africa/Bamako,FALSE,1466111160
"Yaya Ouèrè","Yaya Ouere",,13.9594,-6.0888,Mali,ML,MLI,Ségou,Segou,ML-4,region,,157.1,,,4,Africa/Bamako,FALSE,1466530850
Niamalabougou,Niamalabougou,,12.5981,-7.8433,Mali,ML,MLI,Koulikoro,Koulikoro,ML-2,region,,3333.3,,,2,Africa/Bamako,FALSE,1466674580
Falanbougou,Falanbougou,,14.0574,-5.5746,Mali,ML,MLI,Ségou,Segou,ML-4,region,,22.3,,,4,Africa/Bamako,FALSE,1466691569
Naniasso,Naniasso,Nagnasso|Nianiasso,11.1833,-5.8744,Mali,ML,MLI,Sikasso,Sikasso,ML-3,region,,28.1,,,4,Africa/Bamako,FALSE,1466794290
"Soubanou Fara","Soubanou Fara",,14.7354,-10.5603,Mali,ML,MLI,Kayes,Kayes,ML-1,region,,22.9,,,4,Africa/Bamako,FALSE,1466482365
Bougoula,Bougoula,,10.7833,-6.9167,Mali,ML,MLI,,,,,,44.4,,,4,Africa/Bamako,FALSE,1466025322
Kalifaré,Kalifare,,15.4878,-3.7285,Mali,ML,MLI,Mopti,Mopti,ML-5,region,,51.2,,,4,Africa/Bamako,FALSE,1466180051
Dianguéla,Dianguela,,15.7662,-4.2171,Mali,ML,MLI,Tombouctou,Tombouctou,ML-6,region,,26.5,,,4,Africa/Bamako,FALSE,1466296938
Dirakékabougou,Dirakekabougou,,14.3746,-8.4130,Mali,ML,MLI,Kayes,Kayes,ML-1,region,,10.5,,,4,Africa/Bamako,FALSE,1466996608
"Ngama Ouèrè","Ngama Ouere",,13.3163,-6.6090,Mali,ML,MLI,Ségou,Segou,ML-4,region,,81.7,,,4,Africa/Bamako,FALSE,1466863024
Niana,Niana,,13.1070,-5.2272,Mali,ML,MLI,Ségou,Segou,ML-4,region,,59.8,,,4,Africa/Bamako,FALSE,1466967230
Niana,Niana,,14.8029,-3.7785,Mali,ML,MLI,Mopti,Mopti,ML-5,region,,44.9,,,4,Africa/Bamako,FALSE,1466646719
Tinguélé,Tinguele,,11.8955,-7.9611,Mali,ML,MLI,Sikasso,Sikasso,ML-3,region,,61.5,,,4,Africa/Bamako,FALSE,1466853896
Fariga,Fariga,,14.2321,-10.3039,Mali,ML,MLI,Kayes,Kayes,ML-1,region,,23.3,,,4,Africa/Bamako,FALSE,1466643749
Souanièbougou,Souaniebougou,,13.2151,-6.3485,Mali,ML,MLI,Ségou,Segou,ML-4,region,,51.8,,,4,Africa/Bamako,FALSE,1466967285
Bayorobougou,Bayorobougou,,12.8712,-7.2600,Mali,ML,MLI,Koulikoro,Koulikoro,ML-2,region,,74.3,,,4,Africa/Bamako,FALSE,1466308268
Dyarabougou,Dyarabougou,,14.0211,-8.2824,Mali,ML,MLI,Koulikoro,Koulikoro,ML-2,region,,21.6,,,4,Africa/Bamako,FALSE,1466461467
Morodiambougou,Morodiambougou,,12.0181,-7.9455,Mali,ML,MLI,Koulikoro,Koulikoro,ML-2,region,,61.5,,,4,Africa/Bamako,FALSE,1466707372
Siokolo,Siokolo,,12.8868,-6.4050,Mali,ML,MLI,Ségou,Segou,ML-4,region,,50.4,,,4,Africa/Bamako,FALSE,1466227767
Tamarina,Tamarina,Taméréna|Tamaréna,13.3600,-10.8074,Mali,ML,MLI,Kayes,Kayes,ML-1,region,,15.1,,,4,Africa/Bamako,FALSE,1466753710
Lagui,Lagui,,12.1385,-11.0836,Mali,ML,MLI,Kayes,Kayes,ML-1,region,,12.2,,,4,Africa/Bamako,FALSE,1466270141
Gouéni,Goueni,Guéni,13.4816,-6.2559,Mali,ML,MLI,Ségou,Segou,ML-4,region,,44.5,,,4,Africa/Bamako,FALSE,1466006065
Filiki,Filiki,,15.6968,-4.5492,Mali,ML,MLI,Tombouctou,Tombouctou,ML-6,region,,15.9,,,4,Africa/Bamako,FALSE,1466853380
Gouéni,Goueni,,13.5884,-6.9803,Mali,ML,MLI,Koulikoro,Koulikoro,ML-2,region,,13.3,,,4,Africa/Bamako,FALSE,1466661459
Tomboguina,Tomboguina,,14.0144,-3.3361,Mali,ML,MLI,Mopti,Mopti,ML-5,region,,67.8,,,4,Africa/Bamako,FALSE,1466941615
Guémou-Kassé,Guemou-Kasse,,15.2421,-10.6176,Mali,ML,MLI,Kayes,Kayes,ML-1,region,,60.8,,,4,Africa/Bamako,FALSE,1466465640
Touné,Toune,Touré,13.4005,-4.7643,Mali,ML,MLI,Ségou,Segou,ML-4,region,,44.6,,,4,Africa/Bamako,FALSE,1466614756
Dialamakoli,Dialamakoli,,12.7667,-10.1333,Mali,ML,MLI,,,,,,19.4,,,4,Africa/Bamako,FALSE,1466856142
Dyadyébi,Dyadyebi,,16.1363,-3.7282,Mali,ML,MLI,Tombouctou,Tombouctou,ML-6,region,,117.4,,,4,Africa/Bamako,FALSE,1466567173
Kolosso,Kolosso,Koloso,11.1190,-6.5499,Mali,ML,MLI,Sikasso,Sikasso,ML-3,region,,31.3,,,4,Africa/Bamako,FALSE,1466073164
Nianganabougou,Nianganabougou,,12.1526,-8.3033,Mali,ML,MLI,Koulikoro,Koulikoro,ML-2,region,,52.1,,,4,Africa/Bamako,FALSE,1466355723
Kouniakari,Kouniakari,,13.0781,-10.4151,Mali,ML,MLI,Kayes,Kayes,ML-1,region,,14.8,,,4,Africa/Bamako,FALSE,1466939568
Bogotafara,Bogotafara,,11.0333,-8.3000,Mali,ML,MLI,,,,,,44.8,,,4,Africa/Bamako,FALSE,1466129858
Sanambélé,Sanambele,,12.2854,-7.8236,Mali,ML,MLI,Koulikoro,Koulikoro,ML-2,region,,49.6,,,4,Africa/Bamako,FALSE,1466339905
Niamanédougou,Niamanedougou,Niémédougou,10.9000,-5.8667,Mali,ML,MLI,,,,,,28.1,,,4,Africa/Bamako,FALSE,1466142831
Yoné,Yone,Ioné,16.2847,-3.3274,Mali,ML,MLI,Tombouctou,Tombouctou,ML-6,region,,64.3,,,4,Africa/Bamako,FALSE,1466390821
Fendou-Kayna,Fendou-Kayna,"Fendou Keyna",16.3593,-3.4730,Mali,ML,MLI,Tombouctou,Tombouctou,ML-6,region,,39.8,,,4,Africa/Bamako,FALSE,1466264703
Tourékounda,Tourekounda,,14.3469,-12.0968,Mali,ML,MLI,,,,,,22.5,,,4,Africa/Bamako,FALSE,1466728109
Somonosso,Somonosso,,12.4018,-8.1154,Mali,ML,MLI,Koulikoro,Koulikoro,ML-2,region,,151.5,,,4,Africa/Bamako,FALSE,1466950473
Somonosso,Somonosso,,12.1668,-8.2423,Mali,ML,MLI,Koulikoro,Koulikoro,ML-2,region,,52.1,,,4,Africa/Bamako,TRUE,1466519221
Iribanga,Iribanga,,14.1468,-3.4484,Mali,ML,MLI,Mopti,Mopti,ML-5,region,,95.3,,,4,Africa/Bamako,FALSE,1466265354
Madini,Madini,,12.1765,-11.2127,Mali,ML,MLI,Kayes,Kayes,ML-1,region,,12.2,,,4,Africa/Bamako,FALSE,1466456651
Diassola,Diassola,,11.1075,-7.7711,Mali,ML,MLI,Sikasso,Sikasso,ML-3,region,,32.0,,,4,Africa/Bamako,FALSE,1466408190
Diassola,Diassola,,11.8998,-7.0610,Mali,ML,MLI,Sikasso,Sikasso,ML-3,region,,27.3,,,4,Africa/Bamako,TRUE,1466768754
Nyazanbougou,Nyazanbougou,,12.0850,-6.0315,Mali,ML,MLI,Sikasso,Sikasso,ML-3,region,,48.5,,,4,Africa/Bamako,FALSE,1466577431
Ségoukoura,Segoukoura,,13.9838,-5.5110,Mali,ML,MLI,Ségou,Segou,ML-4,region,,178.3,,,4,Africa/Bamako,FALSE,1466933265
Sambouroubougou,Sambouroubougou,,12.9084,-8.4564,Mali,ML,MLI,Koulikoro,Koulikoro,ML-2,region,,11.5,,,4,Africa/Bamako,FALSE,1466671102
Ogossin,Ogossin,,14.0185,-3.0040,Mali,ML,MLI,Mopti,Mopti,ML-5,region,,57.2,,,4,Africa/Bamako,FALSE,1466813898
Kawéna,Kawena,,13.4112,-7.7796,Mali,ML,MLI,Koulikoro,Koulikoro,ML-2,region,,38.2,,,4,Africa/Bamako,FALSE,1466746212
Kari,Kari,,12.6500,-9.0500,Mali,ML,MLI,,,,,,11.6,,,4,Africa/Bamako,FALSE,1466461002
Fèntiguila,Fentiguila,,13.0881,-6.0920,Mali,ML,MLI,Ségou,Segou,ML-4,region,,98.4,,,4,Africa/Bamako,FALSE,1466606936
Tabonkort,Tabonkort,,15.3826,2.1009,Mali,ML,MLI,Gao,Gao,ML-7,region,,2.3,,,5,Africa/Bamako,FALSE,1466774230
Dogofilini,Dogofilini,,13.3167,-9.1500,Mali,ML,MLI,,,,,,29.5,,,4,Africa/Bamako,FALSE,1466665119
Diartou,Diartou,,15.7880,-4.5839,Mali,ML,MLI,Tombouctou,Tombouctou,ML-6,region,,15.9,,,4,Africa/Bamako,FALSE,1466490154
"Foula Ouèrè","Foula Ouere",,13.2039,-7.3438,Mali,ML,MLI,Koulikoro,Koulikoro,ML-2,region,,49.8,,,4,Africa/Bamako,FALSE,1466904772
"Foula Ouèré","Foula Ouere",,13.7737,-7.7404,Mali,ML,MLI,Koulikoro,Koulikoro,ML-2,region,,38.2,,,4,Africa/Bamako,TRUE,1466569919
Kabakoro,Kabakoro,,14.7020,-9.8547,Mali,ML,MLI,Kayes,Kayes,ML-1,region,,17.0,,,4,Africa/Bamako,FALSE,1466062020
Tianhirisso,Tianhirisso,Thianhirisso,12.3128,-5.2303,Mali,ML,MLI,Sikasso,Sikasso,ML-3,region,,45.7,,,4,Africa/Bamako,FALSE,1466322179
Kéniéba,Kenieba,,12.4842,-8.9183,Mali,ML,MLI,Koulikoro,Koulikoro,ML-2,region,,35.3,,,4,Africa/Bamako,FALSE,1466946747
Kéniéba,Kenieba,Kényéba,12.0444,-8.6281,Mali,ML,MLI,Koulikoro,Koulikoro,ML-2,region,,20.2,,,4,Africa/Bamako,TRUE,1466953860
Térédougou,Teredougou,,13.8252,-4.1705,Mali,ML,MLI,Ségou,Segou,ML-4,region,,34.3,,,4,Africa/Bamako,FALSE,1466158402
Wagnimou,Wagnimou,Ouaïguimou,14.7016,-9.5447,Mali,ML,MLI,Kayes,Kayes,ML-1,region,,42.3,,,4,Africa/Bamako,FALSE,1466648503
Kansila,Kansila,,14.4422,-3.9793,Mali,ML,MLI,Mopti,Mopti,ML-5,region,,47.9,,,4,Africa/Bamako,FALSE,1466398867
Déni,Deni,,13.0046,-6.7969,Mali,ML,MLI,Ségou,Segou,ML-4,region,,69.7,,,4,Africa/Bamako,FALSE,1466614925
Déni,Deni,,13.7033,-7.6090,Mali,ML,MLI,Koulikoro,Koulikoro,ML-2,region,,38.3,,,4,Africa/Bamako,FALSE,1466564735
Djidabougou,Djidabougou,Ndiédabougou|N’djidabougou,13.2697,-6.9658,Mali,ML,MLI,Ségou,Segou,ML-4,region,,55.2,,,4,Africa/Bamako,FALSE,1466375312
Boukabougouda,Boukabougouda,,12.4500,-7.9385,Mali,ML,MLI,Koulikoro,Koulikoro,ML-2,region,,101.6,,,4,Africa/Bamako,FALSE,1466097661
Lamba,Lamba,,14.1472,-10.4473,Mali,ML,MLI,Kayes,Kayes,ML-1,region,,24.3,,,4,Africa/Bamako,FALSE,1466607526
Ntyèani,Ntyeani,,12.9879,-8.1176,Mali,ML,MLI,Koulikoro,Koulikoro,ML-2,region,,50.6,,,4,Africa/Bamako,FALSE,1466203780
Dabo,Dabo,,15.3780,-11.6350,Mali,ML,MLI,Kayes,Kayes,ML-1,region,,23.2,,,4,Africa/Bamako,FALSE,1466000036
Kérou,Kerou,,14.0632,-3.4380,Mali,ML,MLI,Mopti,Mopti,ML-5,region,,104.0,,,4,Africa/Bamako,FALSE,1466207612
Kantaranié,Kantaranie,,13.3761,-11.5335,Mali,ML,MLI,Kayes,Kayes,ML-1,region,,9.4,,,5,Africa/Bamako,FALSE,1466133335
Dessogou,Dessogou,,13.9945,-3.4638,Mali,ML,MLI,Mopti,Mopti,ML-5,region,,109.2,,,4,Africa/Bamako,FALSE,1466999780
Djinétoumaninala,Djinetoumaninala,,10.9500,-7.7500,Mali,ML,MLI,,,,,,18.4,,,4,Africa/Bamako,FALSE,1466312619
Dianguinébougou,Dianguinebougou,Dyéngénébougou,12.9956,-7.1977,Mali,ML,MLI,Koulikoro,Koulikoro,ML-2,region,,48.4,,,4,Africa/Bamako,FALSE,1466100452
Dianguinébougou,Dianguinebougou,Dyanganabougou|Dianguinebougou,12.9752,-7.3954,Mali,ML,MLI,Koulikoro,Koulikoro,ML-2,region,,32.9,,,4,Africa/Bamako,TRUE,1466576581
Dombana,Dombana,Donbana,10.8000,-6.6000,Mali,ML,MLI,,,,,,29.6,,,4,Africa/Bamako,FALSE,1466570621
Niennzanso,Niennzanso,Nienzanso,11.5827,-5.5040,Mali,ML,MLI,Sikasso,Sikasso,ML-3,region,,30.9,,,4,Africa/Bamako,FALSE,1466514114
"Bawo Bowal","Bawo Bowal","Bao Bowal",12.0628,-11.1916,Mali,ML,MLI,Kayes,Kayes,ML-1,region,,12.2,,,4,Africa/Bamako,FALSE,1466634857
Chéoui,Cheoui,,16.9551,-0.9821,Mali,ML,MLI,Gao,Gao,ML-7,region,,2.3,,,5,Africa/Bamako,FALSE,1466126784
Boubabougou,Boubabougou,,13.2000,-7.2500,Mali,ML,MLI,,,,,,32.7,,,4,Africa/Bamako,FALSE,1466805668
Naréyal,Nareyal,,14.4547,-4.8348,Mali,ML,MLI,Mopti,Mopti,ML-5,region,,33.7,,,4,Africa/Bamako,FALSE,1466000738
Talako,Talako,,13.0333,-3.4500,Mali,ML,MLI,,,,,,89.2,,,4,Africa/Ouagadougou,FALSE,1466971153
Daola,Daola,Daoula,12.0912,-6.2376,Mali,ML,MLI,Sikasso,Sikasso,ML-3,region,,58.5,,,4,Africa/Bamako,FALSE,1466157401
Mienga,Mienga,,13.5694,-5.6394,Mali,ML,MLI,Ségou,Segou,ML-4,region,,51.2,,,4,Africa/Bamako,FALSE,1466429395
Dyébougou,Dyebougou,,14.2777,-7.6278,Mali,ML,MLI,Koulikoro,Koulikoro,ML-2,region,,7.7,,,5,Africa/Bamako,FALSE,1466278671
Ambidédi,Ambidedi,,14.5853,-11.7903,Mali,ML,MLI,Kayes,Kayes,ML-1,region,,35.3,,,4,Africa/Bamako,FALSE,1466094998
Ganida,Ganida,,13.4302,-3.5944,Mali,ML,MLI,Mopti,Mopti,ML-5,region,,60.7,,,4,Africa/Bamako,FALSE,1466424370
Foulankriyaba,Foulankriyaba,,15.2449,-1.5541,Mali,ML,MLI,Mopti,Mopti,ML-5,region,,18.1,,,4,Africa/Bamako,FALSE,1466318237
"Saré Guita","Sare Guita",Saré-Guida,14.3668,-4.1945,Mali,ML,MLI,Mopti,Mopti,ML-5,region,,56.9,,,4,Africa/Bamako,FALSE,1466479115
Santyakoura,Santyakoura,,14.3576,-7.8324,Mali,ML,MLI,Koulikoro,Koulikoro,ML-2,region,,14.2,,,4,Africa/Bamako,FALSE,1466785944
Gouélékétiguila,Goueleketiguila,,10.7833,-7.8500,Mali,ML,MLI,,,,,,19.1,,,4,Africa/Bamako,FALSE,1466006142
Boulougou,Boulougou,Bouboukou,13.2711,-8.3878,Mali,ML,MLI,Koulikoro,Koulikoro,ML-2,region,,19.5,,,4,Africa/Bamako,FALSE,1466168074
Plaba,Plaba,,11.2352,-7.2244,Mali,ML,MLI,Sikasso,Sikasso,ML-3,region,,51.0,,,4,Africa/Bamako,FALSE,1466567234
Nokobougou,Nokobougou,,15.5269,-3.6481,Mali,ML,MLI,Tombouctou,Tombouctou,ML-6,region,,45.1,,,4,Africa/Bamako,FALSE,1466550275
Sololomou,Sololomou,,14.0123,-10.8994,Mali,ML,MLI,Kayes,Kayes,ML-1,region,,18.1,,,4,Africa/Bamako,FALSE,1466163647
Yongouriel,Yongouriel,,15.5232,-4.1849,Mali,ML,MLI,Mopti,Mopti,ML-5,region,,22.0,,,4,Africa/Bamako,FALSE,1466553855
Mima,Mima,Mina,11.9307,-6.0969,Mali,ML,MLI,Sikasso,Sikasso,ML-3,region,,54.3,,,4,Africa/Bamako,FALSE,1466809414
Kobougou,Kobougou,,12.4505,-7.6413,Mali,ML,MLI,Koulikoro,Koulikoro,ML-2,region,,93.4,,,4,Africa/Bamako,FALSE,1466796710
Midio-Bouri,Midio-Bouri,,14.5876,-3.7907,Mali,ML,MLI,Mopti,Mopti,ML-5,region,,47.9,,,4,Africa/Bamako,FALSE,1466922402
Tièniana,Tieniana,Kéniana,13.5905,-7.6425,Mali,ML,MLI,Koulikoro,Koulikoro,ML-2,region,,38.6,,,4,Africa/Bamako,FALSE,1466903700
Niamori,Niamori,,15.2470,-9.5634,Mali,ML,MLI,Kayes,Kayes,ML-1,region,,520.9,,,3,Africa/Bamako,FALSE,1466917744
Ngala,Ngala,N’Kala,12.3632,-6.5407,Mali,ML,MLI,Koulikoro,Koulikoro,ML-2,region,,59.0,,,4,Africa/Bamako,FALSE,1466457368
Kawinza,Kawinza,Kaouanza|Kaévenza,15.7800,-4.5225,Mali,ML,MLI,Tombouctou,Tombouctou,ML-6,region,,19.9,,,4,Africa/Bamako,FALSE,1466147550
Maniankoura,Maniankoura,,12.5333,-9.7500,Mali,ML,MLI,,,,,,20.5,,,4,Africa/Bamako,FALSE,1466979404
Soninnkoura,Soninnkoura,Soninkora,13.4500,-6.2333,Mali,ML,MLI,,,,,,4711.9,,,2,Africa/Bamako,FALSE,1466601760
"Siboro Tounbo","Siboro Tounbo",,12.2333,-10.3833,Mali,ML,MLI,,,,,,13.6,,,4,Africa/Bamako,FALSE,1466471065
Patin,Patin,,14.2685,-3.1047,Mali,ML,MLI,Mopti,Mopti,ML-5,region,,96.7,,,4,Africa/Bamako,FALSE,1466306193
Kounian,Kounian,Kougnan,11.6076,-6.5357,Mali,ML,MLI,Sikasso,Sikasso,ML-3,region,,59.6,,,4,Africa/Bamako,FALSE,1466354473
Kounian,Kounian,,12.3183,-5.0594,Mali,ML,MLI,Sikasso,Sikasso,ML-3,region,,56.1,,,4,Africa/Bamako,TRUE,1466492601
Sonkankourani,Sonkankourani,,12.4894,-7.2947,Mali,ML,MLI,Koulikoro,Koulikoro,ML-2,region,,42.7,,,4,Africa/Bamako,FALSE,1466316645
Molinntakou-Ouro,Molinntakou-Ouro,,14.8819,-3.7877,Mali,ML,MLI,Mopti,Mopti,ML-5,region,,44.9,,,4,Africa/Bamako,FALSE,1466794117
Klokan,Klokan,,13.4078,-7.8740,Mali,ML,MLI,Koulikoro,Koulikoro,ML-2,region,,38.2,,,4,Africa/Bamako,FALSE,1466125408
Ziéna,Ziena,Zina|Jina,12.2042,-5.6917,Mali,ML,MLI,Sikasso,Sikasso,ML-3,region,,31.0,,,4,Africa/Bamako,FALSE,1466933986
Famou,Famou,,12.4779,-7.5899,Mali,ML,MLI,Koulikoro,Koulikoro,ML-2,region,,43.3,,,4,Africa/Bamako,FALSE,1466748895
Terzey,Terzey,Teurzèy,17.0051,-1.3498,Mali,ML,MLI,Gao,Gao,ML-7,region,,8.1,,,5,Africa/Bamako,FALSE,1466300121
Diabi,Diabi,,14.4375,-4.1332,Mali,ML,MLI,Mopti,Mopti,ML-5,region,,78.5,,,4,Africa/Bamako,FALSE,1466184615
Diabi,Diabi,,14.3556,-4.5817,Mali,ML,MLI,Mopti,Mopti,ML-5,region,,40.4,,,4,Africa/Bamako,TRUE,1466232896
Diabi,Diabi,,15.1407,-4.2936,Mali,ML,MLI,Mopti,Mopti,ML-5,region,,34.8,,,4,Africa/Bamako,TRUE,1466117048
Koumé,Koume,,13.7972,-3.6620,Mali,ML,MLI,Mopti,Mopti,ML-5,region,,95.2,,,4,Africa/Bamako,FALSE,1466336276
Kawobougou,Kawobougou,,12.5241,-5.1206,Mali,ML,MLI,Sikasso,Sikasso,ML-3,region,,107.7,,,4,Africa/Bamako,FALSE,1466688518
Ngalafouga,Ngalafouga,Galofouga,13.6607,-8.0430,Mali,ML,MLI,Koulikoro,Koulikoro,ML-2,region,,48.6,,,4,Africa/Bamako,FALSE,1466002521
Béléko-Noumouna,Beleko-Noumouna,,12.4729,-6.4230,Mali,ML,MLI,Koulikoro,Koulikoro,ML-2,region,,76.4,,,4,Africa/Bamako,FALSE,1466043449
Bayala,Bayala,,12.6167,-9.2333,Mali,ML,MLI,,,,,,12.5,,,4,Africa/Bamako,FALSE,1466483768
"Wolokoro I","Wolokoro I",,12.9653,-6.4907,Mali,ML,MLI,Ségou,Segou,ML-4,region,,50.4,,,4,Africa/Bamako,FALSE,1466937830
Tédeini,Tedeini,Zinzinlébine,16.6046,-4.3634,Mali,ML,MLI,Tombouctou,Tombouctou,ML-6,region,,1.3,,,5,Africa/Bamako,FALSE,1466783230
Koflabè,Koflabe,,13.3741,-9.4182,Mali,ML,MLI,Kayes,Kayes,ML-1,region,,86.0,,,4,Africa/Bamako,FALSE,1466296953
Koflabè,Koflabe,,13.2387,-9.0803,Mali,ML,MLI,Kayes,Kayes,ML-1,region,,29.5,,,4,Africa/Bamako,TRUE,1466570360
Bondo,Bondo,,12.2315,-7.5043,Mali,ML,MLI,Koulikoro,Koulikoro,ML-2,region,,39.0,,,4,Africa/Bamako,FALSE,1466173714
Tougwazana,Tougwazana,,12.2376,-6.3263,Mali,ML,MLI,Koulikoro,Koulikoro,ML-2,region,,47.5,,,4,Africa/Bamako,FALSE,1466579877
Sélofara,Selofara,Célofana|Célofara,12.2249,-8.8358,Mali,ML,MLI,Koulikoro,Koulikoro,ML-2,region,,16.0,,,4,Africa/Bamako,FALSE,1466622518
"Demba Demba","Demba Demba",,15.1500,-9.8667,Mali,ML,MLI,,,,,,28.9,,,4,Africa/Bamako,FALSE,1466204191
Woradougou,Woradougou,,13.6723,-4.2487,Mali,ML,MLI,Ségou,Segou,ML-4,region,,34.3,,,4,Africa/Bamako,FALSE,1466918954
"Tanganaga Tougouné","Tanganaga Tougoune",,15.1399,-7.8136,Mali,ML,MLI,Koulikoro,Koulikoro,ML-2,region,,9.1,,,5,Africa/Bamako,FALSE,1466722442
Kia,Kia,,14.6456,-3.6059,Mali,ML,MLI,Mopti,Mopti,ML-5,region,,32.3,,,4,Africa/Bamako,FALSE,1466506711
Mounta,Mounta,,15.3401,-8.5043,Mali,ML,MLI,Koulikoro,Koulikoro,ML-2,region,,14.9,,,4,Africa/Bamako,FALSE,1466249821
Makono,Makono,,11.9147,-5.7385,Mali,ML,MLI,Sikasso,Sikasso,ML-3,region,,44.5,,,4,Africa/Bamako,FALSE,1466484688
Makono,Makono,,12.6771,-8.1269,Mali,ML,MLI,Koulikoro,Koulikoro,ML-2,region,,55.9,,,4,Africa/Bamako,FALSE,1466566898
Makono,Makono,,12.1688,-8.1868,Mali,ML,MLI,Koulikoro,Koulikoro,ML-2,region,,49.6,,,4,Africa/Bamako,TRUE,1466817602
Diaradoromou,Diaradoromou,,15.0260,-10.8985,Mali,ML,MLI,Kayes,Kayes,ML-1,region,,62.6,,,4,Africa/Bamako,FALSE,1466149708
Fatafi,Fatafi,,14.0162,-10.4228,Mali,ML,MLI,Kayes,Kayes,ML-1,region,,28.9,,,4,Africa/Bamako,FALSE,1466302498
Fatafi,Fatafi,Fatafé,13.3704,-10.2346,Mali,ML,MLI,Kayes,Kayes,ML-1,region,,8.4,,,5,Africa/Bamako,TRUE,1466030552
Bozibougou,Bozibougou,Bonsibougou,12.3414,-6.5560,Mali,ML,MLI,Koulikoro,Koulikoro,ML-2,region,,59.0,,,4,Africa/Bamako,FALSE,1466708158
"Sourou Nanaré","Sourou Nanare",,15.4674,-4.1317,Mali,ML,MLI,Mopti,Mopti,ML-5,region,,22.0,,,4,Africa/Bamako,FALSE,1466433203
Darifoufou,Darifoufou,,12.7300,-7.4074,Mali,ML,MLI,Koulikoro,Koulikoro,ML-2,region,,74.3,,,4,Africa/Bamako,FALSE,1466648559
Nfabougou,Nfabougou,,13.8454,-7.5827,Mali,ML,MLI,Koulikoro,Koulikoro,ML-2,region,,38.3,,,4,Africa/Bamako,FALSE,1466864519
Nfabougou,Nfabougou,,13.9318,-6.1257,Mali,ML,MLI,Ségou,Segou,ML-4,region,,9.5,,,5,Africa/Bamako,FALSE,1466351414
Sibédo,Sibedo,,13.2427,-7.7127,Mali,ML,MLI,Koulikoro,Koulikoro,ML-2,region,,43.2,,,4,Africa/Bamako,FALSE,1466880551
Sériwa,Seriwa,,13.5693,-7.7487,Mali,ML,MLI,Koulikoro,Koulikoro,ML-2,region,,38.2,,,4,Africa/Bamako,FALSE,1466323379
Fantabougou,Fantabougou,,13.4875,-8.1582,Mali,ML,MLI,Koulikoro,Koulikoro,ML-2,region,,29.0,,,4,Africa/Bamako,FALSE,1466425389
Bèmè,Beme,,13.1492,-6.5208,Mali,ML,MLI,Ségou,Segou,ML-4,region,,53.7,,,4,Africa/Bamako,FALSE,1466007494
Donkoro,Donkoro,,12.2427,-7.6216,Mali,ML,MLI,Koulikoro,Koulikoro,ML-2,region,,39.0,,,4,Africa/Bamako,FALSE,1466335803
Tiogola,Tiogola,,11.8764,-5.9260,Mali,ML,MLI,Sikasso,Sikasso,ML-3,region,,72.6,,,4,Africa/Bamako,FALSE,1466843502
Tiogola,Tiogola,,11.1158,-5.8060,Mali,ML,MLI,Sikasso,Sikasso,ML-3,region,,49.9,,,4,Africa/Bamako,TRUE,1466943342
Saré-Hamadi,Sare-Hamadi,,14.7280,-3.9166,Mali,ML,MLI,Mopti,Mopti,ML-5,region,,46.0,,,4,Africa/Bamako,FALSE,1466703043
Fakola,Fakola,,13.5110,-6.0977,Mali,ML,MLI,Ségou,Segou,ML-4,region,,86.8,,,4,Africa/Bamako,FALSE,1466844162
Bodani,Bodani,,13.2481,-5.3216,Mali,ML,MLI,Ségou,Segou,ML-4,region,,57.6,,,4,Africa/Bamako,FALSE,1466643005
Yéré-Yéré,Yere-Yere,,15.0615,-4.4533,Mali,ML,MLI,Mopti,Mopti,ML-5,region,,19.1,,,4,Africa/Bamako,FALSE,1466514815
Sakamara,Sakamara,,15.5596,-4.3951,Mali,ML,MLI,Mopti,Mopti,ML-5,region,,36.3,,,4,Africa/Bamako,FALSE,1466632581
Toumbabounkané,Toumbabounkane,Toumbakoukané,14.6413,-11.9235,Mali,ML,MLI,Kayes,Kayes,ML-1,region,,27.8,,,4,Africa/Bamako,FALSE,1466881342
Sérouma,Serouma,,14.0592,-9.5409,Mali,ML,MLI,Kayes,Kayes,ML-1,region,,12.7,,,4,Africa/Bamako,FALSE,1466343471
Karaolaghwané,Karaolaghwane,Karaolarhwané,14.5990,-8.5379,Mali,ML,MLI,Kayes,Kayes,ML-1,region,,10.3,,,4,Africa/Bamako,FALSE,1466577711
Iloa,Iloa,,16.6473,-2.9052,Mali,ML,MLI,Tombouctou,Tombouctou,ML-6,region,,17.8,,,4,Africa/Bamako,FALSE,1466206255
Koulounyan,Koulounyan,,12.4908,-6.4667,Mali,ML,MLI,Koulikoro,Koulikoro,ML-2,region,,76.4,,,4,Africa/Bamako,FALSE,1466035578
Sindaga,Sindaga,,13.7214,-4.1852,Mali,ML,MLI,Ségou,Segou,ML-4,region,,34.3,,,4,Africa/Bamako,FALSE,1466174266
Soye,Soye,,14.4887,-3.0832,Mali,ML,MLI,Mopti,Mopti,ML-5,region,,13.4,,,4,Africa/Bamako,TRUE,1466643934
Massissébougou,Massissebougou,,14.5463,-9.4065,Mali,ML,MLI,Kayes,Kayes,ML-1,region,,42.3,,,4,Africa/Bamako,FALSE,1466599435
Soumégolo,Soumegolo,,12.6000,-10.2167,Mali,ML,MLI,,,,,,19.4,,,4,Africa/Bamako,FALSE,1466926702
Kanpolosso,Kanpolosso,,12.9541,-5.4591,Mali,ML,MLI,Ségou,Segou,ML-4,region,,105.0,,,4,Africa/Bamako,FALSE,1466812354
Poé,Poe,,15.6323,-3.4140,Mali,ML,MLI,Mopti,Mopti,ML-5,region,,15.6,,,4,Africa/Bamako,FALSE,1466281106
Saladiassa,Saladiassa,,11.1831,-5.4154,Mali,ML,MLI,Sikasso,Sikasso,ML-3,region,,42.9,,,4,Africa/Bamako,FALSE,1466116643
Sébéssounkoto,Sebessounkoto,,13.7477,-11.5471,Mali,ML,MLI,Kayes,Kayes,ML-1,region,,15.4,,,4,Africa/Bamako,FALSE,1466001497
Hâsèï,Hasei,Hasseï,15.0652,-8.5697,Mali,ML,MLI,Koulikoro,Koulikoro,ML-2,region,,14.5,,,4,Africa/Bamako,FALSE,1466224659
Kobotokoni,Kobotokoni,,13.2333,-9.4333,Mali,ML,MLI,,,,,,51.9,,,4,Africa/Bamako,FALSE,1466625852
Lonetou,Lonetou,,14.3478,-11.3475,Mali,ML,MLI,Kayes,Kayes,ML-1,region,,47.7,,,4,Africa/Bamako,FALSE,1466333278
Guétéla,Guetela,,11.7351,-6.0185,Mali,ML,MLI,Sikasso,Sikasso,ML-3,region,,48.4,,,4,Africa/Bamako,FALSE,1466079573
Djida,Djida,,14.8185,-6.9271,Mali,ML,MLI,Koulikoro,Koulikoro,ML-2,region,,5.9,,,5,Africa/Bamako,FALSE,1466827401
Koussikoto,Koussikoto,,13.4052,-11.7932,Mali,ML,MLI,Kayes,Kayes,ML-1,region,,9.4,,,5,Africa/Bamako,FALSE,1466798330
Lawéné,Lawene,,14.9798,-8.6002,Mali,ML,MLI,Koulikoro,Koulikoro,ML-2,region,,14.4,,,4,Africa/Bamako,FALSE,1466975315
Saï,Sai,Say,13.8286,-4.9953,Mali,ML,MLI,Ségou,Segou,ML-4,region,,56.0,,,4,Africa/Bamako,FALSE,1466319403
"Nouhoun Peul","Nouhoun Peul",Nouhoun-Peuhl,14.1746,-4.9128,Mali,ML,MLI,Mopti,Mopti,ML-5,region,,28.3,,,4,Africa/Bamako,FALSE,1466366902
Sinzéni,Sinzeni,,11.0690,-7.0458,Mali,ML,MLI,Sikasso,Sikasso,ML-3,region,,39.7,,,4,Africa/Bamako,FALSE,1466377542
Nakoumana,Nakoumana,,14.3424,-8.2938,Mali,ML,MLI,Kayes,Kayes,ML-1,region,,10.5,,,4,Africa/Bamako,FALSE,1466382125
Toumboundala,Toumboundala,Toumoundala,13.0685,-9.4863,Mali,ML,MLI,Kayes,Kayes,ML-1,region,,73.6,,,4,Africa/Bamako,FALSE,1466748685
Farafé,Farafe,,13.0503,-9.5550,Mali,ML,MLI,Kayes,Kayes,ML-1,region,,42.5,,,4,Africa/Bamako,FALSE,1466746214
Tiombougou,Tiombougou,,13.0536,-6.3670,Mali,ML,MLI,Ségou,Segou,ML-4,region,,50.4,,,4,Africa/Bamako,FALSE,1466248885
Babakabougou,Babakabougou,,14.1318,-8.2624,Mali,ML,MLI,Koulikoro,Koulikoro,ML-2,region,,5.3,,,5,Africa/Bamako,FALSE,1466031442
Waïbéra,Waibera,,11.0666,-5.6734,Mali,ML,MLI,Sikasso,Sikasso,ML-3,region,,54.4,,,4,Africa/Bamako,FALSE,1466329308
Malaya,Malaya,,12.3338,-11.0502,Mali,ML,MLI,Kayes,Kayes,ML-1,region,,10.4,,,4,Africa/Bamako,FALSE,1466341579
Dagambé,Dagambe,Dakambo|Dakombo|Dagumbé,15.4940,-4.0698,Mali,ML,MLI,Mopti,Mopti,ML-5,region,,34.3,,,4,Africa/Bamako,FALSE,1466633745
Diongossé,Diongosse,,13.4178,-5.2198,Mali,ML,MLI,Ségou,Segou,ML-4,region,,45.0,,,4,Africa/Bamako,FALSE,1466050869
Baléya,Baleya,Baléa,12.2267,-9.9642,Mali,ML,MLI,,,,,,9.8,,,5,Africa/Bamako,FALSE,1466660854
Ndoupa,Ndoupa,,15.2936,-5.5148,Mali,ML,MLI,Ségou,Segou,ML-4,region,,4.0,,,5,Africa/Bamako,FALSE,1466441900
Zanguénabougou,Zanguenabougou,Zanguéna|Zangéna,12.7632,-7.1041,Mali,ML,MLI,Koulikoro,Koulikoro,ML-2,region,,50.7,,,4,Africa/Bamako,FALSE,1466855929
Tapou,Tapou,,14.8188,-3.5710,Mali,ML,MLI,Mopti,Mopti,ML-5,region,,32.3,,,4,Africa/Bamako,FALSE,1466954261
Lénékui,Lenekui,,13.0391,-4.5463,Mali,ML,MLI,Ségou,Segou,ML-4,region,,59.9,,,4,Africa/Bamako,FALSE,1466368718
Borokone,Borokone,,13.8753,-11.7042,Mali,ML,MLI,Kayes,Kayes,ML-1,region,,15.4,,,4,Africa/Bamako,FALSE,1466993244
Samataka,Samataka,Samakata,15.2856,-3.9127,Mali,ML,MLI,Mopti,Mopti,ML-5,region,,43.7,,,4,Africa/Bamako,FALSE,1466114963
Kodanko,Kodanko,,12.2076,-8.4984,Mali,ML,MLI,Koulikoro,Koulikoro,ML-2,region,,31.3,,,4,Africa/Bamako,FALSE,1466646272
Solédoré,Soledore,,12.8000,-10.8833,Mali,ML,MLI,,,,,,15.5,,,4,Africa/Bamako,FALSE,1466588249
Fanhala,Fanhala,,10.4667,-7.5500,Mali,ML,MLI,,,,,,23.0,,,4,Africa/Bamako,FALSE,1466704915
Tkiri,Tkiri,,15.2772,-1.6427,Mali,ML,MLI,Mopti,Mopti,ML-5,region,,18.1,,,4,Africa/Bamako,FALSE,1466836706
Famibougou,Famibougou,,11.1081,-5.3818,Mali,ML,MLI,Sikasso,Sikasso,ML-3,region,,39.9,,,4,Africa/Bamako,FALSE,1466810449
Tichilât,Tichilat,Médyougé,15.1313,-7.0437,Mali,ML,MLI,Koulikoro,Koulikoro,ML-2,region,,6.1,,,5,Africa/Bamako,FALSE,1466989752
"Daka Saïdou","Daka Saidou",,11.9500,-10.6667,Mali,ML,MLI,,,,,,13.7,,,4,Africa/Bamako,FALSE,1466284447
Oulassogou,Oulassogou,,13.6779,-3.6923,Mali,ML,MLI,Mopti,Mopti,ML-5,region,,83.4,,,4,Africa/Bamako,FALSE,1466894851
Dempa,Dempa,,14.6202,-9.1867,Mali,ML,MLI,Kayes,Kayes,ML-1,region,,37.0,,,4,Africa/Bamako,FALSE,1466049836
Wahikanou,Wahikanou,,14.6047,-9.1472,Mali,ML,MLI,Kayes,Kayes,ML-1,region,,37.0,,,4,Africa/Bamako,FALSE,1466776105
Doniéna,Doniena,Doména,11.1724,-5.6261,Mali,ML,MLI,Sikasso,Sikasso,ML-3,region,,54.4,,,4,Africa/Bamako,FALSE,1466732061
Batoukorodji,Batoukorodji,,13.8009,-9.0416,Mali,ML,MLI,Kayes,Kayes,ML-1,region,,2.5,,,5,Africa/Bamako,FALSE,1466894543
Balandougou,Balandougou,,12.4291,-8.1447,Mali,ML,MLI,Koulikoro,Koulikoro,ML-2,region,,160.8,,,4,Africa/Bamako,FALSE,1466360325
Guéssédambougou,Guessedambougou,,12.8428,-7.8569,Mali,ML,MLI,Koulikoro,Koulikoro,ML-2,region,,88.0,,,4,Africa/Bamako,FALSE,1466671454
Diolel,Diolel,,14.4983,-4.5316,Mali,ML,MLI,Mopti,Mopti,ML-5,region,,28.7,,,4,Africa/Bamako,FALSE,1466031819
Banay,Banay,,14.6159,-1.8651,Mali,ML,MLI,Mopti,Mopti,ML-5,region,,10.3,,,4,Africa/Bamako,FALSE,1466261317
Kersani,Kersani,Karsani,15.4760,-3.1606,Mali,ML,MLI,Mopti,Mopti,ML-5,region,,15.6,,,4,Africa/Bamako,FALSE,1466125747
Koursalé,Koursale,,12.2590,-8.1837,Mali,ML,MLI,Koulikoro,Koulikoro,ML-2,region,,160.8,,,4,Africa/Bamako,FALSE,1466906681
Guéléninkoro,Gueleninkoro,Gouéléninkoro|Bolénikoro,11.1483,-8.5197,Mali,ML,MLI,,,,,,25.3,,,4,Africa/Bamako,FALSE,1466000092
Tolo,Tolo,,14.8125,-3.0817,Mali,ML,MLI,Mopti,Mopti,ML-5,region,,87.3,,,4,Africa/Bamako,FALSE,1466425470
Tolo,Tolo,,14.8916,-3.2697,Mali,ML,MLI,Mopti,Mopti,ML-5,region,,47.7,,,4,Africa/Bamako,TRUE,1466418585
Nakouna,Nakouna,,11.2534,-6.3578,Mali,ML,MLI,Sikasso,Sikasso,ML-3,region,,48.9,,,4,Africa/Bamako,FALSE,1466592549
Zangousso,Zangousso,,12.6827,-5.0260,Mali,ML,MLI,Ségou,Segou,ML-4,region,,110.9,,,4,Africa/Bamako,FALSE,1466037551
Touroula,Touroula,Touralla,14.7616,-11.6708,Mali,ML,MLI,Kayes,Kayes,ML-1,region,,23.8,,,4,Africa/Bamako,FALSE,1466350823
Bonboti,Bonboti,,13.6159,-8.9136,Mali,ML,MLI,Kayes,Kayes,ML-1,region,,2.5,,,5,Africa/Bamako,FALSE,1466814918
Fouloumba,Fouloumba,Foulounba,13.1816,-9.8527,Mali,ML,MLI,Kayes,Kayes,ML-1,region,,15.8,,,4,Africa/Bamako,FALSE,1466215082
Issoua,Issoua,,15.0190,-1.8019,Mali,ML,MLI,Mopti,Mopti,ML-5,region,,18.0,,,4,Africa/Bamako,FALSE,1466953269
Toukou,Toukou,,12.1513,-11.0773,Mali,ML,MLI,Kayes,Kayes,ML-1,region,,12.2,,,4,Africa/Bamako,FALSE,1466287204
Saorané,Saorane,,14.3223,-10.8180,Mali,ML,MLI,Kayes,Kayes,ML-1,region,,28.9,,,4,Africa/Bamako,FALSE,1466986862
Tiérakui,Tierakui,,13.4105,-4.3458,Mali,ML,MLI,Ségou,Segou,ML-4,region,,32.3,,,4,Africa/Bamako,FALSE,1466194246
Tiérakui,Tierakui,,13.1891,-4.2522,Mali,ML,MLI,Ségou,Segou,ML-4,region,,32.3,,,4,Africa/Bamako,TRUE,1466972804
Dlana,Dlana,,13.2300,-7.4265,Mali,ML,MLI,Koulikoro,Koulikoro,ML-2,region,,49.8,,,4,Africa/Bamako,FALSE,1466263831
Barama,Barama,,14.3243,-9.9320,Mali,ML,MLI,Kayes,Kayes,ML-1,region,,30.9,,,4,Africa/Bamako,FALSE,1466759086
Bokoutinnti,Bokoutinnti,,13.7884,-11.8774,Mali,ML,MLI,Kayes,Kayes,ML-1,region,,15.4,,,4,Africa/Bamako,FALSE,1466660696
Dadembougou,Dadembougou,Dadanbougou,13.5031,-6.0564,Mali,ML,MLI,Ségou,Segou,ML-4,region,,86.8,,,4,Africa/Bamako,FALSE,1466123831
Tétou,Tetou,Tetuu,12.9575,-4.3265,Mali,ML,MLI,Ségou,Segou,ML-4,region,,56.0,,,4,Africa/Bamako,FALSE,1466191495
Ngoloblébougou,Ngoloblebougou,Molèbélébougou,13.3565,-7.8531,Mali,ML,MLI,Koulikoro,Koulikoro,ML-2,region,,38.2,,,4,Africa/Bamako,FALSE,1466930574
Norobéli,Norobeli,,15.0020,-7.5401,Mali,ML,MLI,Koulikoro,Koulikoro,ML-2,region,,23.0,,,4,Africa/Bamako,FALSE,1466872300
Sagombougou,Sagombougou,Sakobougou,13.4611,-7.2395,Mali,ML,MLI,Koulikoro,Koulikoro,ML-2,region,,98.3,,,4,Africa/Bamako,FALSE,1466731182
Souroukoun,Souroukoun,Yélimané,13.2734,-9.9597,Mali,ML,MLI,Kayes,Kayes,ML-1,region,,5.0,,,5,Africa/Bamako,FALSE,1466489972
Tianniana,Tianniana,Tiniana,11.1653,-6.9661,Mali,ML,MLI,Sikasso,Sikasso,ML-3,region,,39.7,,,4,Africa/Bamako,FALSE,1466102510
Fadougou,Fadougou,,12.2167,-10.6833,Mali,ML,MLI,,,,,,13.7,,,4,Africa/Bamako,FALSE,1466899838
Fadougou,Fadougou,,12.1000,-10.5667,Mali,ML,MLI,,,,,,13.7,,,4,Africa/Bamako,TRUE,1466272677
Kobadinié,Kobadinie,Kobadéguié,13.7297,-7.4778,Mali,ML,MLI,Koulikoro,Koulikoro,ML-2,region,,38.3,,,4,Africa/Bamako,FALSE,1466696791
Saguibougou,Saguibougou,,13.2167,-7.5000,Mali,ML,MLI,,,,,,49.8,,,4,Africa/Bamako,FALSE,1466513213
Boundéri,Bounderi,,13.6093,-3.7618,Mali,ML,MLI,Mopti,Mopti,ML-5,region,,63.1,,,4,Africa/Bamako,FALSE,1466260262
Kamana,Kamana,,15.0303,-9.7523,Mali,ML,MLI,Kayes,Kayes,ML-1,region,,23.2,,,4,Africa/Bamako,FALSE,1466290037
Kamana,Kamana,,14.1758,-10.1271,Mali,ML,MLI,Kayes,Kayes,ML-1,region,,23.0,,,4,Africa/Bamako,TRUE,1466297125
Wonon,Wonon,,13.9593,-4.6178,Mali,ML,MLI,Mopti,Mopti,ML-5,region,,78.5,,,4,Africa/Bamako,FALSE,1466608196
Bougourinké-Ouro,Bougourinke-Ouro,,15.4490,-3.7893,Mali,ML,MLI,Mopti,Mopti,ML-5,region,,51.2,,,4,Africa/Bamako,FALSE,1466667240
Kamana,Kamana,,14.4237,-3.3957,Mali,ML,MLI,Mopti,Mopti,ML-5,region,,106.6,,,4,Africa/Bamako,FALSE,1466323667
Foura,Foura,,12.8472,-7.7355,Mali,ML,MLI,Koulikoro,Koulikoro,ML-2,region,,34.8,,,4,Africa/Bamako,FALSE,1466043867
Arièy,Ariey,,16.7735,-3.8730,Mali,ML,MLI,Tombouctou,Tombouctou,ML-6,region,,1.5,,,5,Africa/Bamako,FALSE,1466138364
Sitafoula,Sitafoula,,13.7888,-10.8985,Mali,ML,MLI,Kayes,Kayes,ML-1,region,,15.1,,,4,Africa/Bamako,FALSE,1466148724
Toumi-Diaka,Toumi-Diaka,,14.0060,-4.6768,Mali,ML,MLI,Mopti,Mopti,ML-5,region,,67.6,,,4,Africa/Bamako,FALSE,1466671933
Kariba,Kariba,,13.4945,-5.8927,Mali,ML,MLI,Ségou,Segou,ML-4,region,,42.9,,,4,Africa/Bamako,FALSE,1466355165
"Nafadji Koro","Nafadji Koro",Konkasser,12.8969,-8.7269,Mali,ML,MLI,Kayes,Kayes,ML-1,region,,29.7,,,4,Africa/Bamako,FALSE,1466224466
Idiéli-Goudana,Idieli-Goudana,Idiéli,14.3395,-3.3888,Mali,ML,MLI,Mopti,Mopti,ML-5,region,,75.7,,,4,Africa/Bamako,FALSE,1466721393
Maïka,Maika,,13.6246,-5.1168,Mali,ML,MLI,Ségou,Segou,ML-4,region,,72.2,,,4,Africa/Bamako,FALSE,1466404616
Woléla,Wolela,,12.0399,-5.1433,Mali,ML,MLI,Sikasso,Sikasso,ML-3,region,,62.2,,,4,Africa/Bamako,FALSE,1466925344
Wol-Maoundé,Wol-Maounde,,14.1873,-3.4294,Mali,ML,MLI,Mopti,Mopti,ML-5,region,,95.3,,,4,Africa/Bamako,FALSE,1466904745
Koronga,Koronga,,14.7670,-10.0940,Mali,ML,MLI,Kayes,Kayes,ML-1,region,,16.3,,,4,Africa/Bamako,FALSE,1466435922
Bara,Bara,,15.8071,0.3245,Mali,ML,MLI,Gao,Gao,ML-7,region,,22.0,,,4,Africa/Bamako,FALSE,1466487397
Mbélize,Mbelize,,15.2950,-10.7340,Mali,ML,MLI,Kayes,Kayes,ML-1,region,,23.9,,,4,Africa/Bamako,FALSE,1466183875
Kouroubara,Kouroubara,,12.7550,-4.5940,Mali,ML,MLI,Sikasso,Sikasso,ML-3,region,,42.3,,,4,Africa/Bamako,FALSE,1466206826
Ntouana,Ntouana,Touana,13.6528,-7.4595,Mali,ML,MLI,Koulikoro,Koulikoro,ML-2,region,,77.2,,,4,Africa/Bamako,FALSE,1466842212
Koundouba,Koundouba,,14.8769,-4.3552,Mali,ML,MLI,Mopti,Mopti,ML-5,region,,32.5,,,4,Africa/Bamako,FALSE,1466573313
Sambaguidé,Sambaguide,,13.9825,-10.2840,Mali,ML,MLI,Kayes,Kayes,ML-1,region,,28.9,,,4,Africa/Bamako,FALSE,1466489391
Ziwaz,Ziwaz,,14.9661,-11.3001,Mali,ML,MLI,Kayes,Kayes,ML-1,region,,10.4,,,4,Africa/Bamako,FALSE,1466091863
Djimatogo,Djimatogo,,13.9794,-4.6622,Mali,ML,MLI,Mopti,Mopti,ML-5,region,,78.5,,,4,Africa/Bamako,FALSE,1466443895
"Salaba Ouèrè","Salaba Ouere",,13.4124,-6.9338,Mali,ML,MLI,Koulikoro,Koulikoro,ML-2,region,,37.4,,,4,Africa/Bamako,FALSE,1466563717
Tian,Tian,,13.1459,-8.7835,Mali,ML,MLI,Kayes,Kayes,ML-1,region,,2.5,,,5,Africa/Bamako,FALSE,1466401793
Moukoumaka,Moukoumaka,,12.5902,-8.7332,Mali,ML,MLI,Koulikoro,Koulikoro,ML-2,region,,14.9,,,4,Africa/Bamako,FALSE,1466221342
Dianirila,Dianirila,,11.9956,-7.3046,Mali,ML,MLI,Sikasso,Sikasso,ML-3,region,,25.4,,,4,Africa/Bamako,FALSE,1466826497
"Taya Maléa","Taya Malea","Maléïa Taïa|Taïa-Maléa",12.2845,-11.1612,Mali,ML,MLI,Kayes,Kayes,ML-1,region,,12.2,,,4,Africa/Bamako,FALSE,1466940821
Diarakala,Diarakala,Bouakaribougou,14.0755,-5.5621,Mali,ML,MLI,Ségou,Segou,ML-4,region,,22.3,,,4,Africa/Bamako,FALSE,1466474055
Djélissadji,Djelissadji,,13.3139,-9.3439,Mali,ML,MLI,Kayes,Kayes,ML-1,region,,51.9,,,4,Africa/Bamako,FALSE,1466992415
Kokékabougou,Kokekabougou,,13.2885,-6.3678,Mali,ML,MLI,Ségou,Segou,ML-4,region,,53.7,,,4,Africa/Bamako,FALSE,1466540348
Lokana,Lokana,,12.2530,-4.6238,Mali,ML,MLI,Sikasso,Sikasso,ML-3,region,,49.1,,,4,Africa/Bamako,FALSE,1466013344
Borongo,Borongo,,14.4613,-4.6318,Mali,ML,MLI,Mopti,Mopti,ML-5,region,,28.7,,,4,Africa/Bamako,FALSE,1466443059
Bambila,Bambila,Banbila,13.8416,-7.3651,Mali,ML,MLI,Koulikoro,Koulikoro,ML-2,region,,15.0,,,4,Africa/Bamako,FALSE,1466325562
Sadia,Sadia,,14.0738,-3.6105,Mali,ML,MLI,Mopti,Mopti,ML-5,region,,90.2,,,4,Africa/Bamako,FALSE,1466379750
Salamou,Salamou,,14.6486,-11.0558,Mali,ML,MLI,Kayes,Kayes,ML-1,region,,108.2,,,4,Africa/Bamako,FALSE,1466327901
Doufanian,Doufanian,,13.8702,-7.9937,Mali,ML,MLI,Koulikoro,Koulikoro,ML-2,region,,21.6,,,4,Africa/Bamako,FALSE,1466652739
Mana,Mana,,12.7840,-6.3726,Mali,ML,MLI,Ségou,Segou,ML-4,region,,36.9,,,4,Africa/Bamako,FALSE,1466704031
Moudian,Moudian,,12.6082,-7.3208,Mali,ML,MLI,Koulikoro,Koulikoro,ML-2,region,,42.7,,,4,Africa/Bamako,FALSE,1466892549
Sépéla,Sepela,,11.0000,-6.0833,Mali,ML,MLI,,,,,,28.1,,,4,Africa/Bamako,FALSE,1466201321
Farissouma,Farissouma,,13.1076,-6.1269,Mali,ML,MLI,Ségou,Segou,ML-4,region,,98.4,,,4,Africa/Bamako,FALSE,1466628706
Soya,Soya,Soïa,13.2079,-6.6884,Mali,ML,MLI,Ségou,Segou,ML-4,region,,55.2,,,4,Africa/Bamako,FALSE,1466867181
Koufa,Koufa,,15.8503,-3.6661,Mali,ML,MLI,Tombouctou,Tombouctou,ML-6,region,,42.0,,,4,Africa/Bamako,FALSE,1466675860
Madiari,Madiari,Madiani,13.1467,-9.5141,Mali,ML,MLI,Kayes,Kayes,ML-1,region,,27.0,,,4,Africa/Bamako,FALSE,1466460323
"Mamadou Dialola","Mamadou Dialola",,14.3528,-11.4827,Mali,ML,MLI,Kayes,Kayes,ML-1,region,,124.0,,,4,Africa/Bamako,FALSE,1466549000
Guirifila,Guirifila,,13.3624,-7.4306,Mali,ML,MLI,Koulikoro,Koulikoro,ML-2,region,,98.3,,,4,Africa/Bamako,FALSE,1466823253
"Dougabougou Koroni","Dougabougou Koroni",,13.8462,-6.1445,Mali,ML,MLI,Ségou,Segou,ML-4,region,,221.7,,,3,Africa/Bamako,FALSE,1466624385
Zabantoukoro,Zabantoukoro,,13.3018,-7.6675,Mali,ML,MLI,Koulikoro,Koulikoro,ML-2,region,,49.8,,,4,Africa/Bamako,FALSE,1466709403
Kandyourou,Kandyourou,Kandiourou,14.6042,-6.1333,Mali,ML,MLI,Ségou,Segou,ML-4,region,,20.0,,,4,Africa/Bamako,FALSE,1466207172
Dangalambougou,Dangalambougou,,13.4655,-6.8954,Mali,ML,MLI,Koulikoro,Koulikoro,ML-2,region,,37.4,,,4,Africa/Bamako,FALSE,1466997898
Niantéléla,Niantelela,,13.7021,-8.6931,Mali,ML,MLI,Kayes,Kayes,ML-1,region,,2.5,,,5,Africa/Bamako,FALSE,1466342646
Fodébougou,Fodebougou,,12.5333,-9.8167,Mali,ML,MLI,,,,,,20.5,,,4,Africa/Bamako,FALSE,1466106022
Fangadougou,Fangadougou,,14.1520,-4.0628,Mali,ML,MLI,Mopti,Mopti,ML-5,region,,35.0,,,4,Africa/Bamako,FALSE,1466913874
Gogoro,Gogoro,,15.2194,-2.3733,Mali,ML,MLI,Mopti,Mopti,ML-5,region,,13.5,,,4,Africa/Bamako,FALSE,1466377384
Boundioba,Boundioba,,11.0398,-6.9823,Mali,ML,MLI,Sikasso,Sikasso,ML-3,region,,39.7,,,4,Africa/Bamako,FALSE,1466638507
Dienkoro,Dienkoro,,11.8725,-7.3972,Mali,ML,MLI,Sikasso,Sikasso,ML-3,region,,25.7,,,4,Africa/Bamako,FALSE,1466143542
Nbiébougou,Nbiebougou,,14.2169,-5.6123,Mali,ML,MLI,Ségou,Segou,ML-4,region,,22.3,,,4,Africa/Bamako,FALSE,1466064003
Diankou,Diankou,,13.6623,-5.0381,Mali,ML,MLI,Ségou,Segou,ML-4,region,,56.0,,,4,Africa/Bamako,FALSE,1466987629
Dienkoro,Dienkoro,,13.0626,-6.7524,Mali,ML,MLI,Ségou,Segou,ML-4,region,,69.7,,,4,Africa/Bamako,FALSE,1466881524
Moinka,Moinka,Kouroubabougou,13.6340,-5.3791,Mali,ML,MLI,Ségou,Segou,ML-4,region,,41.7,,,4,Africa/Bamako,FALSE,1466590734
Ata,Ata,Atta|Attaï,16.1841,-3.7160,Mali,ML,MLI,Tombouctou,Tombouctou,ML-6,region,,117.4,,,4,Africa/Bamako,FALSE,1466563055
"Dako Bambara","Dako Bambara",,15.6033,-4.0426,Mali,ML,MLI,Mopti,Mopti,ML-5,region,,34.3,,,4,Africa/Bamako,FALSE,1466000001
Sananfarakoro,Sananfarakoro,Sananfarakourou|Sananfara,13.2069,-9.2638,Mali,ML,MLI,Kayes,Kayes,ML-1,region,,29.5,,,4,Africa/Bamako,FALSE,1466081495
Elémé,Eleme,,14.9401,-10.5028,Mali,ML,MLI,Kayes,Kayes,ML-1,region,,17.0,,,4,Africa/Bamako,FALSE,1466564881
Sakababougou,Sakababougou,,13.7729,-7.6731,Mali,ML,MLI,Koulikoro,Koulikoro,ML-2,region,,38.2,,,4,Africa/Bamako,FALSE,1466225282
Yaléa,Yalea,,12.0667,-10.7167,Mali,ML,MLI,,,,,,13.7,,,4,Africa/Bamako,FALSE,1466842478
Kéniema,Keniema,,14.0061,-11.5410,Mali,ML,MLI,Kayes,Kayes,ML-1,region,,15.4,,,4,Africa/Bamako,FALSE,1466961936
Kéniéma,Keniema,,13.1631,-10.7462,Mali,ML,MLI,Kayes,Kayes,ML-1,region,,7.9,,,5,Africa/Bamako,TRUE,1466000093
Bagni,Bagni,Baguy|Bagny,13.4913,-10.4065,Mali,ML,MLI,Kayes,Kayes,ML-1,region,,8.4,,,5,Africa/Bamako,FALSE,1466591486
Ngolona,Ngolona,Nqolona,10.4667,-5.8333,Mali,ML,MLI,,,,,,112.7,,,4,Africa/Bamako,FALSE,1466101475
Nissanata,Nissanata,Missirata|Nisanata|Missinata,15.1034,-2.2254,Mali,ML,MLI,Mopti,Mopti,ML-5,region,,13.5,,,4,Africa/Bamako,FALSE,1466001195
Amakouladji,Amakouladji,,16.6053,-0.1061,Mali,ML,MLI,Gao,Gao,ML-7,region,,78.9,,,4,Africa/Bamako,FALSE,1466786672
Amadilimane,Amadilimane,,14.7807,-5.8300,Mali,ML,MLI,Ségou,Segou,ML-4,region,,38.1,,,4,Africa/Bamako,FALSE,1466970230
Nendiara,Nendiara,,14.3523,-10.3241,Mali,ML,MLI,Kayes,Kayes,ML-1,region,,24.8,,,4,Africa/Bamako,FALSE,1466615112
Bouossohui,Bouossohui,,13.5993,-4.3591,Mali,ML,MLI,Ségou,Segou,ML-4,region,,42.7,,,4,Africa/Bamako,FALSE,1466816435
Nkoribougou,Nkoribougou,,13.9333,-8.2266,Mali,ML,MLI,Koulikoro,Koulikoro,ML-2,region,,21.6,,,4,Africa/Bamako,FALSE,1466342273
Kammraga,Kammraga,,13.9281,-4.5623,Mali,ML,MLI,Mopti,Mopti,ML-5,region,,298.0,,,3,Africa/Bamako,FALSE,1466245636
Titolaouin,Titolaouin,Titoulaouin|Titolaouine,16.0925,-2.6187,Mali,ML,MLI,Tombouctou,Tombouctou,ML-6,region,,1.3,,,5,Africa/Bamako,FALSE,1466264604
Tyèkéna,Tyekena,,12.5787,-7.8135,Mali,ML,MLI,Koulikoro,Koulikoro,ML-2,region,,93.4,,,4,Africa/Bamako,FALSE,1466971461
Nionina,Nionina,,12.9867,-5.9944,Mali,ML,MLI,Ségou,Segou,ML-4,region,,93.6,,,4,Africa/Bamako,FALSE,1466362235
Nionina,Nionina,,13.6082,-5.5456,Mali,ML,MLI,Ségou,Segou,ML-4,region,,51.2,,,4,Africa/Bamako,TRUE,1466411004
Talia,Talia,,13.8683,-4.3744,Mali,ML,MLI,Mopti,Mopti,ML-5,region,,91.1,,,4,Africa/Bamako,FALSE,1466732587
Sélimanbougou,Selimanbougou,,14.4404,-11.5507,Mali,ML,MLI,Kayes,Kayes,ML-1,region,,28.5,,,4,Africa/Bamako,FALSE,1466741130
Argaga,Argaga,,16.7428,-0.2492,Mali,ML,MLI,Gao,Gao,ML-7,region,,18.1,,,4,Africa/Bamako,FALSE,1466154864
Kodétèmbougou,Kodetembougou,,12.7491,-7.3170,Mali,ML,MLI,Koulikoro,Koulikoro,ML-2,region,,74.3,,,4,Africa/Bamako,FALSE,1466072957
Niobougou,Niobougou,,14.4011,-5.8778,Mali,ML,MLI,Ségou,Segou,ML-4,region,,221.5,,,3,Africa/Bamako,FALSE,1466072686
Niobougou,Niobougou,Niombugu|Niombougou,13.5532,-5.4544,Mali,ML,MLI,Ségou,Segou,ML-4,region,,31.2,,,4,Africa/Bamako,TRUE,1466835001
Sanfinian,Sanfinian,Sanfignan,12.5000,-9.9167,Mali,ML,MLI,,,,,,20.5,,,4,Africa/Bamako,FALSE,1466889116
Doungoudie,Doungoudie,,15.7848,-3.3947,Mali,ML,MLI,Tombouctou,Tombouctou,ML-6,region,,42.0,,,4,Africa/Bamako,FALSE,1466630955
Namadel,Namadel,,15.9553,-3.5403,Mali,ML,MLI,Tombouctou,Tombouctou,ML-6,region,,35.8,,,4,Africa/Bamako,FALSE,1466642500
Téké,Teke,,14.3434,-4.2730,Mali,ML,MLI,Mopti,Mopti,ML-5,region,,27.4,,,4,Africa/Bamako,FALSE,1466510217
"Sirifi Ouèrè","Sirifi Ouere",,13.5624,-6.1944,Mali,ML,MLI,Ségou,Segou,ML-4,region,,18.8,,,4,Africa/Bamako,FALSE,1466569866
Béguéné,Beguene,Baguini|Bégéné,12.7219,-6.5062,Mali,ML,MLI,Ségou,Segou,ML-4,region,,36.9,,,4,Africa/Bamako,FALSE,1466628739
Zéguédou,Zeguedou,Zeguedugu|Zéguédougou,10.4000,-5.9000,Mali,ML,MLI,,,,,,209.7,,,3,Africa/Bamako,FALSE,1466151525
Souara,Souara,,13.2045,-4.6060,Mali,ML,MLI,Ségou,Segou,ML-4,region,,60.7,,,4,Africa/Bamako,FALSE,1466087156
Bougarifara,Bougarifara,Boukaréfara,13.3052,-9.1476,Mali,ML,MLI,Kayes,Kayes,ML-1,region,,29.5,,,4,Africa/Bamako,FALSE,1466595562
Zéguéré,Zeguere,Nzéguéré,10.5833,-6.7333,Mali,ML,MLI,,,,,,49.9,,,4,Africa/Bamako,FALSE,1466765132
Noumpesso,Noumpesso,,12.5869,-5.2890,Mali,ML,MLI,Sikasso,Sikasso,ML-3,region,,101.1,,,4,Africa/Bamako,FALSE,1466584622
Koulala,Koulala,Koutala,13.0135,-6.9207,Mali,ML,MLI,Ségou,Segou,ML-4,region,,69.7,,,4,Africa/Bamako,FALSE,1466887529
Sitakili,Sitakili,,12.0500,-9.7167,Mali,ML,MLI,,,,,,9.8,,,5,Africa/Bamako,FALSE,1466198219
Ngonyokora,Ngonyokora,,14.1686,-7.7575,Mali,ML,MLI,Koulikoro,Koulikoro,ML-2,region,,25.3,,,4,Africa/Bamako,FALSE,1466036060
Manakoto,Manakoto,,13.2885,-9.3605,Mali,ML,MLI,Kayes,Kayes,ML-1,region,,13.2,,,4,Africa/Bamako,FALSE,1466166829
Alassanila,Alassanila,,14.3474,-11.4851,Mali,ML,MLI,Kayes,Kayes,ML-1,region,,124.0,,,4,Africa/Bamako,FALSE,1466890415
Sagalabougou,Sagalabougou,,13.4926,-5.3389,Mali,ML,MLI,Ségou,Segou,ML-4,region,,31.2,,,4,Africa/Bamako,FALSE,1466483590
Langanania,Langanania,,12.4333,-9.9000,Mali,ML,MLI,,,,,,20.5,,,4,Africa/Bamako,FALSE,1466513278
Ziélani,Zielani,,11.9632,-7.9316,Mali,ML,MLI,Koulikoro,Koulikoro,ML-2,region,,61.5,,,4,Africa/Bamako,FALSE,1466526618
"Souraka Bougoundi","Souraka Bougoundi",,14.2931,-11.6888,Mali,ML,MLI,Kayes,Kayes,ML-1,region,,15.4,,,4,Africa/Bamako,FALSE,1466787137
Dongossori,Dongossori,,14.6296,-3.5750,Mali,ML,MLI,Mopti,Mopti,ML-5,region,,32.3,,,4,Africa/Bamako,FALSE,1466055371
Farako,Farako,,13.4104,-6.3895,Mali,ML,MLI,Ségou,Segou,ML-4,region,,77.5,,,4,Africa/Bamako,FALSE,1466313841
Nia-Ouro,Nia-Ouro,,14.0097,-4.1238,Mali,ML,MLI,Mopti,Mopti,ML-5,region,,78.5,,,4,Africa/Bamako,FALSE,1466105713
Dio-Village,Dio-Village,,12.8262,-8.2648,Mali,ML,MLI,Koulikoro,Koulikoro,ML-2,region,,106.7,,,4,Africa/Bamako,FALSE,1466227842
Koroko,Koroko,,10.4500,-7.3333,Mali,ML,MLI,,,,,,24.0,,,4,Africa/Bamako,FALSE,1466145149
Guélédo,Gueledo,Gélédo,14.4533,-8.0560,Mali,ML,MLI,Koulikoro,Koulikoro,ML-2,region,,14.2,,,4,Africa/Bamako,FALSE,1466168173
"Massina Ouèrè","Massina Ouere",,13.5003,-6.1081,Mali,ML,MLI,Ségou,Segou,ML-4,region,,257.2,,,3,Africa/Bamako,FALSE,1466010123
"Sobougou Fitobé","Sobougou Fitobe",,14.0000,-7.4167,Mali,ML,MLI,,,,,,25.3,,,4,Africa/Bamako,FALSE,1466887615
Oulountou,Oulountou,,14.7178,-9.5101,Mali,ML,MLI,Kayes,Kayes,ML-1,region,,42.3,,,4,Africa/Bamako,FALSE,1466360328
Kongay,Kongay,,16.9711,-0.3828,Mali,ML,MLI,Gao,Gao,ML-7,region,,5.5,,,5,Africa/Bamako,FALSE,1466449258
Paparéda,Papareda,,14.1752,-11.2844,Mali,ML,MLI,Kayes,Kayes,ML-1,region,,6.7,,,5,Africa/Bamako,FALSE,1466112527
Touantankabougou,Touantankabougou,Touandangabougou,13.4238,-7.4957,Mali,ML,MLI,Koulikoro,Koulikoro,ML-2,region,,49.8,,,4,Africa/Bamako,FALSE,1466729302
Findeli,Findeli,,15.2500,-11.9333,Mali,ML,MLI,,,,,,15.0,,,4,Africa/Nouakchott,FALSE,1466872518
"Tié Kouraré","Tie Kourare",,15.3271,-3.7393,Mali,ML,MLI,Mopti,Mopti,ML-5,region,,51.2,,,4,Africa/Bamako,FALSE,1466822664
Nioroïrou,Nioroirou,,11.3168,-5.4607,Mali,ML,MLI,Sikasso,Sikasso,ML-3,region,,30.9,,,4,Africa/Bamako,FALSE,1466732140
Bougoubaga,Bougoubaga,,13.4518,-8.8679,Mali,ML,MLI,Kayes,Kayes,ML-1,region,,2.5,,,5,Africa/Bamako,FALSE,1466065997
Yorontiéna,Yorontiena,Yérodjin|Yérodjina,10.8667,-8.0000,Mali,ML,MLI,,,,,,19.1,,,4,Africa/Bamako,FALSE,1466066293
Sébété,Sebete,,14.0336,-7.1451,Mali,ML,MLI,Koulikoro,Koulikoro,ML-2,region,,6.6,,,5,Africa/Bamako,FALSE,1466350903
Orokamba,Orokamba,,14.4569,-3.0751,Mali,ML,MLI,Mopti,Mopti,ML-5,region,,62.7,,,4,Africa/Bamako,FALSE,1466756070
Tiléré,Tilere,,15.8459,-3.1795,Mali,ML,MLI,Tombouctou,Tombouctou,ML-6,region,,7.9,,,5,Africa/Bamako,FALSE,1466509913
Bla,Bla,,12.9500,-5.7500,Mali,ML,MLI,Ségou,Segou,ML-4,region,minor,191.7,,,3,Africa/Bamako,FALSE,1466355178
Bla,Bla,Blan,13.2970,-5.6414,Mali,ML,MLI,Ségou,Segou,ML-4,region,,55.5,,,4,Africa/Bamako,TRUE,1466579432
