city,city_ascii,city_alt,lat,lng,country,iso2,iso3,admin_name,admin_name_ascii,admin_code,admin_type,capital,density,population,population_proper,ranking,timezone,same_name,id
Ulaanbaatar,Ulaanbaatar,"Ourga|K’u-lun|Ulaanbaatur|Uruga|Urga|Ulan-Bator Khoto|Örgöö|Da-Kure|Ulan Bator Hoto|Da Hüryee|Ulaanbaator hota|Da Khure|Uranbatoru|Ulaanbaator|Ulaan Baatar Hoto|Ulan Bator",47.9203,106.9172,Mongolia,MN,MNG,Ulaanbaatar,Ulaanbaatar,MN-1,city,primary,296.8,1396288,1396288,1,Asia/Ulaanbaatar,FALSE,1496024767
Mörön,Moron,"Muringoru|Murenfure|Mu-lin-fu-lieh|Mu-lin|Mörönu hurie|Mörönii Hüryee|Murun-kuren|Mörön’i hürie|Mörönii khüree|Muren",49.6356,100.1556,Mongolia,MN,MNG,Hövsgöl,Hovsgol,MN-041,province,admin,154.0,134530,134530,2,Asia/Ulaanbaatar,FALSE,1496482400
Erdenet,Erdenet,,49.0278,104.0444,Mongolia,MN,MNG,Orhon,Orhon,MN-035,province,admin,513.5,106810,106810,2,Asia/Ulaanbaatar,FALSE,1496374417
Darhan,Darhan,Darkhan,49.4689,105.9575,Mongolia,MN,MNG,Darhan-Uul,Darhan-Uul,MN-037,province,admin,725.6,74738,74738,2,Asia/Ulaanbaatar,FALSE,1496235602
Darhan,Darhan,"Urton Kuytun|Khuiten|Darkhan somon|Darhan sumu|Darkhan Sume|Kuitun|Khuyten|Darkhan|Darhan Suma",49.6167,106.3500,Mongolia,MN,MNG,Selenge,Selenge,MN-049,province,,1.5,74738,74738,3,Asia/Ulaanbaatar,FALSE,1496510995
Ölgiy,Olgiy,Ulegey|Ulegei|Bayan-Ulegey|Olgii|Ölögey|Ulegy|Ul’gey,48.9683,89.9686,Mongolia,MN,MNG,Bayan-Ölgiy,Bayan-Olgiy,MN-071,province,admin,250.1,40564,40564,2,Asia/Hovd,FALSE,1496290857
Choybalsan,Choybalsan,"Choybolsan|Brin Tumen|Choibolsan|Herelen|Kerulyun|Kerulen Urgo|Kerulen|San-beyse|San Beise|Sain Beise|Bayn-Tumen|Baintōmenhashū|Kurulun|Urgo|Pa-yin-t’u-men|Karulen|Choibalsan|K’o-lu-lun|Bayan Tumen|Bain Tumen|Say-Beyse|Kyrylun|San Beisa-Urgo|Kerulun",48.0783,114.5350,Mongolia,MN,MNG,Dornod,Dornod,MN-061,province,admin,135.8,38150,38150,2,Asia/Choibalsan,FALSE,1496921469
Nalayh,Nalayh,Nalaykhu|Nalayha|Nalaikha|Nalaïkh|Na-lai-ha|Naraiha|Nalaykha,47.7725,107.2536,Mongolia,MN,MNG,Ulaanbaatar,Ulaanbaatar,MN-1,city,,40.9,28152,28152,3,Asia/Ulaanbaatar,FALSE,1496295009
Ulaangom,Ulaangom,"Ulaangom sumu|Wu-lan-ku-mu|Ulaan Goom|Ulaanggom|Ulangom|Ulankom|Ulan Kan",49.9833,92.0667,Mongolia,MN,MNG,Uvs,Uvs,MN-046,province,admin,8.7,26319,26319,2,Asia/Hovd,FALSE,1496088351
Bayanhongor,Bayanhongor,"Dzaluuchuud|Youth City",46.1917,100.7178,Mongolia,MN,MNG,Bayanhongor,Bayanhongor,MN-069,province,admin,410.2,26252,26252,2,Asia/Ulaanbaatar,FALSE,1496815184
Hovd,Hovd,"Dzhirgalantu|Khovd|Jargalant|Khobdo|Dund-Us|Jirgalantu|K’o-pu-to|Kobdo|Chirgalantu|Jirgalanta|Hobdo Gol|Dzhaghalantu|Djirgalantu|Chzhirgalantu|Dzhargalantu|Hobdo",48.0042,91.6406,Mongolia,MN,MNG,Hovd,Hovd,MN-043,province,admin,0.8,26023,26023,2,Asia/Hovd,FALSE,1496382421
Uliastay,Uliastay,"Jawkhlant|Wu-li-ya-su-t’ai|Uriyasutai|Uljasutai|Javhlant|Uljassutai|Uliyassutai|Uliassutai|Chzhibkholantu sumu|Chzhibgalantu Somon|Djibkhulantu|Djibkhlantu|Chdzibkhalantu|Dzhibkhalantu|Jibhalantu|Wu-lu-ya-su-t’ai|Ulyasutay|Jibkhalantu|Jibhulantu|Chzhibkhalantu|Dzhibkholantu|Ulyaasatay|Jibholantu|Dzhibkhulantu|Jibhalanta",47.7428,96.8433,Mongolia,MN,MNG,Dzavhan,Dzavhan,MN-057,province,admin,211.3,22006,22006,2,Asia/Hovd,FALSE,1496103841
Öndörhaan,Ondorhaan,"Undurhan|Undoru han|Zezen Khana|Tsetsonwang|Tsetsen Khan’s Palace|Tsetsenkhana|Tsetsen Khan|Stavka Tsetsen-Hana|Öndör han|Thetsen Khan|Cecen Han|Tsetsenhan|Undur Khan|Zezen-chan|Öndörkhaan|Tsetsenkian|Under-Khan|Ch’e-ch’en-han",47.3233,110.6611,Mongolia,MN,MNG,Hentiy,Hentiy,MN-039,province,admin,0.2,20935,20935,2,Asia/Ulaanbaatar,FALSE,1496719699
Arvayheer,Arvayheer,"Ubur Khangayin|Ubur Khangaün|Ubur Khangaiin|Ubur-hangayin|Ts’ai-ku-na Ya-men|Ts’ai-ku-na Miao|Öbör Khangai|Obör Hangayin|Arbayin Khure|Arbayin hure|Arbai Khere|Arbay Khere|Arubai gere|Arbay Heere|Arwaïkheer|Arbay hure|Ubur-hangaajin",46.2661,102.7778,Mongolia,MN,MNG,Övörhangay,Ovorhangay,MN-055,province,admin,115.6,20000,20000,2,Asia/Ulaanbaatar,FALSE,1496580180
Saynshand,Saynshand,"Sain-Shand|Dalay Sayn Shanda|Dalai Sain Shanda|Sayn Shanda|Sain Shanda|Buyant-Uhaa|Sayn-Shenda|Darai Sain Shanda",44.8917,110.1367,Mongolia,MN,MNG,Dornogovĭ,Dornogovi,MN-063,province,admin,8.6,19891,19891,2,Asia/Ulaanbaatar,FALSE,1496862229
Dalanzadgad,Dalanzadgad,Dalandzadgad,43.5700,104.4258,Mongolia,MN,MNG,Ömnögovĭ,Omnogovi,MN-053,province,minor,40.7,19396,19396,3,Asia/Ulaanbaatar,FALSE,1496544358
Sühbaatar,Suhbaatar,"Sukhe Batur|Sukhe-Bator|Sühe Baatar|Sühe Batar|Sükhbaatar",50.2364,106.2064,Mongolia,MN,MNG,Selenge,Selenge,MN-049,province,admin,427.2,19224,19224,2,Asia/Ulaanbaatar,FALSE,1496145017
Dzüünharaa,Dzuunharaa,Dzüünkharaa,48.8666,106.4666,Mongolia,MN,MNG,Selenge,Selenge,MN-049,province,,5.2,18830,18830,3,Asia/Ulaanbaatar,FALSE,1496200032
Tsetserleg,Tsetserleg,Tsetserlik|Tsetserlig-khoto|Tsetserlig|Tsetserurigu,47.4769,101.4503,Mongolia,MN,MNG,Arhangay,Arhangay,MN-073,province,admin,34.6,18519,18519,2,Asia/Ulaanbaatar,FALSE,1496397451
Altay,Altay,"Usan Bulag|Yusun-bulak|Jusenbulag|Yösönbulag",46.3728,96.2572,Mongolia,MN,MNG,Govĭ-Altay,Govi-Altay,MN-065,province,admin,7.3,15800,15800,2,Asia/Hovd,FALSE,1496574715
Harhorin,Harhorin,Kharkhorin,47.1972,102.8239,Mongolia,MN,MNG,Övörhangay,Ovorhangay,MN-055,province,minor,4.5,14765,14765,3,Asia/Ulaanbaatar,FALSE,1496223301
Dzuunmod,Dzuunmod,"Zun-Mod|Dzun-modo|Dzun-mod|Dzuun Modo",47.7069,106.9494,Mongolia,MN,MNG,Töv,Tov,MN-047,province,admin,764.3,14660,14660,2,Asia/Ulaanbaatar,FALSE,1496245822
Baruun-Urt,Baruun-Urt,"Jibhulantu sharga|Burunurt|Jibholantu Sharga sumu|Jibhalanta Sharga Suma|Baruun Urta|Dzhapkhalanta-sharga|Dzhibkhalantu-Sharga|Sharga Sume",46.6814,113.2803,Mongolia,MN,MNG,Sühbaatar,Suhbaatar,MN-051,province,admin,242.3,14297,14297,2,Asia/Choibalsan,FALSE,1496627655
Mandalgovĭ,Mandalgovi,"Mandal Gobi|Dund-gobi|Mandalgow’",45.7667,106.2697,Mongolia,MN,MNG,Dundgovĭ,Dundgovi,MN-059,province,admin,3.0,12339,12339,2,Asia/Ulaanbaatar,FALSE,1496666560
Bulgan,Bulgan,"Bulgan Han|Bulagan-khan|Bulagan|Bulagan Suma|Bulagan somon|Bulagan Sumu",48.8119,103.5336,Mongolia,MN,MNG,Bulgan,Bulgan,MN-067,province,admin,123.3,12323,12323,2,Asia/Ulaanbaatar,FALSE,1496317433
Choyr,Choyr,"Sumbur sumu|Sumbur Sume|Sumbur Somon|Sümber Suma|Sümber|Sumbur",46.3606,108.3650,Mongolia,MN,MNG,Govĭsümber,Govisumber,MN-064,province,admin,2.9,10434,10434,2,Asia/Ulaanbaatar,FALSE,1496514583
Höshööt,Hoshoot,"Tsengel|Tsengel Suma|Tsengel’ somon",48.9408,89.1383,Mongolia,MN,MNG,Bayan-Ölgiy,Bayan-Olgiy,MN-071,province,minor,1.4,8744,8744,3,Asia/Hovd,FALSE,1496001385
Bilüü,Biluu,"Ulaankhus|Ulaanhust|Ulaan Husa Suma|Wu-lan-wu-su|Ulan-khusu somon|Ulan Khusu|Ulan husu|Ulaanhus|Ulaan Husa|Ulaan-Hushu|Ulan-Us-Khushu|Ulan-Usu|Ulaan husu",49.0397,89.4392,Mongolia,MN,MNG,Bayan-Ölgiy,Bayan-Olgiy,MN-071,province,minor,1.3,8010,8010,3,Asia/Hovd,FALSE,1496059093
Sharïngol,Sharingol,,49.2467,106.4253,Mongolia,MN,MNG,Darhan-Uul,Darhan-Uul,MN-037,province,minor,1.8,7795,7795,3,Asia/Ulaanbaatar,FALSE,1496975424
Rashaant,Rashaant,"Koshag Suma|Deliin|Khoshak Sumu|Khoshak|Hoshog Suma|Khoshak somon|Khosak Suma|Delüün",47.8669,90.7006,Mongolia,MN,MNG,Bayan-Ölgiy,Bayan-Olgiy,MN-071,province,minor,1.3,6994,6994,3,Asia/Hovd,FALSE,1496398215
Nogoonnuur,Nogoonnuur,Notoonnuur|Nogoonnuur,49.6150,90.2494,Mongolia,MN,MNG,Bayan-Ölgiy,Bayan-Olgiy,MN-071,province,minor,1.2,6003,6003,3,Asia/Hovd,FALSE,1496316960
Jargalant,Jargalant,"Bulagan Suma|Bulgan|Bulagan Suma",46.9239,91.0900,Mongolia,MN,MNG,Bayan-Ölgiy,Bayan-Olgiy,MN-071,province,minor,1.0,5216,5216,3,Asia/Hovd,FALSE,1496969225
Baruunharaa,Baruunharaa,"Bayangol Sume|Bayan Gol Suma|Bayan-gol somon|Hara|Bain-gol|Pa-yen-kuo-lo|Khara|Bayangol|Bayan gol sumu",48.9147,106.0875,Mongolia,MN,MNG,Selenge,Selenge,MN-049,province,minor,2.5,5028,5028,3,Asia/Ulaanbaatar,FALSE,1496368323
Uujim,Uujim,Sagsay|Sagsaï,48.9117,89.6497,Mongolia,MN,MNG,Bayan-Ölgiy,Bayan-Olgiy,MN-071,province,minor,1.6,4945,4945,3,Asia/Hovd,FALSE,1496297537
Bayannuur,Bayannuur,,48.9503,91.1619,Mongolia,MN,MNG,Bayan-Ölgiy,Bayan-Olgiy,MN-071,province,minor,2.0,4794,4794,3,Asia/Hovd,FALSE,1496679804
Chihertey,Chihertey,Altaï|Altay,48.3022,89.5153,Mongolia,MN,MNG,Bayan-Ölgiy,Bayan-Olgiy,MN-071,province,minor,1.3,3983,3983,3,Asia/Hovd,FALSE,1496781071
Tolbo,Tolbo,"Tolbo-Nur|Tolbo Nuur Suma|Tolbo nuur hoshu|Tolbonuur|Tolbo-Nur-Khoshu|Tolbo Nuur Hoshuun|Tolbo-Nur-Somon",48.4131,90.2869,Mongolia,MN,MNG,Bayan-Ölgiy,Bayan-Olgiy,MN-071,province,minor,1.3,3939,3939,3,Asia/Hovd,FALSE,1496615634
Ulaan-Uul,Ulaan-Uul,"Erdene|Erdeni sumu|Erdeni Sume|Erdeni Suma|Erdeni Somon|Erdeni",44.3337,111.2333,Mongolia,MN,MNG,Dornogovĭ,Dornogovi,MN-063,province,minor,0.3,3726,3726,3,Asia/Ulaanbaatar,FALSE,1496264968
Bayansayr,Bayansayr,"Tsagan Gol|Tsagaan Gol Suma|Baatsagaan|Tsagan gol Somon",45.5542,99.4356,Mongolia,MN,MNG,Bayanhongor,Bayanhongor,MN-069,province,minor,0.48,3568,3568,3,Asia/Ulaanbaatar,FALSE,1496329180
Buga,Buga,Bügat|Bugat,48.9511,90.0200,Mongolia,MN,MNG,Bayan-Ölgiy,Bayan-Olgiy,MN-071,province,minor,1.7,3487,3487,3,Asia/Hovd,FALSE,1496961750
Hatansuudal,Hatansuudal,"Bayanleg|Legin golin yurt|Legiin Goliin Horshoo|Legin golin khorsho|Lieh-k’o",44.5453,100.8283,Mongolia,MN,MNG,Bayanhongor,Bayanhongor,MN-069,province,minor,0.1,3316,3316,3,Asia/Ulaanbaatar,FALSE,1496492938
Jargalant,Jargalant,"Tamiriin Khure|Battsengel|Tamiriin Hüryee",47.7922,101.9739,Mongolia,MN,MNG,Arhangay,Arhangay,MN-073,province,minor,1.06,3289,3289,3,Asia/Ulaanbaatar,FALSE,1496611876
Jargalant,Jargalant,,47.0219,99.4803,Mongolia,MN,MNG,Bayanhongor,Bayanhongor,MN-069,province,minor,0.7,2950,2950,3,Asia/Ulaanbaatar,FALSE,1496163552
Baruunturuun,Baruunturuun,"Türüün Suma|Türüün gol sumu|Türüün gol|Turun somon|Turun-Gol|Turin Golin Sume|Turun-Gol-Somon|Turun",49.6583,94.3992,Mongolia,MN,MNG,Uvs,Uvs,MN-046,province,minor,0.6,2810,2810,3,Asia/Hovd,FALSE,1496055269
Tsagaantüngi,Tsagaantungi,Altantsögts,49.0617,90.4544,Mongolia,MN,MNG,Bayan-Ölgiy,Bayan-Olgiy,MN-071,province,minor,1.5,2684,2684,3,Asia/Hovd,FALSE,1496909685
Buyant,Buyant,,48.5792,89.5500,Mongolia,MN,MNG,Bayan-Ölgiy,Bayan-Olgiy,MN-071,province,minor,1.4,2592,2592,3,Asia/Hovd,FALSE,1496947207
Bodĭ,Bodi,"Dzhinsetu-Sumu|Dzhinsetu somon|Jinst|Jinsete Suma|Jinsete|Jinsatu|Chzhinsetu somon|Jinsetü|Jinsetu sumu|Djinsetu Sume|Dzhinsetu",45.4108,100.5767,Mongolia,MN,MNG,Bayanhongor,Bayanhongor,MN-069,province,minor,0.32,2023,2023,3,Asia/Ulaanbaatar,FALSE,1496086209
Tsagaannuur,Tsagaannuur,Tsagan-nur,49.5069,89.7311,Mongolia,MN,MNG,Bayan-Ölgiy,Bayan-Olgiy,MN-071,province,minor,1.2,1436,1436,3,Asia/Hovd,FALSE,1496581661
Hödrögö,Hodrogo,"Numurge-sumu|Numurge somon|Numurge|Numerge|Nömörgö Suma|Nömörge|Nömrög",48.9667,96.7833,Mongolia,MN,MNG,Dzavhan,Dzavhan,MN-057,province,minor,0.5,10,10,3,Asia/Hovd,FALSE,1496403046
Hasagt,Hasagt,"Hasagta Jirgalan Suma|Khasagtu Sume|Khasagtu Dzhirgalang|Khasagt-Dzhargalang|Khasagt|Hasagtu jirgalang|Khasagtu Chzhirgalang Somon|Hasagtu jirgalang sumu|Hasagta Jirgalang Suma",46.5500,95.6667,Mongolia,MN,MNG,Govĭ-Altay,Govi-Altay,MN-065,province,,0.3,,,4,Asia/Hovd,FALSE,1496424545
"Lamaiin Hüryee","Lamaiin Huryee","Lamain khure|Lamaiin-Hüree",47.1833,107.1667,Mongolia,MN,MNG,Töv,Tov,MN-047,province,,0.6,,,5,Asia/Ulaanbaatar,FALSE,1496192954
Tsagaanders,Tsagaanders,"Bain Tumen|Bayantümen",48.0500,114.3667,Mongolia,MN,MNG,Dornod,Dornod,MN-061,province,minor,76.1,,,3,Asia/Choibalsan,FALSE,1496322713
"Artsatayn Dugang","Artsatayn Dugang","Artsatyn Dugang|Artsatuin dugang",48.1667,105.5000,Mongolia,MN,MNG,Töv,Tov,MN-047,province,,1.4,,,5,Asia/Ulaanbaatar,FALSE,1496135999
"Nilga Suma","Nilga Suma","Nilga Sumu|Nilga Somon|Nilga|Nyalga|Nilga Sume",46.9667,108.3000,Mongolia,MN,MNG,Töv,Tov,MN-047,province,,0.4,,,4,Asia/Ulaanbaatar,FALSE,1496293970
"Jirgalantayn Datsang","Jirgalantayn Datsang","Chzhirgalantiin Datsan",45.7167,97.1667,Mongolia,MN,MNG,Govĭ-Altay,Govi-Altay,MN-065,province,,0.5,,,5,Asia/Hovd,FALSE,1496163451
Tavanbulag,Tavanbulag,Tüvshrüüleh|Tödzshrüüleh|Tövshrüüleh|Töwshrüülekh,47.3817,101.9103,Mongolia,MN,MNG,Arhangay,Arhangay,MN-073,province,minor,1.8,,,3,Asia/Ulaanbaatar,FALSE,1496268037
"Shatsaiin Dugang","Shatsaiin Dugang","Shaiain dugang|Shayayn dugang|Shayaiin Dugan|Shatsain dugang",47.8500,100.8333,Mongolia,MN,MNG,Arhangay,Arhangay,MN-073,province,,1.0,,,4,Asia/Ulaanbaatar,FALSE,1496433423
"Tengelig Hiid","Tengelig Hiid","Tengelig Khid|Tengelig-Hiyd",46.2833,104.8500,Mongolia,MN,MNG,Dundgovĭ,Dundgovi,MN-059,province,,0.5,,,5,Asia/Ulaanbaatar,FALSE,1496460290
"Bodonchiin Hüryee","Bodonchiin Huryee","Bodonchiyn-Hüree|Bodonchin Khure|Bodonchiin khure|Pu-tung-ch’i|Bodonchi|Bodonchiin hürie",45.7667,92.1833,Mongolia,MN,MNG,Hovd,Hovd,MN-043,province,,0.2,,,4,Asia/Hovd,FALSE,1496518959
"Dashilingiin Dugang","Dashilingiin Dugang","Dashilingiin Dugan",48.2833,100.1833,Mongolia,MN,MNG,Arhangay,Arhangay,MN-073,province,,0.9,,,5,Asia/Ulaanbaatar,FALSE,1496166409
"Ibeeteyn Hüryee","Ibeeteyn Huryee","Ibeteyn khure",51.1500,99.2500,Mongolia,MN,MNG,Hövsgöl,Hovsgol,MN-041,province,,0.5,,,5,Asia/Ulaanbaatar,FALSE,1496382756
"Bügdegenii Hüryee","Bugdegenii Huryee","Bugdegeni khure",49.1333,100.0500,Mongolia,MN,MNG,Hövsgöl,Hovsgol,MN-041,province,,1.4,,,5,Asia/Ulaanbaatar,FALSE,1496168763
"Mönhön Subarga","Monhon Subarga",,49.7000,105.2667,Mongolia,MN,MNG,Selenge,Selenge,MN-049,province,,0.8,,,5,Asia/Ulaanbaatar,FALSE,1496134902
Ihjargalan,Ihjargalan,"Yihe Jirgalan Suma|Yihe Jirgalang Suma|Yihe Jirgalang|Ihe Jirgalang|Ikhe Jargalanta Somon|Ikhe Dzhirgalang|Ikhe-Dzhangalant|Ikhe Djirgalan Sume|Ihe jirgalan Sumu|Ikhe-chzhargalanta Somon|Ikhe-Dzhargalanta-Somon|Ikhjargalan",45.5167,108.8000,Mongolia,MN,MNG,Dornogovĭ,Dornogovi,MN-063,province,,0.6,,,4,Asia/Ulaanbaatar,FALSE,1496805815
"Amagalanta Hiid","Amagalanta Hiid","Amogalantu-Khid|Amogolangtu Khiit",48.9833,110.5667,Mongolia,MN,MNG,Hentiy,Hentiy,MN-039,province,,0.5,,,5,Asia/Ulaanbaatar,FALSE,1496239412
"Hotogtoy Hüryee","Hotogtoy Huryee","Khotogtyy Khure|Khotogtöy Khure",47.7500,109.5833,Mongolia,MN,MNG,Hentiy,Hentiy,MN-039,province,,0.6,,,5,Asia/Ulaanbaatar,FALSE,1496616226
"Mogodiin Hüryee","Mogodiin Huryee","Mogodin Khure",48.4500,102.7000,Mongolia,MN,MNG,Bulgan,Bulgan,MN-067,province,,0.7,,,5,Asia/Ulaanbaatar,FALSE,1496546854
Süremte,Suremte,Surumte,48.4167,107.1667,Mongolia,MN,MNG,Töv,Tov,MN-047,province,,2.5,,,5,Asia/Ulaanbaatar,FALSE,1496413010
"Boro Burgaasanii Dugang","Boro Burgaasanii Dugang","Boro burgasuni dugang|Boro-Burgassanii-Dugan",48.8833,100.1667,Mongolia,MN,MNG,Hövsgöl,Hovsgol,MN-041,province,,1.3,,,5,Asia/Ulaanbaatar,FALSE,1496865360
"Hüryee Deresenii Örtöö","Huryee Deresenii Ortoo","Huryee-Deresen-Örtöö|Khure deresuni urto",49.2000,93.7500,Mongolia,MN,MNG,Uvs,Uvs,MN-046,province,,0.6,,,5,Asia/Hovd,FALSE,1496976388
Bayasgalant,Bayasgalant,"Munku-khanyy somon|Munku-khanoy Somon|Munkhu Khanöy Somon|Munkh-Khany-Somon|Munkh-Khan|Monhö Han sumu|Mönhö Han|Mönhö Haan Suma|Mönhhaan|Mönkhkhaan|Munku-khan Somon|Munkhu Khany|Munkhu Khanyy Somon|Munku-khan",46.9833,112.0500,Mongolia,MN,MNG,Sühbaatar,Suhbaatar,MN-051,province,minor,0.4,,,3,Asia/Choibalsan,FALSE,1496202211
"Nimgenii Suurin","Nimgenii Suurin","Nimgenöy Surin|Nimgenyy-surin",47.1333,109.1667,Mongolia,MN,MNG,Hentiy,Hentiy,MN-039,province,,0.6,,,5,Asia/Ulaanbaatar,FALSE,1496463266
Mönhbulag,Monhbulag,Dzüyl|Dzüïl,46.7500,103.5167,Mongolia,MN,MNG,Övörhangay,Ovorhangay,MN-055,province,minor,1.1,,,3,Asia/Ulaanbaatar,FALSE,1496128257
"Hicheegiin Dugang","Hicheegiin Dugang",Kichigin-dugun,49.9167,106.2500,Mongolia,MN,MNG,Selenge,Selenge,MN-049,province,,5.1,,,5,Asia/Ulaanbaatar,FALSE,1496644287
Hanhöhiy,Hanhohiy,Tümentsogt,47.6167,112.1333,Mongolia,MN,MNG,Sühbaatar,Suhbaatar,MN-051,province,minor,0.8,,,3,Asia/Choibalsan,FALSE,1496348584
Tu-tzu-han-su-hai,Tu-tzu-han-su-hai,,42.7500,98.8000,Mongolia,MN,MNG,Bayanhongor,Bayanhongor,MN-069,province,,0.1,,,5,Asia/Ulaanbaatar,FALSE,1496436593
"Höhöteyn Dugang","Hohoteyn Dugang","Khukhutyyn dugang|Khukhutyin dugang|Khukhutöin Dugang",46.0000,115.5333,Mongolia,MN,MNG,Sühbaatar,Suhbaatar,MN-051,province,,0.3,,,4,Asia/Choibalsan,FALSE,1496643513
"Damba Daraja Hiid","Damba Daraja Hiid","Dambodarzha-khid|Dambodarja Khiit",49.4167,113.4333,Mongolia,MN,MNG,Dornod,Dornod,MN-061,province,,0.4,,,5,Asia/Choibalsan,FALSE,1496758462
"Tömöriin Bagiin Dugang","Tomoriin Bagiin Dugang","Tumuriin bagin dugang|Tumurayn bagin dugang|Tömöriin Bagaiin Dugan",47.6333,100.3000,Mongolia,MN,MNG,Arhangay,Arhangay,MN-073,province,,0.8,,,4,Asia/Ulaanbaatar,FALSE,1496881432
Baydrag,Baydrag,"Baydaragiin Hüryee|Baïdrag",47.0333,99.5000,Mongolia,MN,MNG,Bayanhongor,Bayanhongor,MN-069,province,,0.6,,,5,Asia/Ulaanbaatar,FALSE,1496889643
"Tögörigiin Süme","Togorigiin Sume","Tugurig’iin hürie|Tögörigiinhurie|T’u-kou-liu-k’o-yin|Tugurigin Khure|Tugurikin Sume|Tugyuryuk-In",47.4167,92.1667,Mongolia,MN,MNG,Hovd,Hovd,MN-043,province,,0.7,,,4,Asia/Hovd,FALSE,1496438071
"Bilsigi Hüryee","Bilsigi Huryee","Bil’sigo Khure|Bil’sigy-khure",49.5000,103.3167,Mongolia,MN,MNG,Bulgan,Bulgan,MN-067,province,,0.7,,,5,Asia/Ulaanbaatar,FALSE,1496458179
"Dagaliin Hiid","Dagaliin Hiid","Dagalöyn Khid|Dagalyyn Khid|Dagalyn Khid",47.7167,111.8833,Mongolia,MN,MNG,Hentiy,Hentiy,MN-039,province,,0.5,,,4,Asia/Ulaanbaatar,FALSE,1496876562
"Bayan Dzürhe","Bayan Dzurhe",Bain-tszurkhe|Bain-tsurkhe,48.6500,103.7167,Mongolia,MN,MNG,Bulgan,Bulgan,MN-067,province,,0.6,,,5,Asia/Ulaanbaatar,FALSE,1496246016
Hoolt,Hoolt,"Tugurik Somon|Tugurig Somon|Tugurig-Nur-Somon|Tugurig-Nur|Tögörig Suma|Tögörig nuur|Tögörig|Tuguric Somon|Tögrög|Tugurik|Tögörig Nuur Suma|Tügürik nuur sumu",45.5333,102.9833,Mongolia,MN,MNG,Övörhangay,Ovorhangay,MN-055,province,minor,0.4,,,3,Asia/Ulaanbaatar,FALSE,1496331908
Dzalaata,Dzalaata,"Dsalatu|Dzalatu|Zalatu|Urto Zalatu|Chzhalatu|Ch’ai-la-t’u",44.3167,107.9000,Mongolia,MN,MNG,Dornogovĭ,Dornogovi,MN-063,province,,0.1,,,4,Asia/Ulaanbaatar,FALSE,1496481142
"Öldzeyteyn Horshoo","Oldzeyteyn Horshoo","Ultszeytuin Khorsho|Ultszeituyn Khorsho|Ultszeituin khorsho",47.3000,98.5833,Mongolia,MN,MNG,Bayanhongor,Bayanhongor,MN-069,province,,0.4,,,4,Asia/Ulaanbaatar,FALSE,1496588528
"Högshin Hiid","Hogshin Hiid","Khungshin-khid|Khugshin Khid",48.2667,114.9333,Mongolia,MN,MNG,Dornod,Dornod,MN-061,province,,0.2,,,5,Asia/Choibalsan,FALSE,1496374752
"Yöröögiin Haluun Arshaan","Yoroogiin Haluun Arshaan","Yöröögiyn Halin Artan|Iöröögiin haluun arshaan|Iurugin-Khalun-Arshan",49.0333,107.4833,Mongolia,MN,MNG,Selenge,Selenge,MN-049,province,,0.7,,,4,Asia/Ulaanbaatar,FALSE,1496068212
"Santayn Hüryee","Santayn Huryee","Santuyn Khure|Santuin khure",47.0167,97.0167,Mongolia,MN,MNG,Dzavhan,Dzavhan,MN-057,province,,0.3,,,5,Asia/Hovd,FALSE,1496984502
Duut,Duut,,47.5167,91.6333,Mongolia,MN,MNG,Hovd,Hovd,MN-043,province,minor,0.5,,,3,Asia/Hovd,FALSE,1496721019
"Muhariin Den","Muhariin Den","Stanok Mukhuryyn-Dyan|Mukhryyn Dyan|Mukhuryyn-Dyan",48.2167,106.7333,Mongolia,MN,MNG,Ulaanbaatar,Ulaanbaatar,MN-1,city,,2.5,,,4,Asia/Ulaanbaatar,FALSE,1496511562
"Shadablingi Hiid","Shadablingi Hiid","Shaddbling Khid|Shadablingi-Khid",48.0167,106.9000,Mongolia,MN,MNG,Ulaanbaatar,Ulaanbaatar,MN-1,city,,1960.6,,,3,Asia/Ulaanbaatar,FALSE,1496605366
Jibhalant,Jibhalant,"Bayan Obo|Bayn Obo Somon|Bain-obo Somon|Bayan-obo somon|Bayan oboo sumu|Bayan Oboo Suma|Bayan Oboo|Bayan-Ovoo",47.7833,112.1167,Mongolia,MN,MNG,Hentiy,Hentiy,MN-039,province,minor,0.5,,,3,Asia/Ulaanbaatar,FALSE,1496842476
Tamsagbulag,Tamsagbulag,"Ta-mu-cha-ko-pu-la-k’o|Tamtsag-Bulak|Tamsag Bulat|Tamtsak-Bulak|Tamsok Buluk|Tamtsak|Tamsog Bulag|Tamtzag bulak",47.2500,117.3000,Mongolia,MN,MNG,Dornod,Dornod,MN-061,province,,0.1,,,4,Asia/Choibalsan,FALSE,1496045217
"Delgerehe Hiid","Delgerehe Hiid","Delgerehe-Hiyd|Delgerekhu Khid",46.2000,104.6667,Mongolia,MN,MNG,Dundgovĭ,Dundgovi,MN-059,province,,0.5,,,5,Asia/Ulaanbaatar,FALSE,1496043531
"Delgerehe Hiid","Delgerehe Hiid","Delgerehe-Hiyd|Delgerekhu Khid",45.8667,104.3000,Mongolia,MN,MNG,Dundgovĭ,Dundgovi,MN-059,province,,0.3,,,5,Asia/Ulaanbaatar,TRUE,1496327631
"Hujirtayn Dugang","Hujirtayn Dugang",Khuchzhirtuin-dugang,49.3333,112.7833,Mongolia,MN,MNG,Dornod,Dornod,MN-061,province,,0.6,,,5,Asia/Choibalsan,FALSE,1496364765
"Baruun Hural","Baruun Hural","Barun Khural",46.0000,102.6667,Mongolia,MN,MNG,Övörhangay,Ovorhangay,MN-055,province,,0.8,,,5,Asia/Ulaanbaatar,FALSE,1496983624
Dzalaa,Dzalaa,Ch’a-la|Dzala|Chzhala,48.4667,115.7500,Mongolia,MN,MNG,Dornod,Dornod,MN-061,province,,0.2,,,4,Asia/Choibalsan,FALSE,1496131289
"Ulaan Ergiin Hural","Ulaan Ergiin Hural","Ulan-Ergyn-Khural|Ulan ergyyn khural|Ulan ergiyn khural|Ulaan ergi hural|Ulan ergiin-khural",42.2725,105.1964,Mongolia,MN,MNG,Ömnögovĭ,Omnogovi,MN-053,province,,0.2,,,4,Asia/Ulaanbaatar,FALSE,1496685169
Dzalaa,Dzalaa,Shinejinst,44.5481,99.2775,Mongolia,MN,MNG,Bayanhongor,Bayanhongor,MN-069,province,minor,0.1,,,3,Asia/Ulaanbaatar,FALSE,1496424936
"Naymanii Hüryee","Naymanii Huryee","Naymanyy Khure",48.3500,104.5833,Mongolia,MN,MNG,Töv,Tov,MN-047,province,,1.8,,,5,Asia/Ulaanbaatar,FALSE,1496787631
"Olon Bayshing","Olon Bayshing","Olon Bayshin|Olon Baishin",48.0667,113.8167,Mongolia,MN,MNG,Dornod,Dornod,MN-061,province,,0.2,,,5,Asia/Choibalsan,FALSE,1496288714
"Süüjiin Horshoo","Suujiin Horshoo","Suchzhiin Khorsho|Suchzhiin yurt|Süüjiin Horshos",47.8333,104.0167,Mongolia,MN,MNG,Bulgan,Bulgan,MN-067,province,,0.9,,,4,Asia/Ulaanbaatar,FALSE,1496630989
"Bulnayn Dugang","Bulnayn Dugang",Bulnain-dugang,48.0833,108.0000,Mongolia,MN,MNG,Töv,Tov,MN-047,province,,0.4,,,5,Asia/Ulaanbaatar,FALSE,1496530995
Shireet,Shireet,"Bayan delger sumu|Bayandelger|Shiretyyn khid|Shiretyn-khid|Shiretöyn Khid|Shiretön Khid|Bayn Del’gir Somon|Bain-delger Somon|Bain-Del’gir-Somon|Ulan-Nur-Somon|Bayan Delger Suma",45.7167,112.3500,Mongolia,MN,MNG,Sühbaatar,Suhbaatar,MN-051,province,minor,0.5,,,3,Asia/Choibalsan,FALSE,1496073629
"Tsonholong Suma","Tsonholong Suma","Tsonholon Suma|Tsonholang|Nonkholon somon|Tsonkholon|Tsonholon|Tsonho Sumu|Tsonkholon Somon",49.3000,103.6667,Mongolia,MN,MNG,Bulgan,Bulgan,MN-067,province,,0.5,,,4,Asia/Ulaanbaatar,FALSE,1496548842
"Yumiin Jisa","Yumiin Jisa","Yumiin chzhisa",46.2000,99.0333,Mongolia,MN,MNG,Bayanhongor,Bayanhongor,MN-069,province,,0.5,,,5,Asia/Ulaanbaatar,FALSE,1496208398
Ashatay,Ashatay,,45.8333,113.7667,Mongolia,MN,MNG,Sühbaatar,Suhbaatar,MN-051,province,,0.2,,,5,Asia/Choibalsan,FALSE,1496705488
"Amar Buyantayn Hüryee","Amar Buyantayn Huryee","Yumu-beisen kure|Yum Beise|Amür büyantuin hurie|Amor-Buyantuyn-Khure|Amor buyant’uin hürie|Amor Buyantiin Khure|Amar-Buyantayn-Hüree|Kumirnya Yum-beysen-khure|Amor buyantuin-fure|Amur Bayantuin Khure",44.6167,98.7000,Mongolia,MN,MNG,Bayanhongor,Bayanhongor,MN-069,province,,0.1,,,4,Asia/Ulaanbaatar,FALSE,1496634204
"Ugtaaliin Dugang","Ugtaaliin Dugang","Ukhtalyyn dugang",48.3833,105.8000,Mongolia,MN,MNG,Töv,Tov,MN-047,province,,2.7,,,5,Asia/Ulaanbaatar,FALSE,1496029722
"Buyan Suma","Buyan Suma","Buyan|Bayan Sume|Buin Somon|Buyan Sumu",45.6000,110.9000,Mongolia,MN,MNG,Dornogovĭ,Dornogovi,MN-063,province,,0.4,,,4,Asia/Ulaanbaatar,FALSE,1496862488
Mörön,Moron,"Muren|Muren somon|Muren Sumu|Mörön Sumu|Mörön Suma",48.2644,100.3742,Mongolia,MN,MNG,Arhangay,Arhangay,MN-073,province,,0.9,,,4,Asia/Ulaanbaatar,FALSE,1496193058
Bayan-mönhö-süm,Bayan-monho-sum,,45.2833,111.2000,Mongolia,MN,MNG,Dornogovĭ,Dornogovi,MN-063,province,,0.2,,,5,Asia/Ulaanbaatar,FALSE,1496103499
"Bayan Hayrhan","Bayan Hayrhan","Bain khayerkhen",48.1000,102.5000,Mongolia,MN,MNG,Arhangay,Arhangay,MN-073,province,,1.4,,,5,Asia/Ulaanbaatar,FALSE,1496540261
"Holboogiin Hiid","Holboogiin Hiid","Kholbogin Khid|Khol Bogöyn Khid|Khol Bogyyn Khid",45.5000,110.8500,Mongolia,MN,MNG,Dornogovĭ,Dornogovi,MN-063,province,,0.2,,,4,Asia/Ulaanbaatar,FALSE,1496560703
"Urtaiin Hural Hiid","Urtaiin Hural Hiid","Urtuin-khural Khid",48.0667,103.1500,Mongolia,MN,MNG,Bulgan,Bulgan,MN-067,province,,0.7,,,5,Asia/Ulaanbaatar,FALSE,1496950486
"Boro Öndör Hiid","Boro Ondor Hiid","Boro Undur Khid",47.4167,106.0333,Mongolia,MN,MNG,Töv,Tov,MN-047,province,,0.4,,,5,Asia/Ulaanbaatar,FALSE,1496557655
Alata,Alata,A-la-erh-t’u|Alartu|Aletu|Aleta,48.6833,115.9667,Mongolia,MN,MNG,Dornod,Dornod,MN-061,province,,2.2,,,4,Asia/Shanghai,FALSE,1496086310
"Bayan Don","Bayan Don","Bain don",48.7333,114.5500,Mongolia,MN,MNG,Dornod,Dornod,MN-061,province,,0.2,,,5,Asia/Choibalsan,FALSE,1496582230
"Hondor Suma","Hondor Suma","Khondar Somon|Khondar|Hondor",46.9333,113.7500,Mongolia,MN,MNG,Sühbaatar,Suhbaatar,MN-051,province,,0.2,,,4,Asia/Choibalsan,FALSE,1496909335
Hargan-Tologoy-Örtöö,Hargan-Tologoy-Ortoo,,49.6667,94.2333,Mongolia,MN,MNG,Uvs,Uvs,MN-046,province,,0.6,,,5,Asia/Hovd,FALSE,1496131963
"Bayan Goliin Dugang","Bayan Goliin Dugang","Bayan Goliyn-Dugan|Pandlin Shrine|Pandlin|Kumirnya Pandlin|Bayan golyyn dugang",49.0667,106.1500,Mongolia,MN,MNG,Selenge,Selenge,MN-049,province,,2.4,,,4,Asia/Ulaanbaatar,FALSE,1496824156
Bürentogtok,Burentogtok,,49.3000,99.3167,Mongolia,MN,MNG,Hövsgöl,Hovsgol,MN-041,province,,1.0,,,5,Asia/Ulaanbaatar,FALSE,1496405696
"Tögörigiin Bayshing","Togorigiin Bayshing","Turgurigiin Bayshing|Tugurigiin bayshing|Tögörigiin Bayshin",45.8167,94.8000,Mongolia,MN,MNG,Govĭ-Altay,Govi-Altay,MN-065,province,,0.3,,,4,Asia/Hovd,FALSE,1496297801
"Tsagaan Bulagiin Hural","Tsagaan Bulagiin Hural","Tsagan bulagyyn khural|Tsagan Bulagoyn Khural",42.5333,109.2167,Mongolia,MN,MNG,Dornogovĭ,Dornogovi,MN-063,province,,0.2,,,5,Asia/Ulaanbaatar,FALSE,1496330950
"Tabin Jisa","Tabin Jisa","Tabito|Tabite Ssu|Tabin chzhisa|Tabin djisse|T’a-pi-t’ai-Miao",46.4167,105.7667,Mongolia,MN,MNG,Dundgovĭ,Dundgovi,MN-059,province,,0.5,,,4,Asia/Ulaanbaatar,FALSE,1496476967
"Tabin Jisa","Tabin Jisa","Tabin chzhisa",45.6500,107.3667,Mongolia,MN,MNG,Dundgovĭ,Dundgovi,MN-059,province,,0.2,,,5,Asia/Ulaanbaatar,TRUE,1496523944
"Dzüün Hüryee","Dzuun Huryee","Tszun-khurie|Zun kure|Zun-fure|Dsun Khure|Dzüün hürie|Dzun-Khure|Dzun-kuren’",48.0000,108.5000,Mongolia,MN,MNG,Töv,Tov,MN-047,province,,0.3,,,4,Asia/Ulaanbaatar,FALSE,1496232708
Tsagaandörvölj,Tsagaandorvolj,Ayrag,45.7994,109.3133,Mongolia,MN,MNG,Dornogovĭ,Dornogovi,MN-063,province,minor,0.6,,,3,Asia/Ulaanbaatar,FALSE,1496589271
"Baruun Datsang Hüryee","Baruun Datsang Huryee","Barun datsan khure|Baruun-Datsan-Hüree",49.2000,94.4167,Mongolia,MN,MNG,Uvs,Uvs,MN-046,province,,0.4,,,5,Asia/Hovd,FALSE,1496469973
"Mörön Suma","Moron Suma","Muren Somon|Mörön",46.8833,104.9333,Mongolia,MN,MNG,Töv,Tov,MN-047,province,,0.7,,,5,Asia/Ulaanbaatar,FALSE,1496598058
"Shubuutay Hiid","Shubuutay Hiid","Shubuutay-Hiyd|Shubutay Khid|Shobukutai",45.2167,105.9833,Mongolia,MN,MNG,Dundgovĭ,Dundgovi,MN-059,province,,0.3,,,4,Asia/Ulaanbaatar,FALSE,1496191427
"Hilganatayn Hüryee","Hilganatayn Huryee","Hilganatayn-Hüree|Khilgantuin Khure",49.2167,101.1000,Mongolia,MN,MNG,Hövsgöl,Hovsgol,MN-041,province,,1.7,,,5,Asia/Ulaanbaatar,FALSE,1496879341
"Burgaasanii Dugang","Burgaasanii Dugang","Burgaasanii-Dugan|Burgasuni dugang",48.2500,100.9500,Mongolia,MN,MNG,Arhangay,Arhangay,MN-073,province,,1.0,,,5,Asia/Ulaanbaatar,FALSE,1496131120
Nüden-hudag,Nuden-hudag,,43.8667,110.4167,Mongolia,MN,MNG,Dornogovĭ,Dornogovi,MN-063,province,,0.1,,,5,Asia/Ulaanbaatar,FALSE,1496237292
"Tsagaan Chuluutayn Hiid","Tsagaan Chuluutayn Hiid","Tsagan-Tsulutu-Khid|Tsagan Chulutöyn Khid|Tsagan Chulutyyn khid",45.6333,111.3000,Mongolia,MN,MNG,Dornogovĭ,Dornogovi,MN-063,province,,0.4,,,4,Asia/Ulaanbaatar,FALSE,1496818208
"Omolgon Baatar","Omolgon Baatar",Maymachen|Maimaicheng|Maimachin|Amologan-Bator|Amogolambu|Amogolang-batur|Maimachen,47.9000,107.0000,Mongolia,MN,MNG,Ulaanbaatar,Ulaanbaatar,MN-1,city,,359.5,,,3,Asia/Ulaanbaatar,FALSE,1496127005
"Daltayn Hiid","Daltayn Hiid","Daltyyn Khid|Dalt’iin Khid|Daltöyn Khid",47.8333,112.3333,Mongolia,MN,MNG,Hentiy,Hentiy,MN-039,province,,0.5,,,4,Asia/Ulaanbaatar,FALSE,1496453527
"Süüjiin Örtöö","Suujiin Ortoo","Suchzhiyn Yurt|Suchzhiyn Urto|Suchzhin Yurt|Sudzhiyn",47.8333,114.8000,Mongolia,MN,MNG,Dornod,Dornod,MN-061,province,,0.2,,,4,Asia/Choibalsan,FALSE,1496486709
"Mergen Lamaiin Hiid","Mergen Lamaiin Hiid","Mergen-lamain khid",48.5667,104.7333,Mongolia,MN,MNG,Töv,Tov,MN-047,province,,1.6,,,5,Asia/Ulaanbaatar,FALSE,1496099427
"Tsagaan Ergin Bayshing","Tsagaan Ergin Bayshing","Tsagan Ergin Bayshing|Tsagaan Ergin Bayshin",46.7500,93.9500,Mongolia,MN,MNG,Hovd,Hovd,MN-043,province,,0.4,,,5,Asia/Hovd,FALSE,1496820332
"Lamaiin Hiid","Lamaiin Hiid","Ramïn-hito|Lamyn-Khid|Lamayn-khid|Lamain hiid|Khatyk-Laman Khit|Khatök-laman Khit|Lamain Khit",49.0833,104.0833,Mongolia,MN,MNG,Orhon,Orhon,MN-035,province,,379.0,,,3,Asia/Ulaanbaatar,FALSE,1496391500
"Lamaiin Hiid","Lamaiin Hiid","Lamyin Khid|Lamyyn Khid|Lamyn-Khid|Lamöyn khid",47.5833,111.5000,Mongolia,MN,MNG,Hentiy,Hentiy,MN-039,province,,0.9,,,4,Asia/Ulaanbaatar,FALSE,1496824949
Dahashaa,Dahashaa,Dakhashia|Dahashia|Dahasha,48.7000,106.3833,Mongolia,MN,MNG,Selenge,Selenge,MN-049,province,,5.2,,,4,Asia/Ulaanbaatar,FALSE,1496422591
"Bayan Hujir","Bayan Hujir",Urt-bain-khodzhin|Bain-khodzhir,48.2500,106.3333,Mongolia,MN,MNG,Töv,Tov,MN-047,province,,6.3,,,5,Asia/Ulaanbaatar,FALSE,1496851176
Amardalay,Amardalay,"Delger Tsogto Suma|Delger Tsogto|Delgertsogt|Delger Tsogtu Somon|Del’ger tsogtu sumu|Derigeri-tsofuta|Delger tsogtu|Delger Tsogtuin Khure",46.1333,106.3833,Mongolia,MN,MNG,Dundgovĭ,Dundgovi,MN-059,province,minor,0.4,,,3,Asia/Ulaanbaatar,FALSE,1496214527
"Tsagaan Tohoy Dugang","Tsagaan Tohoy Dugang",Tsagan-tokhoy-dugun,49.0000,104.9500,Mongolia,MN,MNG,Selenge,Selenge,MN-049,province,,0.9,,,5,Asia/Ulaanbaatar,FALSE,1496966400
"Choyiin Jisa","Choyiin Jisa","Choyn Jisa|Choyin chzhisa",46.4167,99.3667,Mongolia,MN,MNG,Bayanhongor,Bayanhongor,MN-069,province,,0.8,,,5,Asia/Ulaanbaatar,FALSE,1496610851
"Dzoosoiin Hiid","Dzoosoiin Hiid","Tszosyyn khid|Tszosöyn Khid",47.8500,111.1833,Mongolia,MN,MNG,Hentiy,Hentiy,MN-039,province,,0.9,,,5,Asia/Ulaanbaatar,FALSE,1496270695
"Budangiin Hiid","Budangiin Hiid","Budungin Khid",44.8500,113.6667,Mongolia,MN,MNG,Sühbaatar,Suhbaatar,MN-051,province,,0.4,,,5,Asia/Choibalsan,FALSE,1496735435
"Bartayn Dugang","Bartayn Dugang",Bartuin-dugang,49.8667,102.5333,Mongolia,MN,MNG,Bulgan,Bulgan,MN-067,province,,0.4,,,5,Asia/Ulaanbaatar,FALSE,1496395531
Unĭt,Unit,Un’t,49.1333,102.8167,Mongolia,MN,MNG,Bulgan,Bulgan,MN-067,province,,0.7,,,5,Asia/Ulaanbaatar,FALSE,1496538154
"Ayagatayn Dugang","Ayagatayn Dugang","Ayagtuin dugang",48.8333,99.5000,Mongolia,MN,MNG,Hövsgöl,Hovsgol,MN-041,province,,1.2,,,5,Asia/Ulaanbaatar,FALSE,1496296803
Buyanbat,Buyanbat,"Dzhirgalant somon|Dzhirgalang|Jirgalanta Suma|Jirgalanta|Jirgalang sumu|Dzhargalant|Chzhirgalantu Somon|Dzhirgalantu-Sumu|Jirgalang Suma|Chzhibgalantu Somon|Jirgalang|Jargalan",46.9781,95.9256,Mongolia,MN,MNG,Govĭ-Altay,Govi-Altay,MN-065,province,minor,0.4,,,3,Asia/Hovd,FALSE,1496551460
Avraga,Avraga,"Delgerkhan Sume|Delger Khan|Delgerkhaan|Delger Han|Delgerhaan|Delger Haan Suma|Delger-Khan Somon|Delger Han Sumu",47.1833,109.1667,Mongolia,MN,MNG,Hentiy,Hentiy,MN-039,province,minor,0.6,,,3,Asia/Ulaanbaatar,FALSE,1496957367
"Lamaiin Hüryee","Lamaiin Huryee","Ramain-fure|Rama-hito|Rama-fure|Lamyn-Khure|Lamain kure|Lamain Hüryee|Lamain hürie|Lamaiin Khuree|Lamain Khurie|Ronin Hur|Lamain Khure|Lamaiin hürie",48.6000,110.6333,Mongolia,MN,MNG,Hentiy,Hentiy,MN-039,province,,0.5,,,4,Asia/Ulaanbaatar,FALSE,1496766005
Eg-Uur,Eg-Uur,"Erdeni-bulgai somon|Erdeni bulagan sumu|Erdeni Bulagan Sume|Erdeni-Bulagan|Erdeni-Bulgan Somon|Erdenebulgan|Erdeni Bulagan Suma",50.1094,101.5753,Mongolia,MN,MNG,Hövsgöl,Hovsgol,MN-041,province,minor,0.5,,,3,Asia/Ulaanbaatar,FALSE,1496943819
"Hujirtayn Örtöö","Hujirtayn Ortoo","Khugzhirtuin urto|Khuchzhirtuin urto|Khuchzhirtuin Yurt",46.7000,95.4500,Mongolia,MN,MNG,Govĭ-Altay,Govi-Altay,MN-065,province,,0.4,,,4,Asia/Hovd,FALSE,1496979076
Övögdiy,Ovogdiy,"Tel’min sumu|Telmin somon|Telmin|Övgödiy|Telmin Suma|Telmen",48.6428,97.6186,Mongolia,MN,MNG,Dzavhan,Dzavhan,MN-057,province,minor,0.5,,,3,Asia/Hovd,FALSE,1496869887
"Eren Suma","Eren Suma","Eren Somon|Eren|Ikhe Eren|Erdeni Somon|Ihe Erien|Ihe Erien Sumu|Egen Somon",45.9167,108.4667,Mongolia,MN,MNG,Dundgovĭ,Dundgovi,MN-059,province,,1.1,,,4,Asia/Ulaanbaatar,FALSE,1496264704
"Högshinii Dugang","Hogshinii Dugang","Khugshinyy dugang",48.9333,104.9000,Mongolia,MN,MNG,Selenge,Selenge,MN-049,province,,1.2,,,5,Asia/Ulaanbaatar,FALSE,1496661020
"Abdar Bayan Suma","Abdar Bayan Suma","Abdara bayan sumu|Abdara Bayan Sume|Abudarabayan|Abdar Bayan Somon|Abdara-Bayan|Abdar Bayan",47.1667,107.1667,Mongolia,MN,MNG,Töv,Tov,MN-047,province,,0.6,,,4,Asia/Ulaanbaatar,FALSE,1496277329
"Bayan Mönhöiin Shandaiin Örtöö","Bayan Monhoiin Shandaiin Ortoo","Bayn Munkhöyn|Bain-Munkhyyn Shandyyn urto|Bayan Mönhoiin Shanda|Bain Munkhoyn",47.4000,110.6667,Mongolia,MN,MNG,Hentiy,Hentiy,MN-039,province,,4.3,,,4,Asia/Ulaanbaatar,FALSE,1496548080
Mayragtay,Mayragtay,Mayröktö|Mayrigtay|Mayrikty,48.4500,107.5000,Mongolia,MN,MNG,Töv,Tov,MN-047,province,,0.4,,,4,Asia/Ulaanbaatar,FALSE,1496337979
"Aymagay Hiid","Aymagay Hiid","Aymagay Khid",45.9167,111.6167,Mongolia,MN,MNG,Dornogovĭ,Dornogovi,MN-063,province,,0.4,,,5,Asia/Ulaanbaatar,FALSE,1496833011
Badmashin,Badmashin,Botoumashin|Pa-t’u-ma-ch’i|Bātomuch,47.2833,116.6500,Mongolia,MN,MNG,Dornod,Dornod,MN-061,province,,0.1,,,4,Asia/Choibalsan,FALSE,1496351135
"Janjigiin Dugang","Janjigiin Dugang","Johjigiin-Dugan|Chzhandchzhigiin dugang",48.2167,100.5333,Mongolia,MN,MNG,Arhangay,Arhangay,MN-073,province,,1.0,,,5,Asia/Ulaanbaatar,FALSE,1496142189
"Tögörigiin Hüryee","Togorigiin Huryee","Tugurigiin Khure",45.3333,96.6667,Mongolia,MN,MNG,Govĭ-Altay,Govi-Altay,MN-065,province,,0.2,,,5,Asia/Hovd,FALSE,1496374614
Irhitay,Irhitay,Irkhitay,48.9667,106.0833,Mongolia,MN,MNG,Selenge,Selenge,MN-049,province,,2.4,,,5,Asia/Ulaanbaatar,FALSE,1496212236
Bathaan,Bathaan,Batkhaan,46.7167,104.1333,Mongolia,MN,MNG,Övörhangay,Ovorhangay,MN-055,province,,1.0,,,5,Asia/Ulaanbaatar,FALSE,1496293246
Bichigt,Bichigt,,47.1000,95.0667,Mongolia,MN,MNG,Govĭ-Altay,Govi-Altay,MN-065,province,,0.4,,,5,Asia/Hovd,FALSE,1496541458
"Hötöl Hiid","Hotol Hiid","K’u-t’u-lieh|Kutolei|Urto kutul|Erh-shih-chiu-t’ai|Hötö Hiyd|Kutal|Khutul khid",44.6833,107.0333,Mongolia,MN,MNG,Dundgovĭ,Dundgovi,MN-059,province,,0.1,,,4,Asia/Ulaanbaatar,FALSE,1496926514
Bulgan,Bulgan,"Bulagan Bulag",44.1128,103.5425,Mongolia,MN,MNG,Ömnögovĭ,Omnogovi,MN-053,province,minor,0.4,,,3,Asia/Ulaanbaatar,FALSE,1496869675
"Huraiin Süme","Huraiin Sume","Khuröyn Sume|Khuryyn-sumu|Khuröyn Sumu|Khuryyn sume",46.7167,110.5833,Mongolia,MN,MNG,Hentiy,Hentiy,MN-039,province,,0.3,,,4,Asia/Ulaanbaatar,FALSE,1496313219
Teshig,Teshig,"Teshig Sume|Teshig somon|Teshig sumu|Teshig Suma",49.9553,102.6133,Mongolia,MN,MNG,Bulgan,Bulgan,MN-067,province,minor,0.4,,,3,Asia/Ulaanbaatar,FALSE,1496441432
Höövör,Hoovor,Tsagaan-Owoo|Tsagaan-Ovoo,48.4000,113.4333,Mongolia,MN,MNG,Dornod,Dornod,MN-061,province,minor,0.4,,,3,Asia/Choibalsan,FALSE,1496541456
"Yiheteyn Dugang","Yiheteyn Dugang","Ikhetuin dugang",49.4667,103.8667,Mongolia,MN,MNG,Bulgan,Bulgan,MN-067,province,,0.5,,,5,Asia/Ulaanbaatar,FALSE,1496186993
Chzhirgalantu-Sagsay-Somon,Chzhirgalantu-Sagsay-Somon,Jargalantsagsay,48.7667,89.9000,Mongolia,MN,MNG,Bayan-Ölgiy,Bayan-Olgiy,MN-071,province,,1.1,,,5,Asia/Hovd,FALSE,1496333450
"Mani Hiid","Mani Hiid","Mani-Khure|Mani khid",43.8000,104.2000,Mongolia,MN,MNG,Ömnögovĭ,Omnogovi,MN-053,province,,0.2,,,5,Asia/Ulaanbaatar,FALSE,1496815774
"Tsahildagiin Örtöö","Tsahildagiin Ortoo","Tsakhildagiin urto",50.0167,92.8833,Mongolia,MN,MNG,Uvs,Uvs,MN-046,province,,0.6,,,5,Asia/Hovd,FALSE,1496696263
"Shara Oboonii Bayshing","Shara Oboonii Bayshing","Shara Oboonoy Bayshin|Shara Oboone Bayshing|Sharaobone Bayshin",47.0833,115.6667,Mongolia,MN,MNG,Dornod,Dornod,MN-061,province,,0.1,,,4,Asia/Choibalsan,FALSE,1496177417
"Taryaatayn Baraanii Bayshing","Taryaatayn Baraanii Bayshing","Taryatuin barani bayshing",48.9167,95.5500,Mongolia,MN,MNG,Dzavhan,Dzavhan,MN-057,province,,0.7,,,5,Asia/Hovd,FALSE,1496305563
Altay,Altay,Altaï,44.9167,95.4167,Mongolia,MN,MNG,Govĭ-Altay,Govi-Altay,MN-065,province,,0.1,,,5,Asia/Hovd,TRUE,1496084646
"Dara Ehe Lamaiin Hiid","Dara Ehe Lamaiin Hiid","Dara-Ehe-Lamaiin-Hiyd|Dara-ekhe-lamain khid",49.4000,105.6500,Mongolia,MN,MNG,Selenge,Selenge,MN-049,province,,5.2,,,5,Asia/Ulaanbaatar,FALSE,1496744492
Asaralta,Asaralta,Assarlite,48.4167,107.5000,Mongolia,MN,MNG,Töv,Tov,MN-047,province,,0.4,,,5,Asia/Ulaanbaatar,FALSE,1496150331
"Olon Shandanii Jisa","Olon Shandanii Jisa","Sha-erh-hai-hung-tu-i|Olon shandanyy chzhisa|Olon shandanöy chzhisa",47.1833,106.3000,Mongolia,MN,MNG,Töv,Tov,MN-047,province,,0.4,,,4,Asia/Ulaanbaatar,FALSE,1496993925
"Aguytayn Jisa","Aguytayn Jisa","Aguytuyn chzhisa|Aguytuin chzhisa",47.0500,107.6500,Mongolia,MN,MNG,Töv,Tov,MN-047,province,,0.5,,,5,Asia/Ulaanbaatar,FALSE,1496594927
Bayantsagaan,Bayantsagaan,"Jirgalantu sumu|Jirgalantu|Dzhirgalantu Somon|Dzhirgalantu|Jargalant|Jirgalanta Suma|Chzhirgalantu somon",48.7281,100.7656,Mongolia,MN,MNG,Arhangay,Arhangay,MN-073,province,minor,1.4,,,3,Asia/Ulaanbaatar,FALSE,1496288164
Bayasgalant,Bayasgalant,Bayanjargalan,47.1833,108.2500,Mongolia,MN,MNG,Töv,Tov,MN-047,province,minor,0.4,,,3,Asia/Ulaanbaatar,FALSE,1496381590
"Dayaantayn Hural","Dayaantayn Hural",Dayantuin-Khural,48.0333,109.0500,Mongolia,MN,MNG,Hentiy,Hentiy,MN-039,province,,0.5,,,5,Asia/Ulaanbaatar,FALSE,1496947449
Bor-Üdzüür,Bor-Udzuur,"Altai|Altay sumu|Altay|Altay Suma|Altay Somon",45.8000,92.2833,Mongolia,MN,MNG,Hovd,Hovd,MN-043,province,minor,0.2,,,3,Asia/Hovd,FALSE,1496545748
Hovd,Hovd,"Hobdo Suma|Khordo Somon|Khobdo somon|Khobdo|Hobdo|Hobdo sumu|Khowd",44.6667,102.3833,Mongolia,MN,MNG,Övörhangay,Ovorhangay,MN-055,province,minor,0.5,,,3,Asia/Ulaanbaatar,FALSE,1496714164
"Derhiin Hüryee","Derhiin Huryee","Derkhiin khure",50.4500,101.9000,Mongolia,MN,MNG,Hövsgöl,Hovsgol,MN-041,province,,0.2,,,5,Asia/Ulaanbaatar,FALSE,1496839705
"Hongor Uula Suma","Hongor Uula Suma","Khongor Ula Somon|Hongor uula|Khongor Ula|Hongor uula sumu",45.3500,113.1500,Mongolia,MN,MNG,Sühbaatar,Suhbaatar,MN-051,province,,0.4,,,4,Asia/Choibalsan,FALSE,1496294586
Tost,Tost,,43.2378,101.0394,Mongolia,MN,MNG,Ömnögovĭ,Omnogovi,MN-053,province,,0.2,,,5,Asia/Ulaanbaatar,FALSE,1496827626
Höhbürd,Hohburd,Bayan-Owoo|Bayan-Ovoo,46.2872,100.4517,Mongolia,MN,MNG,Bayanhongor,Bayanhongor,MN-069,province,minor,0.5,,,3,Asia/Ulaanbaatar,FALSE,1496870770
"Shibirteyn Dugang","Shibirteyn Dugang","Shibirtuyn dugang|Shibirtuin dugang",47.2500,100.8000,Mongolia,MN,MNG,Arhangay,Arhangay,MN-073,province,,0.9,,,5,Asia/Ulaanbaatar,FALSE,1496675071
"Mandaliin Hiid","Mandaliin Hiid","Mandrin|Mandarisumu|Mandalyyn Khid|Mandalöyn Khid|Mandalin Khid|Mandalin Khit",46.6333,113.1333,Mongolia,MN,MNG,Sühbaatar,Suhbaatar,MN-051,province,,0.2,,,4,Asia/Choibalsan,FALSE,1496191093
Büheley,Buheley,Bukhuley,50.0667,106.8000,Mongolia,MN,MNG,Selenge,Selenge,MN-049,province,,1.5,,,5,Asia/Ulaanbaatar,FALSE,1496685553
"Enger Dzulagtayn Hural","Enger Dzulagtayn Hural","Enger Tszulugtuin Khural|Enger Tszulugtuyn Khural",45.9667,107.4333,Mongolia,MN,MNG,Dundgovĭ,Dundgovi,MN-059,province,,0.3,,,5,Asia/Ulaanbaatar,FALSE,1496423342
"Dzogiin Hüryee","Dzogiin Huryee","Tszogiin khure",48.0167,99.2667,Mongolia,MN,MNG,Arhangay,Arhangay,MN-073,province,,0.9,,,5,Asia/Ulaanbaatar,FALSE,1496747342
"Gegeen Hiid","Gegeen Hiid",Gegen-Khid,48.2000,114.7500,Mongolia,MN,MNG,Dornod,Dornod,MN-061,province,,0.2,,,5,Asia/Choibalsan,FALSE,1496192010
"Sabangiin Örtöö","Sabangiin Ortoo",Savangiyn-Urto|Savangiin-urto,48.2833,113.2333,Mongolia,MN,MNG,Dornod,Dornod,MN-061,province,,0.4,,,5,Asia/Choibalsan,FALSE,1496334525
"Baga Modo Hiid","Baga Modo Hiid","Bagmodo-Khural|Bagmodo khid",42.7500,106.8000,Mongolia,MN,MNG,Ömnögovĭ,Omnogovi,MN-053,province,,0.8,,,5,Asia/Ulaanbaatar,FALSE,1496203642
"Butargamaiin Hiid","Butargamaiin Hiid","Butorgomyin khid|Butorgomyin Hiid|Butorgomöyn Khid|Utorgomyin-khid|Butorogomöin Khid",45.5167,112.0500,Mongolia,MN,MNG,Sühbaatar,Suhbaatar,MN-051,province,,0.5,,,4,Asia/Choibalsan,FALSE,1496133507
"Delger Tsogtoyn Dugantayn Hiid","Delger Tsogtoyn Dugantayn Hiid","Delger Tsogtuin Dugantuin Khid|Delger-Tsogtoy-Dugantayn-Hiyd|Delger tsogtuyn dugantoyn khid",45.8167,105.4500,Mongolia,MN,MNG,Dundgovĭ,Dundgovi,MN-059,province,,0.5,,,4,Asia/Ulaanbaatar,FALSE,1496609817
"Sayr Usa","Sayr Usa","Sairu usu|Sair Usu|Sair Ussu|Tala Dolon|Sai-erh-wu-su|Sairuso|Sayr-usu",44.8000,106.8167,Mongolia,MN,MNG,Dundgovĭ,Dundgovi,MN-059,province,,0.1,,,4,Asia/Ulaanbaatar,FALSE,1496888971
"Abdartayn Süme","Abdartayn Sume","Abdartöyn Sume|Abdartayn Süm|Abdartyn sume|Abdartyyn sume",46.3667,113.5833,Mongolia,MN,MNG,Sühbaatar,Suhbaatar,MN-051,province,,0.2,,,4,Asia/Choibalsan,FALSE,1496021797
"Budargaiin Hural","Budargaiin Hural","Budargyin khural|Budargin Khural|Budargöin Khural",45.5833,110.6667,Mongolia,MN,MNG,Dornogovĭ,Dornogovi,MN-063,province,,0.2,,,4,Asia/Ulaanbaatar,FALSE,1496021281
"Tahiltayn Hiid","Tahiltayn Hiid","Takhiltyyn khid|Takhiltöyn Khid",47.5833,109.5000,Mongolia,MN,MNG,Hentiy,Hentiy,MN-039,province,,0.6,,,5,Asia/Ulaanbaatar,FALSE,1496814289
Sulanheer,Sulanheer,Sulankheer,42.6833,109.3833,Mongolia,MN,MNG,Dornogovĭ,Dornogovi,MN-063,province,,0.2,,,5,Asia/Ulaanbaatar,FALSE,1496669869
Darhan,Darhan,"Böörgu hangay sumu|Bürüg hangay|Burkhe-khangay|Büreg Hangay Suma|Büregkhangaï|Büreghangay|Burg somon",48.2333,103.9500,Mongolia,MN,MNG,Bulgan,Bulgan,MN-067,province,minor,0.7,,,3,Asia/Ulaanbaatar,FALSE,1496617691
"Uula Hiid","Uula Hiid","Ula khid|Uula-Hiyd",44.1167,107.9833,Mongolia,MN,MNG,Dornogovĭ,Dornogovi,MN-063,province,,0.1,,,5,Asia/Ulaanbaatar,FALSE,1496955567
"Salaagiin Jisa","Salaagiin Jisa","Salagin chzhisa",46.6167,105.3500,Mongolia,MN,MNG,Töv,Tov,MN-047,province,,0.7,,,5,Asia/Ulaanbaatar,FALSE,1496602081
"Hamariin Hural","Hamariin Hural","Khamaryyn Khural|Khamaryn-Khural|Khamaryin-Khural|Khamaröyn Khural|Khamarön Khural|Khamarin-Khural",44.5833,110.3000,Mongolia,MN,MNG,Dornogovĭ,Dornogovi,MN-063,province,,0.2,,,4,Asia/Ulaanbaatar,FALSE,1496769743
"Shabi Hural","Shabi Hural","Shabi Khural|Shabo-Khural",43.1000,108.6167,Mongolia,MN,MNG,Dornogovĭ,Dornogovi,MN-063,province,,0.2,,,5,Asia/Ulaanbaatar,FALSE,1496967379
Shohoyt,Shohoyt,Shokhoït,45.1333,104.1333,Mongolia,MN,MNG,Dundgovĭ,Dundgovi,MN-059,province,,0.3,,,5,Asia/Ulaanbaatar,FALSE,1496149546
Uylga,Uylga,Uilga|Uilaga,49.8333,107.7167,Mongolia,MN,MNG,Selenge,Selenge,MN-049,province,,0.7,,,5,Asia/Ulaanbaatar,FALSE,1496804289
"Boro Hujiriin Dugang","Boro Hujiriin Dugang","Boro-Khuchzhiryin dugang|Boro-Hujiriyn-Dugan|Boro-Khuchzhiryyn dugang",48.3000,106.1667,Mongolia,MN,MNG,Töv,Tov,MN-047,province,,3.0,,,4,Asia/Ulaanbaatar,FALSE,1496633471
"Hanuyn Hüryee","Hanuyn Huryee","Khanuin Khure",48.8167,101.9167,Mongolia,MN,MNG,Arhangay,Arhangay,MN-073,province,,1.2,,,5,Asia/Ulaanbaatar,FALSE,1496352400
"Bayan Mönhö Hiid","Bayan Monho Hiid","Bain Munkhu khid|Bayn Munkhu Khid|Bain Munku Khid",47.1000,109.7667,Mongolia,MN,MNG,Hentiy,Hentiy,MN-039,province,,0.5,,,4,Asia/Ulaanbaatar,FALSE,1496152320
"Ara Bulagiin Dugang","Ara Bulagiin Dugang","Ara-bulagyyn dugang",48.4333,105.6000,Mongolia,MN,MNG,Töv,Tov,MN-047,province,,1.3,,,5,Asia/Ulaanbaatar,FALSE,1496068105
"Moroks Shoroo Ayl","Moroks Shoroo Ayl","Morokeshorō-ail|Moroho Shoroy Ayl|Moroks-shoro-ail|Morokesho-rōaira",47.2667,119.0667,Mongolia,MN,MNG,Dornod,Dornod,MN-061,province,,0.1,,,4,Asia/Choibalsan,FALSE,1496858486
Dzag,Dzag,"Tszag Somon|Dzak|Dzag Suma|Dzag gol sumu|Dzag Gol Suma|Dzag gol|Tszag|Dsag Baidarag|Dzag-Baydarag|Zaku goru",46.9333,99.1667,Mongolia,MN,MNG,Bayanhongor,Bayanhongor,MN-069,province,minor,0.6,,,3,Asia/Ulaanbaatar,FALSE,1496026898
"Tödögteyn Suma","Todogteyn Suma","Tuduktöyn Somon|Tudugtyyn-Somon|Tudegtey sumu|Tüdegtey|Tuduktyyn somon",46.7500,111.3000,Mongolia,MN,MNG,Hentiy,Hentiy,MN-039,province,,0.6,,,4,Asia/Ulaanbaatar,FALSE,1496789218
"Sayn Hudagiin Hiid","Sayn Hudagiin Hiid","Sayn Khudugin Khid|Sayn hudug’iin hural|Sayn Hudagiin Hural|Sain Khudugöyn Khid|Sayn Khudugyyn-Khid|Sain Khudugyyn Khid",44.8833,113.4667,Mongolia,MN,MNG,Sühbaatar,Suhbaatar,MN-051,province,,0.4,,,4,Asia/Choibalsan,FALSE,1496017914
"Lamatangiin Hüryee","Lamatangiin Huryee","Lamatyngin Khure|Lamatongin Khure",46.0833,112.2500,Mongolia,MN,MNG,Sühbaatar,Suhbaatar,MN-051,province,,0.5,,,5,Asia/Choibalsan,FALSE,1496155812
Tümen,Tumen,"Tumun Somon|Tümen Suma",46.3333,96.2833,Mongolia,MN,MNG,Govĭ-Altay,Govi-Altay,MN-065,province,,6.4,,,5,Asia/Hovd,FALSE,1496298931
"Arshaantayn Hural","Arshaantayn Hural","Arshantyyn khural|Arshantyn-khural|Arshantön Khural",46.5000,110.3333,Mongolia,MN,MNG,Hentiy,Hentiy,MN-039,province,,0.3,,,4,Asia/Ulaanbaatar,FALSE,1496843174
Büren,Buren,,49.6167,100.2333,Mongolia,MN,MNG,Hövsgöl,Hovsgol,MN-041,province,,154.0,,,4,Asia/Ulaanbaatar,FALSE,1496062566
"Sula Obootoyn Suma","Sula Obootoyn Suma","Sulobotuin|Sulobotin-Somon|Batu Norbo Sumu|Batu-Norbo|Bata Norboin|Sul-Obotuin-Somon|Sula Obootoyn",48.0333,111.3667,Mongolia,MN,MNG,Hentiy,Hentiy,MN-039,province,,0.9,,,4,Asia/Ulaanbaatar,FALSE,1496320106
"Shirengiteyn Dugang","Shirengiteyn Dugang","Shiringetuin dugang",48.8333,100.3333,Mongolia,MN,MNG,Hövsgöl,Hovsgol,MN-041,province,,1.3,,,5,Asia/Ulaanbaatar,FALSE,1496216748
Shara-Höbiin-Dugang,Shara-Hobiin-Dugang,"Shara khubyyn dugang|Shara Khubyin dugang|Shara Khuboin Dugang|Shara-Höbiin-Dugan",47.8833,106.6000,Mongolia,MN,MNG,Ulaanbaatar,Ulaanbaatar,MN-1,city,,329.6,,,3,Asia/Ulaanbaatar,FALSE,1496005341
"Hetseegiin Hiid","Hetseegiin Hiid","Khechigiin Khid",49.8000,96.4000,Mongolia,MN,MNG,Dzavhan,Dzavhan,MN-057,province,,0.3,,,5,Asia/Hovd,FALSE,1496171818
"Büdüünii Dugang","Buduunii Dugang","Budunyy dugang",49.3667,105.4167,Mongolia,MN,MNG,Selenge,Selenge,MN-049,province,,1.4,,,5,Asia/Ulaanbaatar,FALSE,1496752907
"Bayan Dugang","Bayan Dugang","Bayan-dugan|Bayn Dugan|Bain-dugan",49.5167,103.6167,Mongolia,MN,MNG,Bulgan,Bulgan,MN-067,province,,0.7,,,4,Asia/Ulaanbaatar,FALSE,1496712650
Bayan,Bayan,"Bürentogtoh|Burin Tohtahu sumu|Burin togtakhu somon|Bürin Togtahu|Bürentogtokh|Bürin Togtoho Suma|Burin-Tokhtakhu",49.4333,99.6000,Mongolia,MN,MNG,Hövsgöl,Hovsgol,MN-041,province,minor,1.0,,,3,Asia/Ulaanbaatar,FALSE,1496001883
Under,Under,,47.8167,115.0667,Mongolia,MN,MNG,Dornod,Dornod,MN-061,province,,0.2,,,5,Asia/Choibalsan,FALSE,1496305665
"Hereheiin Dugang","Hereheiin Dugang","Kherekhuin dugang|Hereheiin-Dugan",48.8167,106.5000,Mongolia,MN,MNG,Selenge,Selenge,MN-049,province,,5.2,,,5,Asia/Ulaanbaatar,FALSE,1496610173
Hujirt,Hujirt,Khujirt,49.7500,103.1500,Mongolia,MN,MNG,Bulgan,Bulgan,MN-067,province,,0.4,,,5,Asia/Ulaanbaatar,FALSE,1496686809
Maanĭt,Maanit,"Manita|Bayan uula|Bayan-Ula|Bayan Suma|Bayan Somon|Bayan Uula Suma|Borchunsuma|Bayan ula sumu|Bayan",47.2500,107.5333,Mongolia,MN,MNG,Töv,Tov,MN-047,province,minor,0.5,,,3,Asia/Ulaanbaatar,FALSE,1496612044
"Tsagaan Chuluutayn Hiid","Tsagaan Chuluutayn Hiid","Tsagan chulutyyn khid|Tsagan-chulutyin Khid|Tsagan Chulutöyn Khid",47.0833,112.9167,Mongolia,MN,MNG,Sühbaatar,Suhbaatar,MN-051,province,,0.4,,,4,Asia/Choibalsan,FALSE,1496985879
"Döchiin Hural","Dochiin Hural","Duchiin-furaru|Duchi-Khural|Duchin Khural",44.0833,106.4167,Mongolia,MN,MNG,Ömnögovĭ,Omnogovi,MN-053,province,,0.2,,,4,Asia/Ulaanbaatar,FALSE,1496168310
"Haltariin Hüryee","Haltariin Huryee","Khaltariin Khure|Harutïru-kure|Harutïru|Ha-la-t’e-erh Miao|Kurya Khaltyr",47.4167,97.6667,Mongolia,MN,MNG,Dzavhan,Dzavhan,MN-057,province,,0.3,,,4,Asia/Hovd,FALSE,1496213470
"Sagadal Örtöö","Sagadal Ortoo","Sagdul-urto|Sagdul Yurt",47.6000,107.2333,Mongolia,MN,MNG,Töv,Tov,MN-047,province,,0.6,,,5,Asia/Ulaanbaatar,FALSE,1496850229
"Olon Bulagiin Bayshing","Olon Bulagiin Bayshing","Olon Bulagiin Bayshin",46.5333,98.6167,Mongolia,MN,MNG,Bayanhongor,Bayanhongor,MN-069,province,,0.3,,,5,Asia/Ulaanbaatar,FALSE,1496914601
Övt,Ovt,Bat-Öldziy|Bat-Öldziï,46.8167,102.2500,Mongolia,MN,MNG,Övörhangay,Ovorhangay,MN-055,province,minor,1.9,,,3,Asia/Ulaanbaatar,FALSE,1496145124
Jargalant,Jargalant,,49.1291,104.4080,Mongolia,MN,MNG,Orhon,Orhon,MN-035,province,minor,7.0,,,3,Asia/Ulaanbaatar,FALSE,1496565738
"Dolood Jisa","Dolood Jisa","Dolod Chzhisa",47.0833,108.8667,Mongolia,MN,MNG,Hentiy,Hentiy,MN-039,province,,0.6,,,5,Asia/Ulaanbaatar,FALSE,1496131872
Tsagaanchuluut,Tsagaanchuluut,,47.0833,96.6500,Mongolia,MN,MNG,Dzavhan,Dzavhan,MN-057,province,minor,0.3,,,3,Asia/Hovd,FALSE,1496347834
Naranbulag,Naranbulag,,47.5000,93.0000,Mongolia,MN,MNG,Hovd,Hovd,MN-043,province,,0.4,,,5,Asia/Hovd,FALSE,1496653284
Naranbulag,Naranbulag,,49.3806,92.5783,Mongolia,MN,MNG,Uvs,Uvs,MN-046,province,minor,0.5,,,3,Asia/Hovd,FALSE,1496570382
"Mandal Suma","Mandal Suma","Mandal Sume|Mandal Somon|Mandal|Mandal sumu",46.4500,109.8667,Mongolia,MN,MNG,Hentiy,Hentiy,MN-039,province,,1.9,,,4,Asia/Ulaanbaatar,FALSE,1496695894
"Mösöteyn Süme","Mosoteyn Sume",Musutuin-sume|Musutū|Mösötu,48.8667,112.1000,Mongolia,MN,MNG,Hentiy,Hentiy,MN-039,province,,0.4,,,4,Asia/Ulaanbaatar,FALSE,1496469939
Lün,Lun,"Lüng sumu|Lüng Suma|Lung|Lung Somon|Lün Suma",47.4000,102.8667,Mongolia,MN,MNG,Arhangay,Arhangay,MN-073,province,,1.0,,,4,Asia/Ulaanbaatar,FALSE,1496516334
"Baydaragiin Hüryee","Baydaragiin Huryee","Ch’a-han-po-to-ho-mu-ka-shun|Beydariku|Baydarik|Baydaragiin khure|Baidariku|Pai-ta-li-k’o",47.2833,99.6667,Mongolia,MN,MNG,Bayanhongor,Bayanhongor,MN-069,province,,0.6,,,4,Asia/Ulaanbaatar,FALSE,1496209112
"Huruutayn Hural","Huruutayn Hural","Khurutuyn Khural|Khurutuin-Khural",42.9833,110.1333,Mongolia,MN,MNG,Dornogovĭ,Dornogovi,MN-063,province,,0.2,,,5,Asia/Ulaanbaatar,FALSE,1496909217
Songino,Songino,"Songina sumu|Songina somon|Songina|Songino Suma",48.8833,95.8833,Mongolia,MN,MNG,Dzavhan,Dzavhan,MN-057,province,minor,0.4,,,3,Asia/Hovd,FALSE,1496478562
"Dashi Galdan Jisa","Dashi Galdan Jisa","Dashi galdan chzhisa",46.0833,99.3333,Mongolia,MN,MNG,Bayanhongor,Bayanhongor,MN-069,province,,0.8,,,5,Asia/Ulaanbaatar,FALSE,1496057490
"Ajirigaiin Hüryee","Ajirigaiin Huryee","Achzhirigyyn Khure|Ajirigaiin-Hüree",48.8167,100.9667,Mongolia,MN,MNG,Arhangay,Arhangay,MN-073,province,,1.2,,,5,Asia/Ulaanbaatar,FALSE,1496780458
Toyrim,Toyrim,"Urto Toirym|Kumirnya Toyrym|T’ao-li-mu|Urto Kuré Toirim|Toirim",46.0333,106.6333,Mongolia,MN,MNG,Dundgovĭ,Dundgovi,MN-059,province,,0.3,,,4,Asia/Ulaanbaatar,FALSE,1496073185
Balgatay,Balgatay,"Shulyusutu Somon|Shulyusut|Shülüüsete Suma|Shiluusutu sumu|Shiluusütü|Shilüüstey|Shilusutu|Shilüüsteï|Shilusutu Sume|Shirusuto|Shülüsete|Shulusutu-Somon",46.9000,97.1500,Mongolia,MN,MNG,Dzavhan,Dzavhan,MN-057,province,minor,0.4,,,3,Asia/Hovd,FALSE,1496944770
Onon,Onon,"Bindurya-Somon|Bindurya|Bindur somon|Bindiryaa|Bindur’ya sumu|Bindiryaa Suma|Binder",48.6167,110.6056,Mongolia,MN,MNG,Hentiy,Hentiy,MN-039,province,minor,0.5,,,3,Asia/Ulaanbaatar,FALSE,1496364646
"Dashi Dorjiin Datsang","Dashi Dorjiin Datsang","Dashidorchzhiin Datsan",46.1667,95.5000,Mongolia,MN,MNG,Govĭ-Altay,Govi-Altay,MN-065,province,,0.4,,,5,Asia/Hovd,FALSE,1496650909
Doloon-Tsagaan-Had,Doloon-Tsagaan-Had,,44.9500,106.3167,Mongolia,MN,MNG,Dundgovĭ,Dundgovi,MN-059,province,,0.1,,,5,Asia/Ulaanbaatar,FALSE,1496459898
"Tarbagatayn Dugang","Tarbagatayn Dugang",,49.7667,103.1000,Mongolia,MN,MNG,Bulgan,Bulgan,MN-067,province,,0.4,,,5,Asia/Ulaanbaatar,FALSE,1496570925
"Tömöriin Dugang","Tomoriin Dugang","Tumuryyn dugang",49.9167,103.0833,Mongolia,MN,MNG,Bulgan,Bulgan,MN-067,province,,0.4,,,5,Asia/Ulaanbaatar,FALSE,1496202926
"Gol Daychin Choyro Hiid","Gol Daychin Choyro Hiid","Gol Daychin choyr khid|Gol Daichin Chogr Khid|Gol Dauchin Choyr Khid|Gol-Daichin-choyr Khid",46.9667,109.5000,Mongolia,MN,MNG,Hentiy,Hentiy,MN-039,province,,0.5,,,4,Asia/Ulaanbaatar,FALSE,1496877205
"Dzöböiin Hüryee","Dzoboiin Huryee","Tszubyyn Khure",48.3833,103.7000,Mongolia,MN,MNG,Bulgan,Bulgan,MN-067,province,,0.9,,,5,Asia/Ulaanbaatar,FALSE,1496778731
"Hötöliin Dugang","Hotoliin Dugang","Khutulyyn dugang",49.6667,102.8333,Mongolia,MN,MNG,Bulgan,Bulgan,MN-067,province,,0.7,,,5,Asia/Ulaanbaatar,FALSE,1496382177
Örgön,Orgon,Bayangovĭ|Bayangow’,44.7344,100.3925,Mongolia,MN,MNG,Bayanhongor,Bayanhongor,MN-069,province,minor,0.4,,,3,Asia/Ulaanbaatar,FALSE,1496197689
Bulgan,Bulgan,"Derubi|Darbi Sume|Darbi Somon|Darbi|Darbi sumu|Darvi|Darbi Suma|Darwi",46.9500,93.6333,Mongolia,MN,MNG,Hovd,Hovd,MN-043,province,minor,0.4,,,3,Asia/Hovd,FALSE,1496884609
Bulgan,Bulgan,"Tsagan Ure|Tsagaan üüre sumu|Tsagaan-Üür|Tsagan-ur somon|Tsagan Ure Sume|Tsagaan Üür Suma",50.5419,101.5142,Mongolia,MN,MNG,Hövsgöl,Hovsgol,MN-041,province,minor,0.2,,,3,Asia/Ulaanbaatar,FALSE,1496172064
Ak-aral,Ak-aral,,49.2000,90.9000,Mongolia,MN,MNG,Bayan-Ölgiy,Bayan-Olgiy,MN-071,province,,1.8,,,5,Asia/Hovd,FALSE,1496610665
"Bagiin Dugang","Bagiin Dugang",,47.5500,101.3000,Mongolia,MN,MNG,Arhangay,Arhangay,MN-073,province,,0.9,,,5,Asia/Ulaanbaatar,FALSE,1496537000
"Örtöön Shüteen","Ortoon Shuteen","Urtöyn Shuton|Urtyyn-shutyn",47.5833,109.4000,Mongolia,MN,MNG,Hentiy,Hentiy,MN-039,province,,0.6,,,5,Asia/Ulaanbaatar,FALSE,1496868432
Naran,Naran,"Naran Suma|Naran Sume|Naran sumu|Naran Somon",46.1000,96.5000,Mongolia,MN,MNG,Govĭ-Altay,Govi-Altay,MN-065,province,,6.4,,,4,Asia/Hovd,FALSE,1496362410
"Hitiin Bayshing","Hitiin Bayshing","Khityn Bayshin|Khittyn bayshin|Khittyn bayshing|Hidan Bayshing",49.7500,105.5667,Mongolia,MN,MNG,Selenge,Selenge,MN-049,province,,0.8,,,4,Asia/Ulaanbaatar,FALSE,1496739072
"Hitiin Bayshing","Hitiin Bayshing","Khittyn bayshin",50.1500,105.6000,Mongolia,MN,MNG,Selenge,Selenge,MN-049,province,,1.1,,,5,Asia/Ulaanbaatar,TRUE,1496392265
Höövör,Hoovor,"Baruunbayan-Ulaan|Barun Bayan Ulan somon|Bayan Uula Sumu|Bayan Uula Suma|Bayan ula sumu|Bayan Ula Sume|Bayan uula|Bayan-ura|Baruun Bayan Uula Suma",45.1667,101.4000,Mongolia,MN,MNG,Övörhangay,Ovorhangay,MN-055,province,minor,0.5,,,3,Asia/Ulaanbaatar,FALSE,1496344209
Dzel,Dzel,"Dzüün Gobi Suma|Dzüüngow|Dzüüngovĭ",49.9056,93.7875,Mongolia,MN,MNG,Uvs,Uvs,MN-046,province,minor,0.5,,,3,Asia/Hovd,FALSE,1496105210
"Jirgalanta Horshoo","Jirgalanta Horshoo","Chzhirgalantu Khorsho",48.6667,113.6167,Mongolia,MN,MNG,Dornod,Dornod,MN-061,province,,0.4,,,5,Asia/Choibalsan,FALSE,1496619784
Horgo,Horgo,Tariat,48.1581,99.8900,Mongolia,MN,MNG,Arhangay,Arhangay,MN-073,province,minor,0.9,,,3,Asia/Ulaanbaatar,FALSE,1496839634
"Shüteen Hiid","Shuteen Hiid","Shuten Khid",44.3833,108.2500,Mongolia,MN,MNG,Dornogovĭ,Dornogovi,MN-063,province,,0.1,,,5,Asia/Ulaanbaatar,FALSE,1496214281
"Yihe Tsahil","Yihe Tsahil",Ikhe-tzakhil|Ikhe-Tsakhil,49.4167,106.0000,Mongolia,MN,MNG,Darhan-Uul,Darhan-Uul,MN-037,province,,806.3,,,3,Asia/Ulaanbaatar,FALSE,1496581134
"Dugang Goliin Hural","Dugang Goliin Hural","Dugun goliin khural|Dugan Goliin Hural",44.0000,102.4000,Mongolia,MN,MNG,Ömnögovĭ,Omnogovi,MN-053,province,,0.3,,,5,Asia/Ulaanbaatar,FALSE,1496817081
"Hashingiin Dugang","Hashingiin Dugang",Khashingin-Dugang|Khashingin-Dugan,48.9167,110.1167,Mongolia,MN,MNG,Hentiy,Hentiy,MN-039,province,,0.3,,,5,Asia/Ulaanbaatar,FALSE,1496648292
"Ülgey Haldzan Hüryee","Ulgey Haldzan Huryee","Ulgey Khaltszan Khure",47.9167,101.8167,Mongolia,MN,MNG,Arhangay,Arhangay,MN-073,province,,0.8,,,5,Asia/Ulaanbaatar,FALSE,1496953221
Havtsal,Havtsal,Türgen,50.0986,91.6736,Mongolia,MN,MNG,Uvs,Uvs,MN-046,province,minor,0.6,,,3,Asia/Hovd,FALSE,1496000001
Altay,Altay,"Bayan Uula|Bayan-Uul|Bayan-Ula sumu|Bayan-Ula|Bayantes|Bayan-Ula somon",49.6833,96.3333,Mongolia,MN,MNG,Dzavhan,Dzavhan,MN-057,province,minor,0.3,,,3,Asia/Hovd,FALSE,1496424695
"Enger Uulaiin Hiid","Enger Uulaiin Hiid","Engeruloyn Khid|Engerulyyn Khid",47.2500,111.8333,Mongolia,MN,MNG,Sühbaatar,Suhbaatar,MN-051,province,,0.4,,,5,Asia/Choibalsan,FALSE,1496411089
"Nariin Höndey","Nariin Hondey","Khariin Köndei|Narin Khundey|Narin Hundey",48.9000,106.2333,Mongolia,MN,MNG,Selenge,Selenge,MN-049,province,,2.4,,,4,Asia/Ulaanbaatar,FALSE,1496158043
Bayanbürd,Bayanburd,,46.3667,99.0333,Mongolia,MN,MNG,Bayanhongor,Bayanhongor,MN-069,province,,0.5,,,5,Asia/Ulaanbaatar,FALSE,1496161215
Bayshint,Bayshint,"Bökhmörön|Böhmörön|Bühey Mörön Suma",49.6628,90.2906,Mongolia,MN,MNG,Uvs,Uvs,MN-046,province,minor,1.2,,,3,Asia/Hovd,FALSE,1496809389
"Daaga Yarimpil Hiid","Daaga Yarimpil Hiid","Daga Yarimpil Khid|Daaga Yarimpil Hiyd|Daaga Yarimiil Hiid|Daga Yarimiil Khid",47.6833,106.0500,Mongolia,MN,MNG,Töv,Tov,MN-047,province,,0.4,,,4,Asia/Ulaanbaatar,FALSE,1496901557
"Baruun Iret Hiid","Baruun Iret Hiid","Barun iret khid",46.4500,102.2333,Mongolia,MN,MNG,Övörhangay,Ovorhangay,MN-055,province,,3.1,,,5,Asia/Ulaanbaatar,FALSE,1496834490
"Ganjir Jisa","Ganjir Jisa","Ganchzhur chzhisa",45.7333,105.9833,Mongolia,MN,MNG,Dundgovĭ,Dundgovi,MN-059,province,,3.0,,,5,Asia/Ulaanbaatar,FALSE,1496682605
"Hünüyn Süme","Hunuyn Sume","Khuneyn sume|Hünyün",48.1586,101.6222,Mongolia,MN,MNG,Arhangay,Arhangay,MN-073,province,,1.3,,,5,Asia/Ulaanbaatar,FALSE,1496742993
"Dashinchilling Sum","Dashinchilling Sum",,47.6167,104.3500,Mongolia,MN,MNG,Bulgan,Bulgan,MN-067,province,,0.9,,,5,Asia/Ulaanbaatar,FALSE,1496890547
"Godoli Balgasanii Hiid","Godoli Balgasanii Hiid","Godoli Balgasanii Hiyd|Godli balgasuin khid|Balgas-Nu-Khit|Godli balgasuyn khid|Godli Balgasun Hiid",43.3333,104.7333,Mongolia,MN,MNG,Ömnögovĭ,Omnogovi,MN-053,province,,0.2,,,4,Asia/Ulaanbaatar,FALSE,1496313681
"Hayrhan Suma","Hayrhan Suma","Hayrhan sumu|Khayrkhan somon|Khayrkhan|Hayrhan|Khairkhan somon",48.3000,103.3833,Mongolia,MN,MNG,Bulgan,Bulgan,MN-067,province,,0.9,,,4,Asia/Ulaanbaatar,FALSE,1496707972
"Hilbariin Hiid","Hilbariin Hiid","Hilbariyn Hiyd|Khilboryyn khid|Khilberyyn-Khid|Kulberiin Khiit|Khilboryn khid",49.1833,111.4333,Mongolia,MN,MNG,Hentiy,Hentiy,MN-039,province,,0.5,,,4,Asia/Ulaanbaatar,FALSE,1496509559
"Baruun Hural","Baruun Hural","Barun Khura|Barun Khural",43.7500,105.5667,Mongolia,MN,MNG,Ömnögovĭ,Omnogovi,MN-053,province,,1.5,,,5,Asia/Ulaanbaatar,FALSE,1496646132
"Dugang Shaydaiin Hiid","Dugang Shaydaiin Hiid","Dugan Shaydaiin Hiid|Dugang shaydyyn khid|Dugang shaydöyn khid",45.9167,102.6000,Mongolia,MN,MNG,Övörhangay,Ovorhangay,MN-055,province,,0.8,,,4,Asia/Ulaanbaatar,FALSE,1496398519
Delgerhet,Delgerhet,"Delger-khid Somon|Del’ger-khete|Delgerkhet|Delger Hiid|Delger Hete Suma|Delger hete sumu|Delger hete|Delger Hiid Suma",45.8167,110.4500,Mongolia,MN,MNG,Dornogovĭ,Dornogovi,MN-063,province,,0.2,,,4,Asia/Ulaanbaatar,FALSE,1496526066
Bayanhushuu,Bayanhushuu,Galuut,46.7017,100.1450,Mongolia,MN,MNG,Bayanhongor,Bayanhongor,MN-069,province,minor,0.6,,,3,Asia/Ulaanbaatar,FALSE,1496580675
Bilüüt,Biluut,,46.3167,105.2500,Mongolia,MN,MNG,Dundgovĭ,Dundgovi,MN-059,province,,0.5,,,5,Asia/Ulaanbaatar,FALSE,1496303005
Hanhöhiy-Hüree,Hanhohiy-Huree,,49.3000,95.2500,Mongolia,MN,MNG,Uvs,Uvs,MN-046,province,,0.7,,,5,Asia/Hovd,FALSE,1496192721
"Dayaanchiin Hiid","Dayaanchiin Hiid","Dayanchin Khid|Dayaanchiin Hüryee",46.4167,112.1667,Mongolia,MN,MNG,Sühbaatar,Suhbaatar,MN-051,province,,0.5,,,5,Asia/Choibalsan,FALSE,1496477609
"Bulagan Hiid","Bulagan Hiid","Bulagan Khid",46.6000,91.1333,Mongolia,MN,MNG,Hovd,Hovd,MN-043,province,,0.9,,,5,Asia/Hovd,FALSE,1496490128
"Haldaiin Jisa","Haldaiin Jisa","Khaldair Chzhisa|Khaldain chzhisa",46.4167,107.3500,Mongolia,MN,MNG,Dundgovĭ,Dundgovi,MN-059,province,,0.2,,,5,Asia/Ulaanbaatar,FALSE,1496847528
Bulyant,Bulyant,,47.9500,91.6333,Mongolia,MN,MNG,Hovd,Hovd,MN-043,province,,0.8,,,5,Asia/Hovd,FALSE,1496330189
"Shara Usanii Dugang","Shara Usanii Dugang","Shara-usunyy dugang",48.8667,105.0333,Mongolia,MN,MNG,Selenge,Selenge,MN-049,province,,1.2,,,5,Asia/Ulaanbaatar,FALSE,1496121881
Dundbürd,Dundburd,"Batu-Norboyn-Khure|Batu Norboin Khure|Batu Norb’oin hürie|Batnorow|Bata Chorböyn Khid|Bata Chorboin Khid|Batu-norubo|Bata Norboyn Khid|Batu-Norboiin hürie|Batnorov|Bata Norboiin Hiid",47.9167,111.5000,Mongolia,MN,MNG,Hentiy,Hentiy,MN-039,province,minor,0.9,,,3,Asia/Ulaanbaatar,FALSE,1496906489
"Dalhayn Dugang","Dalhayn Dugang","Dalkhain dugang",49.4333,101.3500,Mongolia,MN,MNG,Hövsgöl,Hovsgol,MN-041,province,,1.9,,,5,Asia/Ulaanbaatar,FALSE,1496088375
"Dalhayn Dugang","Dalhayn Dugang","Dalkhain dugang|Dalkhayn dugang",49.3000,101.2667,Mongolia,MN,MNG,Hövsgöl,Hovsgol,MN-041,province,,1.7,,,5,Asia/Ulaanbaatar,TRUE,1496233369
Haliun,Haliun,Halium|Khaliun,45.9292,96.1633,Mongolia,MN,MNG,Govĭ-Altay,Govi-Altay,MN-065,province,minor,0.4,,,3,Asia/Hovd,FALSE,1496391739
Haliun,Haliun,"Khaluin somon|Halaiin Suma|Khaliun",48.8167,103.9667,Mongolia,MN,MNG,Bulgan,Bulgan,MN-067,province,,0.6,,,4,Asia/Ulaanbaatar,FALSE,1496453854
"Hohon Hüryee","Hohon Huryee","Hohon Hüree|Khokhon’ Khure",50.5833,100.8333,Mongolia,MN,MNG,Hövsgöl,Hovsgol,MN-041,province,,0.6,,,5,Asia/Ulaanbaatar,FALSE,1496067279
"Tsagun Muhur","Tsagun Muhur",,48.2833,106.2833,Mongolia,MN,MNG,Töv,Tov,MN-047,province,,6.3,,,5,Asia/Ulaanbaatar,FALSE,1496434350
"Büriden Süme","Buriden Sume","Buridyyn-sume|Buridyn sume|Buridöyn Sume|Buridin-sume|Buridyin sume|Buridon Sume",44.2500,110.8000,Mongolia,MN,MNG,Dornogovĭ,Dornogovi,MN-063,province,,0.3,,,4,Asia/Ulaanbaatar,FALSE,1496776997
"Darhan Jisa","Darhan Jisa","Darikhin Chzhisa|Darakhin-jasa|Darikhin-dzhasa",46.3333,108.2333,Mongolia,MN,MNG,Dundgovĭ,Dundgovi,MN-059,province,,0.9,,,4,Asia/Ulaanbaatar,FALSE,1496236205
Erhet,Erhet,"Mogot sumu|Mogot somon|Mogot|Mogod Suma|Mogod",48.2806,102.9747,Mongolia,MN,MNG,Bulgan,Bulgan,MN-067,province,minor,0.7,,,3,Asia/Ulaanbaatar,FALSE,1496428761
Tsagaannuur,Tsagaannuur,Sümber,47.6167,118.5333,Mongolia,MN,MNG,Dornod,Dornod,MN-061,province,,0.1,,,5,Asia/Choibalsan,FALSE,1496851311
"Tsartsaiin Hiid","Tsartsaiin Hiid","Tsartsin Khid",45.5000,111.0833,Mongolia,MN,MNG,Dornogovĭ,Dornogovi,MN-063,province,,0.4,,,5,Asia/Ulaanbaatar,FALSE,1496210344
"Halha Horoo","Halha Horoo","Khalkha Harō|Khalakhakhoro|Ha-la-ha-t’ai|Hawahaharo|Ha-la-ha-lo",46.6667,117.2000,Mongolia,MN,MNG,Dornod,Dornod,MN-061,province,,0.1,,,4,Asia/Choibalsan,FALSE,1496129049
Tsogtchandmanĭ,Tsogtchandmani,"Tsogtu chindamani sumu|Tsogtu Chindamani Somon|Tsogtü chindamani|Tsogtchandman’|Tsogto Chindamani|Tsogto Chindamani Suma",45.8667,104.4667,Mongolia,MN,MNG,Dundgovĭ,Dundgovi,MN-059,province,,0.5,,,4,Asia/Ulaanbaatar,FALSE,1496051524
Galgatay,Galgatay,Golsotay|Golsotoy,49.7333,107.4500,Mongolia,MN,MNG,Selenge,Selenge,MN-049,province,,0.7,,,5,Asia/Ulaanbaatar,FALSE,1496940588
Tsalgar,Tsalgar,"Malchin Sume|Malchin Suma|Malchin|Malchin sumu|Malchin somon",49.7275,93.2686,Mongolia,MN,MNG,Uvs,Uvs,MN-046,province,minor,0.5,,,3,Asia/Hovd,FALSE,1496136718
"Mogoyn Hüryee","Mogoyn Huryee","Mogoin Khure|Mogoyn Khure|Mogoi’iin hürie|Mogoy’n hürie",47.0833,95.0833,Mongolia,MN,MNG,Govĭ-Altay,Govi-Altay,MN-065,province,,0.4,,,4,Asia/Hovd,FALSE,1496268180
"Tunhiliin Hüryee","Tunhiliin Huryee","Tunkhilyyn Khure|Tunkh",48.6500,106.7333,Mongolia,MN,MNG,Selenge,Selenge,MN-049,province,,5.2,,,5,Asia/Ulaanbaatar,FALSE,1496978281
"Uula Hural","Uula Hural","Uli khural|Ula Khural|Ula-Khora",45.5667,107.6833,Mongolia,MN,MNG,Dundgovĭ,Dundgovi,MN-059,province,,0.2,,,4,Asia/Ulaanbaatar,FALSE,1496220892
"Erdeni Hamsan Hüryee","Erdeni Hamsan Huryee",Erdeni-khamsen-khure,48.2500,103.7000,Mongolia,MN,MNG,Bulgan,Bulgan,MN-067,province,,0.9,,,5,Asia/Ulaanbaatar,FALSE,1496864782
"Yaltaiin Dugang","Yaltaiin Dugang",Yaltuin-dugang,49.0833,108.1667,Mongolia,MN,MNG,Töv,Tov,MN-047,province,,0.7,,,5,Asia/Ulaanbaatar,FALSE,1496682744
Bayanterem,Bayanterem,"Bayne Terme Somon|Bain-terme Somon|Bayan Terme Suma|Bayan-Terim|Bayan Terme|Bayan terme sumu",47.1333,112.3833,Mongolia,MN,MNG,Sühbaatar,Suhbaatar,MN-051,province,,0.4,,,4,Asia/Choibalsan,FALSE,1496221020
Hujirta,Hujirta,Khuchzhirtu,49.8667,106.8500,Mongolia,MN,MNG,Selenge,Selenge,MN-049,province,,0.7,,,5,Asia/Ulaanbaatar,FALSE,1496337674
"Shireeteyn Hiid","Shireeteyn Hiid",,45.7167,112.3500,Mongolia,MN,MNG,Sühbaatar,Suhbaatar,MN-051,province,,0.5,,,5,Asia/Choibalsan,FALSE,1496679210
"Shireeteyn Hiid","Shireeteyn Hiid","Shiretuin khid|Shireetiin-Hiyd|Shireetiin Hiid|Shiretuyn khid",43.5667,106.0167,Mongolia,MN,MNG,Ömnögovĭ,Omnogovi,MN-053,province,,1.5,,,4,Asia/Ulaanbaatar,FALSE,1496929955
Töhöm,Tohom,"Mandah|Naran-mandokhu Somon|Naran-Mandakhu-Somon|Mandohu sumu|Mandakh|Mandaho|Mandaha Suma|Naran Mandaha Suma|Mandohu|Naran Mandaha",44.4000,108.2500,Mongolia,MN,MNG,Dornogovĭ,Dornogovi,MN-063,province,minor,0.1,,,3,Asia/Ulaanbaatar,FALSE,1496588174
Hulstay,Hulstay,Choïbalsan|Choybalsan,48.4333,114.8667,Mongolia,MN,MNG,Dornod,Dornod,MN-061,province,minor,0.2,,,3,Asia/Choibalsan,FALSE,1496361564
"Bayan Bulag","Bayan Bulag",,48.8000,113.6833,Mongolia,MN,MNG,Dornod,Dornod,MN-061,province,,0.4,,,5,Asia/Choibalsan,FALSE,1496821147
"Bayan Bulag","Bayan Bulag","Bayan Bulak|Gori-Bayan Bulag",48.1167,114.3167,Mongolia,MN,MNG,Dornod,Dornod,MN-061,province,,0.2,,,5,Asia/Choibalsan,TRUE,1496894550
"Sudayn Hüryee","Sudayn Huryee","Sudayn-khure|Sudayn hürie|Sotay’iin hürie|Sudain|Suday Khure",46.8000,93.6333,Mongolia,MN,MNG,Hovd,Hovd,MN-043,province,,0.4,,,4,Asia/Hovd,FALSE,1496439819
Dzelter,Dzelter,Tüshig|Tsagaannuur,50.3203,105.0431,Mongolia,MN,MNG,Selenge,Selenge,MN-049,province,minor,0.5,,,3,Asia/Ulaanbaatar,FALSE,1496511191
"Eligen Hural","Eligen Hural","Eligen Khural",44.5833,108.1667,Mongolia,MN,MNG,Dornogovĭ,Dornogovi,MN-063,province,,0.1,,,5,Asia/Ulaanbaatar,FALSE,1496156234
Möndööhöö,Mondoohoo,Tsagaankhaïrkhan|Tsagaanhayrhan,49.4028,94.2511,Mongolia,MN,MNG,Uvs,Uvs,MN-046,province,minor,0.4,,,3,Asia/Hovd,FALSE,1496377194
Bayan,Bayan,"Hashaat|Khashiyantu|Khashaat|Hashiatu|Hashaata Suma|Khashiatu Somon|Hashiyantu sumu",47.4514,103.1511,Mongolia,MN,MNG,Arhangay,Arhangay,MN-073,province,minor,1.0,,,3,Asia/Ulaanbaatar,FALSE,1496239622
"Erigtsegiin Örtöö","Erigtsegiin Ortoo","Erigtsegin Urto",46.1667,115.4000,Mongolia,MN,MNG,Sühbaatar,Suhbaatar,MN-051,province,,0.3,,,5,Asia/Choibalsan,FALSE,1496523441
Hujirt,Hujirt,"Tsetserlig somon|Tsetserlig sumu|Tsetserleg|Tsetserlig|Tsetserlig Suma",48.8822,101.2417,Mongolia,MN,MNG,Arhangay,Arhangay,MN-073,province,minor,1.2,,,3,Asia/Ulaanbaatar,FALSE,1496642305
Hujirt,Hujirt,Khujirt,47.1000,91.1333,Mongolia,MN,MNG,Bayan-Ölgiy,Bayan-Olgiy,MN-071,province,,0.9,,,5,Asia/Hovd,FALSE,1496420717
Hentiy,Hentiy,"Hentey sumu|Hentey|Khentiï|Khentey-somon|Khentey|Khentei Sume|Khentei-Somon|Hentey Suma|Khentei",48.0833,109.8167,Mongolia,MN,MNG,Hentiy,Hentiy,MN-039,province,,0.4,,,4,Asia/Ulaanbaatar,FALSE,1496600069
"Hara Üdzüür","Hara Udzuur","Khara utszur",48.1333,106.0000,Mongolia,MN,MNG,Töv,Tov,MN-047,province,,1.2,,,5,Asia/Ulaanbaatar,FALSE,1496547165
Selenger,Selenger,,49.1167,103.1333,Mongolia,MN,MNG,Bulgan,Bulgan,MN-067,province,,0.5,,,5,Asia/Ulaanbaatar,FALSE,1496413356
Ögöömör,Ogoomor,"Khankhongor|Han hongor sumu|Hanhongor|Hongor Suma|Haan Hongor Suma|Khongor somon",43.7861,104.4961,Mongolia,MN,MNG,Ömnögovĭ,Omnogovi,MN-053,province,minor,0.2,,,3,Asia/Ulaanbaatar,FALSE,1496240087
Ögöömör,Ogoomor,,47.5000,96.2000,Mongolia,MN,MNG,Dzavhan,Dzavhan,MN-057,province,,0.2,,,5,Asia/Hovd,FALSE,1496762245
"Hashaata Hiid","Hashaata Hiid","Khashatu Khid",43.2667,108.9000,Mongolia,MN,MNG,Dornogovĭ,Dornogovi,MN-063,province,,0.2,,,5,Asia/Ulaanbaatar,FALSE,1496612477
Bayanbulag,Bayanbulag,"Bayan Tsagan Somon|Bayan Tsagaan Suma|Bayantsagaan|Bayan Tsagan",45.0142,98.9294,Mongolia,MN,MNG,Bayanhongor,Bayanhongor,MN-069,province,minor,0.5,,,3,Asia/Ulaanbaatar,FALSE,1496781116
Bayanbulag,Bayanbulag,"Bayan Bulag Suma|Bayan Bulak|Bayan bulag sumu|Bayan Bulak Somon",46.8081,98.0911,Mongolia,MN,MNG,Bayanhongor,Bayanhongor,MN-069,province,minor,0.5,,,3,Asia/Ulaanbaatar,TRUE,1496392351
Horiult,Horiult,"Bogdo Uula Suma|Bogdo-Ula|Bogda Uula|Bogda ula sumu|Bogda ula somon|Bogd|Bogdo Ula Sume|Bogudo-kara",45.1983,100.7753,Mongolia,MN,MNG,Bayanhongor,Bayanhongor,MN-069,province,minor,0.6,,,3,Asia/Ulaanbaatar,FALSE,1496845629
Hutag,Hutag,"Khutug-undur somon|Khutug Under|Hutug undur sumu|Hutag-Öndör|Khitug-Undur somon|Khitug-Under|Khutug Undur Sume|Khutug-Undur-Sumu|Hutag Öndör Suma|Hutug Öndör",49.3950,102.6933,Mongolia,MN,MNG,Bulgan,Bulgan,MN-067,province,minor,0.7,,,3,Asia/Ulaanbaatar,FALSE,1496354244
Dashbalbar,Dashbalbar,"Dashi balbar sumu|Dashi Balbaron Somon|Dashi Balbariin Somon|Dashibalbar|Dashi-Balbaryn-Somon|Dashi Balbar Suma",49.5333,114.4000,Mongolia,MN,MNG,Dornod,Dornod,MN-061,province,minor,0.3,,,3,Asia/Choibalsan,FALSE,1496783870
Chonogol,Chonogol,"Yugudserin Khure|Yugutszeröyn Khid|Yagutszarin-khure|Yugodzyr-Khid|Yugüdzeri’in hürie|Yugodzir’-Khid|Chonoyn Gol|Yugutszeryn Khid|Yugutszeryyn Khid|Yugüdzeri’iin hürie|Erdenetsagaan|Yegüüdzeriin Hüryee|Yugodzyr|Yegüüdzer Hiid|Yegüdzeri’iin hürie",45.9000,115.3667,Mongolia,MN,MNG,Sühbaatar,Suhbaatar,MN-051,province,minor,0.3,,,3,Asia/Choibalsan,FALSE,1496103516
"Dalangin Dugang","Dalangin Dugang","Dalong Monastery",49.6500,106.8667,Mongolia,MN,MNG,Selenge,Selenge,MN-049,province,,0.7,,,5,Asia/Ulaanbaatar,FALSE,1496621019
"Darhantayn Hüryee","Darhantayn Huryee","Darkhantuin khure|Darhantayn Hüree",50.5333,101.4167,Mongolia,MN,MNG,Hövsgöl,Hovsgol,MN-041,province,,0.2,,,5,Asia/Ulaanbaatar,FALSE,1496820109
"Noyon Hutagtayn Hiid","Noyon Hutagtayn Hiid","Noyan khutukhtiin khid|Noyan Khure|Noyan hutuhtuiin hürie|Noyan Hutag Tayn Hiyd|Kumirnya Noyon-khutukhtu|Noyon Hutagtayn Hüryee|Noyan-Khutukhtuin-Khure|Noyan hutuhtuin hürie",44.7667,101.8167,Mongolia,MN,MNG,Övörhangay,Ovorhangay,MN-055,province,,0.5,,,4,Asia/Ulaanbaatar,FALSE,1496492425
"Alag Hötöliin Örtöö","Alag Hotoliin Ortoo","Alag Hololiin Örtöö|Alag Khutulöyn Urto|Alag Khululöyn Urto|Alag Khutulyyn Urto|Alag-Tutulyyn",47.2333,113.9500,Mongolia,MN,MNG,Sühbaatar,Suhbaatar,MN-051,province,,0.2,,,4,Asia/Choibalsan,FALSE,1496454811
Högönö-Taranaiin-Hüree,Hogono-Taranaiin-Huree,,47.4000,103.6833,Mongolia,MN,MNG,Bulgan,Bulgan,MN-067,province,,0.8,,,5,Asia/Ulaanbaatar,FALSE,1496367990
"Öndör Maydariin Hiid","Ondor Maydariin Hiid","Undur maydaryyn khid|Undur-Maydaryn-Khid|Undur-mandaryyn-khid|Undur Maydaröyn Khid|Undur Mandaröyn Khid|Ündür maydar’iin hiid",47.1500,112.4000,Mongolia,MN,MNG,Sühbaatar,Suhbaatar,MN-051,province,,0.4,,,4,Asia/Choibalsan,FALSE,1496815033
Dzuunmod,Dzuunmod,"To-lung|Dosu Luen|Doron|Sergulen Somon|Dolun|Doloon|Sergelen|Dolon|Doow Luen|Dologon|To-lun|Sergeleng Suma|Sergeleng|Serguleng Sumu|Sergüleng|Urto Dolon",47.7833,106.8500,Mongolia,MN,MNG,Ulaanbaatar,Ulaanbaatar,MN-1,city,,305.6,,,3,Asia/Ulaanbaatar,FALSE,1496554907
"Manglayn Horshoonii Bayshing","Manglayn Horshoonii Bayshing","Mangliyn-Khorshoni bayshing|Manglaynkhorshoni bayshing",48.2500,101.6667,Mongolia,MN,MNG,Arhangay,Arhangay,MN-073,province,,1.3,,,5,Asia/Ulaanbaatar,FALSE,1496593925
"Hashaatayn Örtöö","Hashaatayn Ortoo","Khashiatuin Urto|Khashiatuin Yurts",47.1000,107.9833,Mongolia,MN,MNG,Töv,Tov,MN-047,province,,0.5,,,5,Asia/Ulaanbaatar,FALSE,1496135980
"Bayan Oboonii Bayshing","Bayan Oboonii Bayshing","Bayan oboni bayshing",46.7000,93.1000,Mongolia,MN,MNG,Hovd,Hovd,MN-043,province,,0.6,,,5,Asia/Hovd,FALSE,1496741569
Hutag-Uul,Hutag-Uul,Khutag-Uul,43.3517,110.2147,Mongolia,MN,MNG,Dornogovĭ,Dornogovi,MN-063,province,,0.2,,,5,Asia/Ulaanbaatar,FALSE,1496671007
"Suurin Hural","Suurin Hural","Surin Khural",46.0833,109.5000,Mongolia,MN,MNG,Dornogovĭ,Dornogovi,MN-063,province,,0.8,,,5,Asia/Ulaanbaatar,FALSE,1496761859
"Belinte Haan Hiid","Belinte Haan Hiid","Belinte Khan Khid|Belinte-Haan-Hiyd",46.6667,109.7833,Mongolia,MN,MNG,Hentiy,Hentiy,MN-039,province,,0.5,,,5,Asia/Ulaanbaatar,FALSE,1496572358
"Baruun Ganjir Hiid","Baruun Ganjir Hiid","Barun Ganchzhur Khid",45.7167,107.4833,Mongolia,MN,MNG,Dundgovĭ,Dundgovi,MN-059,province,,0.3,,,5,Asia/Ulaanbaatar,FALSE,1496361296
Arguut,Arguut,"Guchin usu sumu|Guchin Usa Suma|Guchin-Us|Guchin Suma|Guchin|Guchun Usu|Guchin somon|Guchin-Usu-Somon|Guchin-Usu",45.4500,102.4167,Mongolia,MN,MNG,Övörhangay,Ovorhangay,MN-055,province,minor,0.3,,,3,Asia/Ulaanbaatar,FALSE,1496249529
"Dashilingiin Hural","Dashilingiin Hural","Dashilingin khural",43.7167,106.1333,Mongolia,MN,MNG,Ömnögovĭ,Omnogovi,MN-053,province,,1.5,,,5,Asia/Ulaanbaatar,FALSE,1496201346
"Baruun Ganjir Hiid","Baruun Ganjir Hiid","Baruud Ganjir Hiid|Barut Gonzhur Khid|Barut Ganzhur Khid|Barun Ganchzhur Khid",46.8000,111.9833,Mongolia,MN,MNG,Sühbaatar,Suhbaatar,MN-051,province,,0.4,,,4,Asia/Choibalsan,FALSE,1496630929
"Tüyin Goliin Hüryee","Tuyin Goliin Huryee","Tuyin goliin hurie|Tüyiin goliin hürie|Tuy|T’ui-t’ai|Tuingoru|Tui|Tuyin-Golin-Khure|Tuyin goliin khid|Tüyin-goliin hid|Tuyin paliin khid",46.4167,100.8000,Mongolia,MN,MNG,Bayanhongor,Bayanhongor,MN-069,province,,0.7,,,4,Asia/Ulaanbaatar,FALSE,1496480997
"Santayn Hiid","Santayn Hiid","Santuin Khid",48.1000,111.8000,Mongolia,MN,MNG,Hentiy,Hentiy,MN-039,province,,0.9,,,5,Asia/Ulaanbaatar,FALSE,1496929549
"Höhö Habtsagaytayn Örtöö","Hoho Habtsagaytayn Ortoo","Khukhu Khabtsagaytuin urto",49.8833,100.1000,Mongolia,MN,MNG,Hövsgöl,Hovsgol,MN-041,province,,1.2,,,5,Asia/Ulaanbaatar,FALSE,1496130534
"Ögöömöriin Hiid","Ogoomoriin Hiid","Ugumuryyn Khid|Ugumurin Khid|Ugumuröyn Khid",45.5500,112.2000,Mongolia,MN,MNG,Sühbaatar,Suhbaatar,MN-051,province,,0.5,,,4,Asia/Choibalsan,FALSE,1496353638
Tsoohor,Tsoohor,"Undur Khurmein Sume|Öndör Hürme Suma|Khurmeyn somon|Hürmiin Suma|Hürmen|Ündür hürme’iin sumu|Khurmein Somon|Öndör hürme|Khürmen|Hürmeiin Suma|Khurmin-Somon",43.3128,104.0844,Mongolia,MN,MNG,Ömnögovĭ,Omnogovi,MN-053,province,minor,0.2,,,3,Asia/Ulaanbaatar,FALSE,1496148053
Öldziyt,Oldziyt,"Saykhan-dulan Somon|Saykhan Dulan|Sayhan dulaan sumu|Saikhan Dulan Sume|Saïkhandulaan|Sayhandulaan|Sayhan Dulaan Suma",44.6833,109.0167,Mongolia,MN,MNG,Dornogovĭ,Dornogovi,MN-063,province,minor,0.1,,,3,Asia/Ulaanbaatar,FALSE,1496794876
"Sümiyn Bulag","Sumiyn Bulag","Gürwandzagal|Gurubun Zagaran|Gurbun Dzagalyn Somon|Gurbun-Dzagal-Sumu|Gurbun Dzagal|Gurban Dzakhaliin Somon|Gurban Dzagaliin Suma|Gurvandzgal",49.1333,114.8833,Mongolia,MN,MNG,Dornod,Dornod,MN-061,province,minor,0.2,,,3,Asia/Choibalsan,FALSE,1496705093
Burgaasatayn-Örtöö,Burgaasatayn-Ortoo,,49.4667,92.0000,Mongolia,MN,MNG,Uvs,Uvs,MN-046,province,,1.0,,,5,Asia/Hovd,FALSE,1496097431
"Dargatayn Jisa Hiid","Dargatayn Jisa Hiid","Dargiatuyn chzhisa khid|Dargiatuin chzhisa khid|Dargatayn-Jisa-Hiyd",46.5333,107.1000,Mongolia,MN,MNG,Töv,Tov,MN-047,province,,0.2,,,4,Asia/Ulaanbaatar,FALSE,1496613107
"Enger Hulasa","Enger Hulasa",,44.2000,111.2333,Mongolia,MN,MNG,Dornogovĭ,Dornogovi,MN-063,province,,0.3,,,5,Asia/Ulaanbaatar,FALSE,1496346239
Shir,Shir,,49.0333,105.4333,Mongolia,MN,MNG,Selenge,Selenge,MN-049,province,,1.6,,,5,Asia/Ulaanbaatar,FALSE,1496428342
"Gashuunii Hiid","Gashuunii Hiid","Gashunyy-khid|Gashuny Khid",48.2667,112.3167,Mongolia,MN,MNG,Hentiy,Hentiy,MN-039,province,,0.4,,,5,Asia/Ulaanbaatar,FALSE,1496454783
"Öldzeyte Hural","Oldzeyte Hural","Ul’tszeytu Khural",43.5833,109.0500,Mongolia,MN,MNG,Dornogovĭ,Dornogovi,MN-063,province,,0.2,,,5,Asia/Ulaanbaatar,FALSE,1496063942
"Uhaa Hushuunii Hiid","Uhaa Hushuunii Hiid","Ukha-khushunyy khid|Ukha-khushuny-khid",48.7667,111.9833,Mongolia,MN,MNG,Hentiy,Hentiy,MN-039,province,,0.4,,,5,Asia/Ulaanbaatar,FALSE,1496847379
"Taban Tologoy Hural","Taban Tologoy Hural","Taban Tologoy Khural",46.4000,109.6000,Mongolia,MN,MNG,Hentiy,Hentiy,MN-039,province,,1.9,,,5,Asia/Ulaanbaatar,FALSE,1496793411
"Bataiin Hiid","Bataiin Hiid","Batuin Khid|Bataiin Hiyd",47.3667,104.2833,Mongolia,MN,MNG,Töv,Tov,MN-047,province,,1.1,,,5,Asia/Ulaanbaatar,FALSE,1496322443
"Ideriin Suma","Ideriin Suma","Ider|Ideriin sumu|Ider somon",48.7000,99.9000,Mongolia,MN,MNG,Hövsgöl,Hovsgol,MN-041,province,,1.3,,,4,Asia/Ulaanbaatar,FALSE,1496538794
Tögrög,Togrog,"Tugurig somon|Tugurik|Tügürig sumu|Torog|Tögörig Suma|Tugurig|Tugurig Sume|Tögörig|Tugurik Somon",45.8264,94.8178,Mongolia,MN,MNG,Govĭ-Altay,Govi-Altay,MN-065,province,minor,0.3,,,3,Asia/Hovd,FALSE,1496414182
"Üdlegiin Dugang","Udlegiin Dugang","Udeligyyn dugang|Udeligiyn|Üdeligiin Dugang|Üdeligiin Dugan",48.2833,106.8167,Mongolia,MN,MNG,Töv,Tov,MN-047,province,,2.5,,,4,Asia/Ulaanbaatar,FALSE,1496243978
Tsetserleg,Tsetserleg,"Öndörhangay|Öndör Hangay Suma|Öndörkhangaï",49.2714,94.8589,Mongolia,MN,MNG,Uvs,Uvs,MN-046,province,minor,0.5,,,3,Asia/Hovd,FALSE,1496302946
"Eringiin Dugang","Eringiin Dugang","Dugun-Iringin|Eringiyn Dugan|Eringin Dugang",50.1561,102.6700,Mongolia,MN,MNG,Bulgan,Bulgan,MN-067,province,,0.4,,,4,Asia/Ulaanbaatar,FALSE,1496805374
"Abdarantaiin Hural","Abdarantaiin Hural","Abdarantyn khural|Abdarantön Khural|Abdarantona Khural",44.6667,110.5000,Mongolia,MN,MNG,Dornogovĭ,Dornogovi,MN-063,province,,0.2,,,4,Asia/Ulaanbaatar,FALSE,1496925898
Hovd,Hovd,Khowd,49.3000,90.5167,Mongolia,MN,MNG,Bayan-Ölgiy,Bayan-Olgiy,MN-071,province,,1.2,,,5,Asia/Hovd,FALSE,1496558342
Önjüül,Onjuul,"Undzhul|Unchzhul Somon|Önjüül Suma|Ünjüül sumu|Unchzhul-Sumu",46.7833,105.5667,Mongolia,MN,MNG,Töv,Tov,MN-047,province,,0.7,,,4,Asia/Ulaanbaatar,FALSE,1496139037
"Dzüün Ganjir Hural","Dzuun Ganjir Hural","Dzun-gandzhur-khural|Dzun Ganjur Khural",46.6167,110.6500,Mongolia,MN,MNG,Hentiy,Hentiy,MN-039,province,,0.3,,,5,Asia/Ulaanbaatar,FALSE,1496355133
Bugat,Bugat,"Kirgis Sume|Khyargas|Hyargas|Hirgis sumu|Hirgis Suma|Khirgis somon|Khirgis|Hirgis",49.6711,93.7794,Mongolia,MN,MNG,Uvs,Uvs,MN-046,province,minor,0.6,,,3,Asia/Hovd,FALSE,1496960687
"Ulaan Chuluutayn Hüryee","Ulaan Chuluutayn Huryee","Ulan-chulutuin Khure|Ulaan-Chuluutayn-Huree",48.0167,102.1333,Mongolia,MN,MNG,Arhangay,Arhangay,MN-073,province,,0.8,,,5,Asia/Ulaanbaatar,FALSE,1496064645
"Bulangiin Suurin","Bulangiin Suurin",Bulengin-surin,48.5333,110.4000,Mongolia,MN,MNG,Hentiy,Hentiy,MN-039,province,,0.5,,,5,Asia/Ulaanbaatar,FALSE,1496867753
"Mönhöliin Bayshing","Monholiin Bayshing","Menkheliin bayshin",48.2000,100.6000,Mongolia,MN,MNG,Arhangay,Arhangay,MN-073,province,,1.0,,,5,Asia/Ulaanbaatar,FALSE,1496474854
Agaruut,Agaruut,"Agaruuta Suma|Agarutu Somon|Agarut|Agaratu somon|Agaratu|Agaratu-Sumu|Agaruutü|Agarutu-sumu",43.1667,109.4333,Mongolia,MN,MNG,Dornogovĭ,Dornogovi,MN-063,province,,0.2,,,4,Asia/Ulaanbaatar,FALSE,1496694443
"Ibing Bayshing","Ibing Bayshing",Ibing,49.2667,105.3000,Mongolia,MN,MNG,Selenge,Selenge,MN-049,province,,1.4,,,5,Asia/Ulaanbaatar,FALSE,1496400259
Uliast,Uliast,,48.9167,91.2500,Mongolia,MN,MNG,Bayan-Ölgiy,Bayan-Olgiy,MN-071,province,,1.0,,,5,Asia/Hovd,FALSE,1496907272
"Ojimin Hural","Ojimin Hural","Ojiman-Hural|Ochzhimin khural|Ochzhiman khural",43.2000,100.7167,Mongolia,MN,MNG,Ömnögovĭ,Omnogovi,MN-053,province,,0.2,,,4,Asia/Ulaanbaatar,FALSE,1496238888
"Idermegiin Hiid","Idermegiin Hiid","Idermegyyn Khid|Idermegöyn Khid",47.5000,111.0833,Mongolia,MN,MNG,Hentiy,Hentiy,MN-039,province,,0.9,,,5,Asia/Ulaanbaatar,FALSE,1496032058
Belchir,Belchir,"Bilchir|Beruchiru|Belchir Suma|Bel’chir sumu",49.7500,107.4667,Mongolia,MN,MNG,Selenge,Selenge,MN-049,province,,0.7,,,4,Asia/Ulaanbaatar,FALSE,1496650918
Öndörhangay-Sum,Ondorhangay-Sum,,49.6833,95.0667,Mongolia,MN,MNG,Uvs,Uvs,MN-046,province,,0.6,,,5,Asia/Hovd,FALSE,1496060958
"Daljiin Jisa","Daljiin Jisa","Dalchzhyin chzhisa|Dalchzhöin chzhisa|Dalchzhiin chzhisa",46.5333,106.1167,Mongolia,MN,MNG,Dundgovĭ,Dundgovi,MN-059,province,,0.5,,,4,Asia/Ulaanbaatar,FALSE,1496551076
Altanbulag,Altanbulag,"Bayan-Khayrkhan|Bayan khayran somon|Bayan Khairkhan|Bayan hayrhan sumu|Bayan Hayrhan Suma|Bayanhayrhan|Bayan Khairkhan Sume",49.3000,96.3333,Mongolia,MN,MNG,Dzavhan,Dzavhan,MN-057,province,minor,0.5,,,3,Asia/Hovd,FALSE,1496602293
"Höhöldögöiin Shüteen","Hoholdogoiin Shuteen","Khukhuldegyyn shutun|Khukhuldegöyn Shutun",47.0500,110.0833,Mongolia,MN,MNG,Hentiy,Hentiy,MN-039,province,,0.5,,,5,Asia/Ulaanbaatar,FALSE,1496747211
Javarthushuu,Javarthushuu,"Bayan uula sumu|Bayan Uula Somon|Bayan-Uul|Bayan Ula Sume|Bayan Ula|Bayan ura|Bayan uula|Bayan Uula Suma|Bayan-ula-Somon",49.1500,112.7333,Mongolia,MN,MNG,Dornod,Dornod,MN-061,province,minor,0.6,,,3,Asia/Choibalsan,FALSE,1496386082
"Muhuyn Jisa","Muhuyn Jisa","Mukhuin Chzhisa|Mukhuyn chzhisa",45.8333,105.9167,Mongolia,MN,MNG,Dundgovĭ,Dundgovi,MN-059,province,,2.0,,,5,Asia/Ulaanbaatar,FALSE,1496916583
Hajuu-Ulaan,Hajuu-Ulaan,,46.3314,109.8789,Mongolia,MN,MNG,Hentiy,Hentiy,MN-039,province,,0.6,,,5,Asia/Ulaanbaatar,FALSE,1496190927
Chuluuta,Chuluuta,,48.8333,105.4167,Mongolia,MN,MNG,Selenge,Selenge,MN-049,province,,1.6,,,5,Asia/Ulaanbaatar,FALSE,1496420530
Chuluuta,Chuluuta,Chuluutu|Chulutu,49.9000,106.6500,Mongolia,MN,MNG,Selenge,Selenge,MN-049,province,,0.7,,,5,Asia/Ulaanbaatar,TRUE,1496945699
"Engerteyn Dugang","Engerteyn Dugang","Engertyyn dugang|Engertyyn-dugan|Engertyin-dugan",48.2000,112.1333,Mongolia,MN,MNG,Hentiy,Hentiy,MN-039,province,,0.4,,,4,Asia/Ulaanbaatar,FALSE,1496340713
Dulaanhaan,Dulaanhaan,"Bayan Hara",49.9178,106.1894,Mongolia,MN,MNG,Darhan-Uul,Darhan-Uul,MN-037,province,,5.1,,,5,Asia/Ulaanbaatar,FALSE,1496204657
"Araiin Hüryee","Araiin Huryee","Arain Khure",48.4000,99.4500,Mongolia,MN,MNG,Hövsgöl,Hovsgol,MN-041,province,,1.6,,,5,Asia/Ulaanbaatar,FALSE,1496267993
"Jibhalanta Suma","Jibhalanta Suma","Chzhibkhulantu Somon|Dzhibkhulantu|Dzhibkhulantu-Somon",42.9833,106.7000,Mongolia,MN,MNG,Ömnögovĭ,Omnogovi,MN-053,province,,0.8,,,4,Asia/Ulaanbaatar,FALSE,1496981645
"Argalintayn Örtöö","Argalintayn Ortoo","Argalintiin yurt|Argalintiin Urto",45.3167,102.2667,Mongolia,MN,MNG,Övörhangay,Ovorhangay,MN-055,province,,0.3,,,5,Asia/Ulaanbaatar,FALSE,1496693236
Bornuur,Bornuur,,48.4667,106.2667,Mongolia,MN,MNG,Töv,Tov,MN-047,province,minor,3.0,,,3,Asia/Ulaanbaatar,FALSE,1496881431
"Ürteiin Suma","Urteiin Suma","Urtuin Sume|Örtöö Suma|Urtu Somon|Urtaiin Suma|Urtu|Urtuin|Urtuin-Sumu",46.1167,115.5500,Mongolia,MN,MNG,Sühbaatar,Suhbaatar,MN-051,province,,0.3,,,4,Asia/Choibalsan,FALSE,1496661668
Dzüünbulag,Dzuunbulag,"Matat Somon|Matat|Matad Sume|Matad somon|Madat sumu|Mamat-Somon|Matad|Madat|Matad Suma",47.1500,115.5333,Mongolia,MN,MNG,Dornod,Dornod,MN-061,province,minor,0.1,,,3,Asia/Choibalsan,FALSE,1496661679
Har-Us,Har-Us,"Erdenebüren|Erdeni Bürin Suma",48.4833,91.4333,Mongolia,MN,MNG,Hovd,Hovd,MN-043,province,minor,0.7,,,3,Asia/Hovd,FALSE,1496561284
Har-Us,Har-Us,Ölgiy|Ölgiï,49.0325,92.0356,Mongolia,MN,MNG,Uvs,Uvs,MN-046,province,minor,0.6,,,3,Asia/Hovd,FALSE,1496239828
Tsogtjargalan,Tsogtjargalan,,47.5833,95.2500,Mongolia,MN,MNG,Dzavhan,Dzavhan,MN-057,province,,0.2,,,5,Asia/Hovd,FALSE,1496982905
Rashaant,Rashaant,"Arshantu sumu|Arshaantu|Arshaanta Suma|Arshantu Khure|Arshantu Somon",49.1267,101.4281,Mongolia,MN,MNG,Hövsgöl,Hovsgol,MN-041,province,minor,1.7,,,3,Asia/Ulaanbaatar,FALSE,1496881643
"Bayshinta Hüryee","Bayshinta Huryee","Bayshintu Khure",47.4500,105.0500,Mongolia,MN,MNG,Töv,Tov,MN-047,province,,0.5,,,5,Asia/Ulaanbaatar,FALSE,1496148705
Bayan-Ovoo,Bayan-Ovoo,Altay,44.6167,94.9167,Mongolia,MN,MNG,Govĭ-Altay,Govi-Altay,MN-065,province,minor,0.1,,,3,Asia/Hovd,FALSE,1496653011
Ihhayrhan,Ihhayrhan,,46.9333,105.9333,Mongolia,MN,MNG,Töv,Tov,MN-047,province,,0.3,,,5,Asia/Ulaanbaatar,FALSE,1496066338
Bugat,Bugat,,49.0667,103.6658,Mongolia,MN,MNG,Bulgan,Bulgan,MN-067,province,minor,0.5,,,3,Asia/Ulaanbaatar,FALSE,1496823160
Hörhröö,Horhroo,"Khurkhurogiin Khure|Hurharagiin Hüryee|Khörkhröö",45.6333,97.6333,Mongolia,MN,MNG,Govĭ-Altay,Govi-Altay,MN-065,province,,0.4,,,4,Asia/Hovd,FALSE,1496358284
"Hongiin Hüryee","Hongiin Huryee","Khongiin Khure",48.9000,99.9500,Mongolia,MN,MNG,Hövsgöl,Hovsgol,MN-041,province,,1.3,,,5,Asia/Ulaanbaatar,FALSE,1496582136
"Hündelengiin Shüteen","Hundelengiin Shuteen","Khundulungyyn shuten|Khundulgöyn Shutun|Hündelengiin shüteem|Khundulungöyn Shutin|Khundulungyyn Shutun",47.5333,110.3000,Mongolia,MN,MNG,Hentiy,Hentiy,MN-039,province,,4.3,,,4,Asia/Ulaanbaatar,FALSE,1496702631
"Belen Hüryee Hiid","Belen Huryee Hiid","Belen khure khid|Belen-Hüree-Hiyd",46.6833,103.0000,Mongolia,MN,MNG,Övörhangay,Ovorhangay,MN-055,province,,1.0,,,5,Asia/Ulaanbaatar,FALSE,1496049246
"Habtsagay Hüryee","Habtsagay Huryee","Khabtsagay Khure",49.0167,99.3500,Mongolia,MN,MNG,Hövsgöl,Hovsgol,MN-041,province,,1.2,,,5,Asia/Ulaanbaatar,FALSE,1496903348
Ulaanhad,Ulaanhad,Bayanhangay,47.9333,105.5500,Mongolia,MN,MNG,Töv,Tov,MN-047,province,minor,1.0,,,3,Asia/Ulaanbaatar,FALSE,1496085586
"Dulaiin Hüryee","Dulaiin Huryee","Dulain khure",49.3000,98.8000,Mongolia,MN,MNG,Hövsgöl,Hovsgol,MN-041,province,,0.7,,,5,Asia/Ulaanbaatar,FALSE,1496099288
"Bayan Hoboriin Horshoo","Bayan Hoboriin Horshoo","Bayan khoburin khorsho|Bainkobïru|Bayan Khoburin yurt",44.5333,100.1333,Mongolia,MN,MNG,Bayanhongor,Bayanhongor,MN-069,province,,0.4,,,4,Asia/Ulaanbaatar,FALSE,1496884019
Öndörsant,Ondorsant,"Santa Suma|Santu Somon",47.1833,102.2167,Mongolia,MN,MNG,Arhangay,Arhangay,MN-073,province,,1.5,,,5,Asia/Ulaanbaatar,FALSE,1496706386
"Hudagiin Hiid","Hudagiin Hiid","Khudugyyn Khid|Khudugin Khid|Khudugöyn Khid|Khudugin-khural",44.9500,113.5000,Mongolia,MN,MNG,Sühbaatar,Suhbaatar,MN-051,province,,0.4,,,4,Asia/Choibalsan,FALSE,1496402426
"Hudagiin Hiid","Hudagiin Hiid","Khudugyyn Khid|Khudugöyn Khid|Khudugin Khid",45.3333,113.0833,Mongolia,MN,MNG,Sühbaatar,Suhbaatar,MN-051,province,,0.4,,,4,Asia/Choibalsan,TRUE,1496753506
"Delger Öldzeyteyn Jisa","Delger Oldzeyteyn Jisa","Delger Ultszeytuin chzhisa",46.7000,106.7833,Mongolia,MN,MNG,Töv,Tov,MN-047,province,,0.2,,,5,Asia/Ulaanbaatar,FALSE,1496120662
"Hara Noyonii Hiid","Hara Noyonii Hiid","Khara noyanöy khid|Khara Noyanyy Khid|Hara-Noyonii-Hiyd",44.3000,106.6000,Mongolia,MN,MNG,Ömnögovĭ,Omnogovi,MN-053,province,,0.2,,,4,Asia/Ulaanbaatar,FALSE,1496316074
"Hamjilgayn Hiid","Hamjilgayn Hiid","Khamchilkoin-khid|Khamchzhilgayn Khid|Khamchzhilgain Khid",47.5833,112.8000,Mongolia,MN,MNG,Sühbaatar,Suhbaatar,MN-051,province,,0.3,,,4,Asia/Choibalsan,FALSE,1496030774
"Ulaan Tolgoy","Ulaan Tolgoy",,48.7333,115.6667,Mongolia,MN,MNG,Dornod,Dornod,MN-061,province,,0.2,,,5,Asia/Choibalsan,FALSE,1496415559
Bayan,Bayan,"Yihe Hiid Suma|Yihe Hete Suma|Ihe hete sumu|Ikhkhet|Ikhe-khid Somon|Ikhe-Khete|Ihe hete|Yihe Hiid|Ikhe-khid|Ihhet|Inhet",46.2500,110.1667,Mongolia,MN,MNG,Dornogovĭ,Dornogovi,MN-063,province,minor,0.6,,,3,Asia/Ulaanbaatar,FALSE,1496990170
Bayan,Bayan,Hölöbuyr|Khölöbuïr,47.9167,112.9500,Mongolia,MN,MNG,Dornod,Dornod,MN-061,province,minor,0.3,,,3,Asia/Choibalsan,FALSE,1496405626
Idermeg,Idermeg,"Idermeg Sumu|Idermeg Somon|Idermeg Suma",47.5667,111.3333,Mongolia,MN,MNG,Hentiy,Hentiy,MN-039,province,,0.9,,,4,Asia/Ulaanbaatar,FALSE,1496094732
Böhöt,Bohot,"Undur Shile|Under-Shil|Öndör Shili Suma|Öndör Shili|Öndörshil|Undur-Shili Somon|Undur-Shili|Undur shili sumu",45.2500,108.2833,Mongolia,MN,MNG,Dundgovĭ,Dundgovi,MN-059,province,minor,0.2,,,3,Asia/Ulaanbaatar,FALSE,1496337794
Bayan,Bayan,"Bayan uula sumu|Bayan-Uul|Bayan Ula Somon|Bayan Uula Suma|Bayan uula|Bayan-Ula",46.9928,95.2003,Mongolia,MN,MNG,Govĭ-Altay,Govi-Altay,MN-065,province,minor,0.4,,,3,Asia/Hovd,FALSE,1496820597
Bayan,Bayan,"Bayan Suma|Bayan Somon",46.1000,95.6167,Mongolia,MN,MNG,Govĭ-Altay,Govi-Altay,MN-065,province,,0.4,,,5,Asia/Hovd,TRUE,1496946540
Hujirt,Hujirt,"Delger-khan Somon|Delgerkhaan|Del’ger han sumu|Delger han|Delger Haan Suma|Delger-khan|Derigeri han|Del’ger-khan-Sumu|Delgerhaan|Delger somon",46.6000,104.5833,Mongolia,MN,MNG,Töv,Tov,MN-047,province,minor,0.6,,,3,Asia/Ulaanbaatar,FALSE,1496526940
"Noyon Hangay Ashan","Noyon Hangay Ashan","Noyan khingai ashan",47.7167,99.4167,Mongolia,MN,MNG,Arhangay,Arhangay,MN-073,province,,0.6,,,5,Asia/Ulaanbaatar,FALSE,1496997399
"Bayartayn Hiid","Bayartayn Hiid","Bayartuin Khid|Bayartuyn Khid|Bayartayn-Hiyd",47.7833,106.6167,Mongolia,MN,MNG,Ulaanbaatar,Ulaanbaatar,MN-1,city,,305.6,,,3,Asia/Ulaanbaatar,FALSE,1496535545
"Öldzeyte Nogoon Hiid","Oldzeyte Nogoon Hiid","Ultszeytu-nogon khid",48.7167,104.8000,Mongolia,MN,MNG,Selenge,Selenge,MN-049,province,,1.2,,,5,Asia/Ulaanbaatar,FALSE,1496030484
"Taylag Suma","Taylag Suma","Urumbay Somon|Urambay Suma|Taylak Somon|Taylak|Tailak|Urumbai|Taylag",47.2500,90.9667,Mongolia,MN,MNG,Bayan-Ölgiy,Bayan-Olgiy,MN-071,province,,0.9,,,4,Asia/Hovd,FALSE,1496134253
"Burgaasatayn Dugang","Burgaasatayn Dugang","Burgastayn Dugang",45.2167,114.0833,Mongolia,MN,MNG,Sühbaatar,Suhbaatar,MN-051,province,,0.5,,,5,Asia/Choibalsan,FALSE,1496772487
"Tsagaan Deresenii Hural","Tsagaan Deresenii Hural","Tsagan derisuni khural",43.3500,103.1667,Mongolia,MN,MNG,Ömnögovĭ,Omnogovi,MN-053,province,,0.2,,,5,Asia/Ulaanbaatar,FALSE,1496094611
Dzüünbulag,Dzuunbulag,"Ul’-bain-munku Somon|Ula-Bayan-Munkhu|Ula bayan mönhö Sumu|Uulbayan Mönh|Uula Bayan Mönhö Suma|Ul’bayn Munku Somon|Uulbayan|Uula bayan mönhö",46.3833,112.1833,Mongolia,MN,MNG,Sühbaatar,Suhbaatar,MN-051,province,minor,0.5,,,3,Asia/Choibalsan,FALSE,1496230694
"Dzahachi Örtöö","Dzahachi Ortoo","Azakhachi|Dzakhachi Urto",47.8333,114.2833,Mongolia,MN,MNG,Dornod,Dornod,MN-061,province,,0.2,,,5,Asia/Choibalsan,FALSE,1496685445
"Hushuu Hiid","Hushuu Hiid","Ho-shun Hei-t’e|Kumirnya Khoshun-Khit|Khushu khid|Hushuu-Hiyd|Hoshun-hito|Khoshu-Khid|Khoshu Khit",45.1667,104.1167,Mongolia,MN,MNG,Dundgovĭ,Dundgovi,MN-059,province,,0.3,,,4,Asia/Ulaanbaatar,FALSE,1496918420
Turt,Turt,"Khankha Somon|Khangin|Khanga|Hanh|Hangin|Hanga|Khanga Sume|Khankh|Hanga Suma|Hanga Sumu",51.5125,100.6639,Mongolia,MN,MNG,Hövsgöl,Hovsgol,MN-041,province,minor,0.7,,,3,Asia/Ulaanbaatar,FALSE,1496159770
"Buhuugiin Hural","Buhuugiin Hural","Bukhugyyn khural|Bukhugöyn Khural|Bukhugoin Khural",47.6667,106.6667,Mongolia,MN,MNG,Töv,Tov,MN-047,province,,0.6,,,4,Asia/Ulaanbaatar,FALSE,1496862299
"Balji Horshoo","Balji Horshoo","Bal’ji Sumu|Balji Suma|Bal’dzhi|Bal’chzhi Sumu|Balji Sume|Balchzhi Khorsho",49.0000,110.5500,Mongolia,MN,MNG,Hentiy,Hentiy,MN-039,province,,0.5,,,4,Asia/Ulaanbaatar,FALSE,1496998776
"Naydan Jisa","Naydan Jisa","Naydan chzhisa",46.8333,107.5167,Mongolia,MN,MNG,Töv,Tov,MN-047,province,,0.2,,,5,Asia/Ulaanbaatar,FALSE,1496187847
"Dörböljin Hiid","Dorboljin Hiid","Durbuljin Khid|Durbul’dzhin khid",46.5833,112.2500,Mongolia,MN,MNG,Sühbaatar,Suhbaatar,MN-051,province,,0.5,,,5,Asia/Choibalsan,FALSE,1496599316
Harhiraa,Harhiraa,"Taryaalang Suma|Tarialan",49.7806,91.9022,Mongolia,MN,MNG,Uvs,Uvs,MN-046,province,minor,1.2,,,3,Asia/Hovd,FALSE,1496768785
Urt,Urt,Gurvantes,43.2500,101.0833,Mongolia,MN,MNG,Ömnögovĭ,Omnogovi,MN-053,province,minor,0.2,,,3,Asia/Ulaanbaatar,FALSE,1496746763
"Haltariin Dugang","Haltariin Dugang","Dugun-Khantyryn|Khaltaryyn dugang",48.9167,104.7167,Mongolia,MN,MNG,Selenge,Selenge,MN-049,province,,1.2,,,5,Asia/Ulaanbaatar,FALSE,1496150407
"Arigiin Hüryee","Arigiin Huryee","Kuren’-Arik|Arik|Arig’iin hürie|A-li-k’o|Arigyyn khure|Arik-Khure|Arigin-Khure",50.4500,100.9000,Mongolia,MN,MNG,Hövsgöl,Hovsgol,MN-041,province,,0.6,,,4,Asia/Ulaanbaatar,FALSE,1496695090
Ergel,Ergel,"Hatün Bulag|Haton bulag sumu|Hatau Bulag Suma|Hatan Bulag Suma|Khatun-bulak Somon|Khatun Bulak|Khaton Buluk Sume|Khaton-Bulag-Sumu|Khatan-Bulak|Khatanbulag|Khatyn-bulak somon|Hatanbulag",43.1500,109.1333,Mongolia,MN,MNG,Dornogovĭ,Dornogovi,MN-063,province,minor,0.2,,,3,Asia/Ulaanbaatar,FALSE,1496902084
"Ulaan Tologoy Hural","Ulaan Tologoy Hural","Ulan tologoy Khural",47.9667,105.0500,Mongolia,MN,MNG,Töv,Tov,MN-047,province,,0.8,,,5,Asia/Ulaanbaatar,FALSE,1496951979
"Delger Hujirtayn Dugang","Delger Hujirtayn Dugang","Delger khuchzhirtuin dugang",48.9833,97.4833,Mongolia,MN,MNG,Dzavhan,Dzavhan,MN-057,province,,0.5,,,5,Asia/Hovd,FALSE,1496013894
Öldziyt,Oldziyt,"Ul’tszyitu Somon|Ul’tszuitu Somon|Uldzuitu Somon|Ul’dzeytü sumu|Öldzeyte Suma|Oldzeyte|Öldziït|Ul’dzeytu",46.4000,111.6167,Mongolia,MN,MNG,Sühbaatar,Suhbaatar,MN-051,province,,0.6,,,4,Asia/Choibalsan,FALSE,1496127139
Bulgan,Bulgan,"Bayan Öndör Suma|Bayan-Öndör|Bayan undur sumu|Bayan Undur Sume|Bayan Undur Somon|Bayan-Undur",44.8008,98.6569,Mongolia,MN,MNG,Bayanhongor,Bayanhongor,MN-069,province,minor,0.1,,,3,Asia/Ulaanbaatar,FALSE,1496092290
"Hüytenii Hiid","Huytenii Hiid","Khuytenyy khid|Khuytenöy Khid|Khoytenyy-Khid",46.1333,111.8333,Mongolia,MN,MNG,Sühbaatar,Suhbaatar,MN-051,province,,0.6,,,4,Asia/Choibalsan,FALSE,1496576535
"Hüytenii Hiid","Huytenii Hiid","Khuytenyy khid|Khuytenöy Khid",46.5167,102.5000,Mongolia,MN,MNG,Övörhangay,Ovorhangay,MN-055,province,,1.0,,,5,Asia/Ulaanbaatar,FALSE,1496658646
Hirang,Hirang,Hiran|Khirang,50.2833,106.6000,Mongolia,MN,MNG,Selenge,Selenge,MN-049,province,,1.5,,,5,Asia/Ulaanbaatar,FALSE,1496112774
"Dashi Choynbil Hiid","Dashi Choynbil Hiid","Dashi choynbil khid|Dashi-Choynbil-Hiyd",43.9167,107.7000,Mongolia,MN,MNG,Ömnögovĭ,Omnogovi,MN-053,province,,0.2,,,5,Asia/Ulaanbaatar,FALSE,1496744487
"Olon Turagiin Dugang","Olon Turagiin Dugang","Olon-Turagiin-Dugan|Olon-Turugin dugang",48.1500,101.2333,Mongolia,MN,MNG,Arhangay,Arhangay,MN-073,province,,1.0,,,5,Asia/Ulaanbaatar,FALSE,1496470908
"Dumda Bulyagin Horshoo","Dumda Bulyagin Horshoo","Dumda Bulyagin Khorsho",46.2833,111.2000,Mongolia,MN,MNG,Hentiy,Hentiy,MN-039,province,,0.6,,,5,Asia/Ulaanbaatar,FALSE,1496907479
Höhtolgoy,Hohtolgoy,"Hovd|Khowd|Hobdo Gol Suma",49.2800,90.9114,Mongolia,MN,MNG,Uvs,Uvs,MN-046,province,minor,0.9,,,3,Asia/Hovd,FALSE,1496195300
"Hongor Suma","Hongor Suma","Khongor Sume|Khongor Somon|Khongor|Hongor|Hongoru|Hongor Sumu",45.9833,108.8333,Mongolia,MN,MNG,Dornogovĭ,Dornogovi,MN-063,province,,0.8,,,4,Asia/Ulaanbaatar,FALSE,1496301261
Hotont,Hotont,"Khotontu Somon|Khotont|Hotontu|Hotonto Suma|Hotonto|Hotantu sumu",47.3631,102.4711,Mongolia,MN,MNG,Arhangay,Arhangay,MN-073,province,minor,1.5,,,3,Asia/Ulaanbaatar,FALSE,1496047206
"Dzuutayn Jisa","Dzuutayn Jisa","Tszutuin chzhisa|Tszutuyn chzhisa",46.0667,105.7000,Mongolia,MN,MNG,Dundgovĭ,Dundgovi,MN-059,province,,0.5,,,5,Asia/Ulaanbaatar,FALSE,1496933326
"Mogoyn Bayshing","Mogoyn Bayshing",,46.3667,95.8167,Mongolia,MN,MNG,Govĭ-Altay,Govi-Altay,MN-065,province,,2.7,,,5,Asia/Hovd,FALSE,1496920308
"Deresenii Hural","Deresenii Hural","Deresunöy Khural|Deresunyy khural",43.7833,109.7833,Mongolia,MN,MNG,Dornogovĭ,Dornogovi,MN-063,province,,0.2,,,5,Asia/Ulaanbaatar,FALSE,1496071782
"Amaiin Usanii Hiid","Amaiin Usanii Hiid","Amayn usunöy khid|Amain Usunoy Khid|Amaiin-Usanii-Hiyd|Amain usunyy khid",46.1333,104.4333,Mongolia,MN,MNG,Dundgovĭ,Dundgovi,MN-059,province,,1.0,,,4,Asia/Ulaanbaatar,FALSE,1496707222
Tavin,Tavin,"Yöröö sumu|Yöröö|Iro|Iuru somon|Yüröö|Yöroö Somon|Yöröö Suma",49.7431,106.6667,Mongolia,MN,MNG,Selenge,Selenge,MN-049,province,,0.7,,,4,Asia/Ulaanbaatar,FALSE,1496633233
"Nomon Haanii Hiid","Nomon Haanii Hiid","Nomon Khanyy khid|Nomon Khanöy Khid|Nomon Khanön Khid",46.9000,112.1167,Mongolia,MN,MNG,Sühbaatar,Suhbaatar,MN-051,province,,0.4,,,4,Asia/Choibalsan,FALSE,1496303180
"Türüügiin Horshoo","Turuugiin Horshoo","Turugyyn khorsho",51.2833,100.7833,Mongolia,MN,MNG,Hövsgöl,Hovsgol,MN-041,province,,0.7,,,5,Asia/Ulaanbaatar,FALSE,1496105638
"Dzagasatayn Horshoo","Dzagasatayn Horshoo","Tszagastyyn-khorsho|Tszagastöyn Khorsho",47.1000,109.6000,Mongolia,MN,MNG,Hentiy,Hentiy,MN-039,province,,0.5,,,5,Asia/Ulaanbaatar,FALSE,1496263317
"Höshöö Süme","Hoshoo Sume","Khoshu-Sume|Khosho Sume|Hoshō Sūmu|Ho-shih-miao|Fushu mein obō",47.3000,119.0500,Mongolia,MN,MNG,Dornod,Dornod,MN-061,province,,0.1,,,4,Asia/Choibalsan,FALSE,1496853572
Bugat,Bugat,"Bugutu Sumu|Bugutu Somon|Bugata Suma|Bugata|Bugutu",47.9167,101.2667,Mongolia,MN,MNG,Arhangay,Arhangay,MN-073,province,,0.9,,,4,Asia/Ulaanbaatar,FALSE,1496550170
Shohoy,Shohoy,,47.8333,107.6333,Mongolia,MN,MNG,Töv,Tov,MN-047,province,,0.4,,,5,Asia/Ulaanbaatar,FALSE,1496230619
"Dorji Tsamba Hiid","Dorji Tsamba Hiid","Dorchzhi Tsamba Khid|Dorji-Tsamba-Hiyd",46.9667,109.5833,Mongolia,MN,MNG,Hentiy,Hentiy,MN-039,province,,0.5,,,5,Asia/Ulaanbaatar,FALSE,1496057018
Altraga,Altraga,"Bayandzürkh|Bayan Dzürihe Suma|Bayandzürh|Bayan Dzürihe Suma",50.2111,98.9508,Mongolia,MN,MNG,Hövsgöl,Hovsgol,MN-041,province,minor,0.7,,,3,Asia/Ulaanbaatar,FALSE,1496278711
Ulagchin,Ulagchin,Ulaagchin,48.6333,96.8333,Mongolia,MN,MNG,Dzavhan,Dzavhan,MN-057,province,,0.4,,,5,Asia/Hovd,FALSE,1496737392
"Hoboriin Horshoo","Hoboriin Horshoo","Khoburiin yurt|Khoburiin khorsho|Hoboriin",47.4833,102.5000,Mongolia,MN,MNG,Arhangay,Arhangay,MN-073,province,,1.5,,,4,Asia/Ulaanbaatar,FALSE,1496610811
Oygor,Oygor,Uygar|Oïgor,49.1667,89.2833,Mongolia,MN,MNG,Bayan-Ölgiy,Bayan-Olgiy,MN-071,province,,1.2,,,5,Asia/Hovd,FALSE,1496512923
"Jirgalantayn Sang","Jirgalantayn Sang",,48.6833,105.8167,Mongolia,MN,MNG,Töv,Tov,MN-047,province,,2.7,,,5,Asia/Ulaanbaatar,FALSE,1496180112
"Otochin Dugang","Otochin Dugang",Otochin-Dugan,48.4500,100.2833,Mongolia,MN,MNG,Arhangay,Arhangay,MN-073,province,,0.9,,,5,Asia/Ulaanbaatar,FALSE,1496349414
"Tugiin Süme","Tugiin Sume","Tugin-Sume|Kumirnya Tuk-Sume|Tug Sume|Tuku-sume",47.9833,113.4167,Mongolia,MN,MNG,Dornod,Dornod,MN-061,province,,0.4,,,4,Asia/Choibalsan,FALSE,1496861640
"Naydanii Hüryee","Naydanii Huryee","Naydani khure",48.8667,91.7500,Mongolia,MN,MNG,Hovd,Hovd,MN-043,province,,0.7,,,5,Asia/Hovd,FALSE,1496231458
"Tümelteyn Süme","Tumelteyn Sume","Tumeltuin sume|Kumeltuin Sume",47.1500,104.0333,Mongolia,MN,MNG,Övörhangay,Ovorhangay,MN-055,province,,0.8,,,5,Asia/Ulaanbaatar,FALSE,1496712475
Altanbulag,Altanbulag,,47.7000,106.4000,Mongolia,MN,MNG,Töv,Tov,MN-047,province,minor,0.4,,,3,Asia/Ulaanbaatar,FALSE,1496332223
"Deeste Hüryee","Deeste Huryee","Dzete Hüryee|Destu-Khure",50.2333,100.8167,Mongolia,MN,MNG,Hövsgöl,Hovsgol,MN-041,province,,0.6,,,5,Asia/Ulaanbaatar,FALSE,1496542368
Altanbulag,Altanbulag,"Kiachta|Ch’ia-k’o-t’u|Maymachen|Alton Brok|Kyakhta|Altan Bulak|Maymaychen|Mai-mai-ch’eng|Altyn-Bulak",50.3167,106.4942,Mongolia,MN,MNG,Selenge,Selenge,MN-049,province,minor,1.5,,,3,Asia/Ulaanbaatar,FALSE,1496739201
"Tsatsaiin Hural","Tsatsaiin Hural","Tsetsein Khural|Tsatsain Khural",44.6000,109.0167,Mongolia,MN,MNG,Dornogovĭ,Dornogovi,MN-063,province,,0.1,,,5,Asia/Ulaanbaatar,FALSE,1496149314
Dzadgay,Dzadgay,"Bumbuger Somon|Bumbugeri|Bumbuger|Bumbeger somon|Bömbögör Suma|Bömböger sumu|Bömbögör",46.2092,99.6008,Mongolia,MN,MNG,Bayanhongor,Bayanhongor,MN-069,province,minor,0.8,,,3,Asia/Ulaanbaatar,FALSE,1496334420
"Semchin Dugang","Semchin Dugang",Semchin-Dugan,49.2500,101.5833,Mongolia,MN,MNG,Hövsgöl,Hovsgol,MN-041,province,,1.7,,,5,Asia/Ulaanbaatar,FALSE,1496647702
"Dzüün Iret Hiid","Dzuun Iret Hiid","Dzüün-Iret-Hiyd|Tszun iret khid",46.6000,102.2167,Mongolia,MN,MNG,Övörhangay,Ovorhangay,MN-055,province,,3.1,,,5,Asia/Ulaanbaatar,FALSE,1496323321
"Horin Jisa","Horin Jisa","Khorin chzhisa",46.2500,105.6167,Mongolia,MN,MNG,Dundgovĭ,Dundgovi,MN-059,province,,0.5,,,5,Asia/Ulaanbaatar,FALSE,1496012265
Günnariyn,Gunnariyn,"Gün narin sumu|Gün Nariin Suma|Günnariïn|Gun Narine Somon|Gun-Narin|Gun Narini somon",45.6333,102.0167,Mongolia,MN,MNG,Övörhangay,Ovorhangay,MN-055,province,,0.6,,,4,Asia/Ulaanbaatar,FALSE,1496484276
"Baytsaiin Hüryee","Baytsaiin Huryee","Baytsain Khure",47.8333,98.3333,Mongolia,MN,MNG,Arhangay,Arhangay,MN-073,province,,0.5,,,5,Asia/Ulaanbaatar,FALSE,1496189601
Rashaant,Rashaant,Öldzït|Öldziyt,45.3000,106.2000,Mongolia,MN,MNG,Dundgovĭ,Dundgovi,MN-059,province,minor,0.1,,,3,Asia/Ulaanbaatar,FALSE,1496867167
"Hototoyn Örtöö","Hototoyn Ortoo","Khototyyn Urto|Khototöyn Yurt|Khototöyn Urto",46.6500,112.2833,Mongolia,MN,MNG,Sühbaatar,Suhbaatar,MN-051,province,,0.5,,,4,Asia/Choibalsan,FALSE,1496161282
"Dzadagayta Hiid","Dzadagayta Hiid","Tszadagaytu Khid",42.6667,109.4167,Mongolia,MN,MNG,Dornogovĭ,Dornogovi,MN-063,province,,0.2,,,5,Asia/Ulaanbaatar,FALSE,1496519496
"Gal Badaraha Suma","Gal Badaraha Suma","Galta-badarakhu somon|Galbadarhu sumu|Galbadarkhu|Gal badarahu|Gal Badaraha",48.2000,104.7000,Mongolia,MN,MNG,Töv,Tov,MN-047,province,,1.8,,,4,Asia/Ulaanbaatar,FALSE,1496626298
Buural,Buural,Hongor,49.4500,105.9833,Mongolia,MN,MNG,Darhan-Uul,Darhan-Uul,MN-037,province,,806.3,,,3,Asia/Ulaanbaatar,FALSE,1496712302
"Ochir Wangiin Dugang","Ochir Wangiin Dugang","Ochir-Wangiin-Dugan|Ochir Uaniin Dugan|Ochirvanyyn dugang|Ochirvanyin dugang",48.0667,101.0333,Mongolia,MN,MNG,Arhangay,Arhangay,MN-073,province,,1.0,,,4,Asia/Ulaanbaatar,FALSE,1496302860
Bayanhushuu,Bayanhushuu,"Myangad|Mingat Suma",48.2333,91.9167,Mongolia,MN,MNG,Hovd,Hovd,MN-043,province,minor,0.8,,,3,Asia/Hovd,FALSE,1496635106
Doloon-Hudagiin-Hural,Doloon-Hudagiin-Hural,"Dolon Khudusin Khural|Dolon Khudugin Khural",47.8833,103.6000,Mongolia,MN,MNG,Bulgan,Bulgan,MN-067,province,,0.8,,,5,Asia/Ulaanbaatar,FALSE,1496493506
