city,city_ascii,city_alt,lat,lng,country,iso2,iso3,admin_name,admin_name_ascii,admin_code,admin_type,capital,density,population,population_proper,ranking,timezone,same_name,id
Managua,Managua,,12.1364,-86.2514,Nicaragua,NI,NIC,Managua,Managua,NI-MN,department,primary,3508.6,1051236,937489,1,America/Managua,FALSE,1558296252
León,Leon,,12.4333,-86.8867,Nicaragua,NI,NIC,León,Leon,NI-LE,department,admin,212.2,176171,174051,2,America/Managua,FALSE,1558654236
Tipitapa,Tipitapa,,12.2000,-86.1000,Nicaragua,NI,NIC,Managua,Managua,NI-MN,department,minor,104.3,147379,101685,2,America/Managua,FALSE,1558753915
Masaya,Masaya,,11.9667,-86.1000,Nicaragua,NI,NIC,Masaya,Masaya,NI-MS,department,admin,952.1,139582,139582,2,America/Managua,FALSE,1558765329
Matagalpa,Matagalpa,,12.9167,-85.9167,Nicaragua,NI,NIC,Matagalpa,Matagalpa,NI-MT,department,admin,215.4,133416,133416,2,America/Managua,FALSE,1558728443
"Ciudad Sandino","Ciudad Sandino",,12.1655,-86.3579,Nicaragua,NI,NIC,Managua,Managua,NI-MN,department,minor,1469.0,127517,75083,2,America/Managua,FALSE,1558641363
Chinandega,Chinandega,,12.6167,-87.1500,Nicaragua,NI,NIC,Chinandega,Chinandega,NI-CI,department,admin,177.4,121793,121793,2,America/Managua,FALSE,1558172276
Estelí,Esteli,,13.0833,-86.3500,Nicaragua,NI,NIC,Estelí,Esteli,NI-ES,department,admin,140.8,112084,112084,2,America/Managua,FALSE,1558801854
Granada,Granada,,11.9333,-85.9500,Nicaragua,NI,NIC,Granada,Granada,NI-GR,department,admin,177.6,105862,105171,2,America/Managua,FALSE,1558101678
Jinotega,Jinotega,,13.0884,-85.9994,Nicaragua,NI,NIC,Jinotega,Jinotega,NI-JI,department,admin,112.9,99382,99382,2,America/Managua,FALSE,1558697688
Bilwi,Bilwi,"Bragman’s Bluff|Puerto Cabezas",14.0281,-83.3808,Nicaragua,NI,NIC,"Costa Caribe Norte","Costa Caribe Norte",NI-AN,"autonomous region",admin,11.1,84189,66169,2,America/Managua,FALSE,1558656214
"El Viejo","El Viejo",Viejo,12.6667,-87.1667,Nicaragua,NI,NIC,Chinandega,Chinandega,NI-CI,department,minor,60.2,76775,76775,3,America/Managua,FALSE,1558770292
"Nueva Guinea","Nueva Guinea","Colonia Nueva Guinea",11.6833,-84.4500,Nicaragua,NI,NIC,"Costa Caribe Sur","Costa Caribe Sur",NI-AS,"autonomous region",minor,25.0,66936,66936,3,America/Managua,FALSE,1558868719
Siuna,Siuna,Suina,13.7333,-84.7667,Nicaragua,NI,NIC,"Costa Caribe Norte","Costa Caribe Norte",NI-AN,"autonomous region",minor,18.7,64092,64092,3,America/Managua,FALSE,1558482501
Mateare,Mateare,Meteare,12.2333,-86.4333,Nicaragua,NI,NIC,Managua,Managua,NI-MN,department,minor,96.8,61234,28775,3,America/Managua,FALSE,1558569665
Diriamba,Diriamba,Diriambo,11.8500,-86.2333,Nicaragua,NI,NIC,Carazo,Carazo,NI-CA,department,minor,164.9,57542,57542,3,America/Managua,FALSE,1558411169
Wiwilí,Wiwili,"Guiquili|Guiguilí|Wiwilí de Nueva Segovia",13.6167,-85.8333,Nicaragua,NI,NIC,"Nueva Segovia","Nueva Segovia",NI-NS,department,minor,84,57485,57485,3,America/Managua,FALSE,1558766877
Bluefields,Bluefields,Blewfield,12.0000,-83.7500,Nicaragua,NI,NIC,"Costa Caribe Sur","Costa Caribe Sur",NI-AS,"autonomous region",admin,9.5,56005,45547,2,America/Managua,FALSE,1558301368
Jalapa,Jalapa,,13.9167,-86.1333,Nicaragua,NI,NIC,"Nueva Segovia","Nueva Segovia",NI-NS,department,minor,79.3,54491,54491,3,America/Managua,FALSE,1558183579
Juigalpa,Juigalpa,,12.1000,-85.3667,Nicaragua,NI,NIC,Chontales,Chontales,NI-CO,department,admin,71.3,53798,51838,2,America/Managua,FALSE,1558986603
"El Rama","El Rama","Rama|Ciudad Rama",12.1615,-84.2203,Nicaragua,NI,NIC,"Costa Caribe Sur","Costa Caribe Sur",NI-AS,"autonomous region",minor,14.0,52482,52482,3,America/Managua,FALSE,1558512996
Boaco,Boaco,,12.4667,-85.6667,Nicaragua,NI,NIC,Boaco,Boaco,NI-BO,department,admin,45.9,49839,49839,2,America/Managua,FALSE,1558023610
Mulukukú,Mulukuku,Mulukuku,13.1503,-84.9700,Nicaragua,NI,NIC,"Costa Caribe Norte","Costa Caribe Norte",NI-AN,"autonomous region",minor,37.1,49339,49339,3,America/Managua,FALSE,1558000015
Ocotal,Ocotal,,13.6333,-86.4833,Nicaragua,NI,NIC,"Nueva Segovia","Nueva Segovia",NI-NS,department,admin,405.7,48765,34580,2,America/Managua,FALSE,1558006000
Waspán,Waspan,Huaspan|Waspam,14.7333,-83.9667,Nicaragua,NI,NIC,"Costa Caribe Norte","Costa Caribe Norte",NI-AN,"autonomous region",minor,5.1,47231,47231,3,America/Managua,FALSE,1558840115
Chichigalpa,Chichigalpa,,12.5667,-87.0333,Nicaragua,NI,NIC,Chinandega,Chinandega,NI-CI,department,minor,201.2,44769,44769,3,America/Managua,FALSE,1558921284
"El Cuá","El Cua","Paso Real de Cuá|Paso Real del Cuá",13.3675,-85.6733,Nicaragua,NI,NIC,Jinotega,Jinotega,NI-JI,department,minor,250,43305,43305,3,America/Managua,FALSE,1558463653
"San Rafael del Sur","San Rafael del Sur","San Rafael",11.8500,-86.4500,Nicaragua,NI,NIC,Managua,Managua,NI-MN,department,minor,118.7,42417,42417,3,America/Managua,FALSE,1558570848
Jinotepe,Jinotepe,,11.8500,-86.2000,Nicaragua,NI,NIC,Carazo,Carazo,NI-CA,department,admin,150.1,42109,42109,2,America/Managua,FALSE,1558246417
"San José de Bocay","San Jose de Bocay",,13.5333,-85.5333,Nicaragua,NI,NIC,Jinotega,Jinotega,NI-JI,department,minor,47,42029,42029,3,America/Managua,FALSE,1558566609
Matiguás,Matiguas,,12.8333,-85.4667,Nicaragua,NI,NIC,Matagalpa,Matagalpa,NI-MT,department,minor,26.8,41127,41127,3,America/Managua,FALSE,1558837403
Rivas,Rivas,"Villa of Nicaragua|Nicaragua",11.4393,-85.8270,Nicaragua,NI,NIC,Rivas,Rivas,NI-RI,department,admin,146.5,41080,41080,2,America/Managua,FALSE,1558146594
"Ciudad Darío","Ciudad Dario",Metapa|Dario,12.7167,-86.1167,Nicaragua,NI,NIC,Matagalpa,Matagalpa,NI-MT,department,minor,55.8,41014,41014,3,America/Managua,FALSE,1558651455
Nindirí,Nindiri,,12.0047,-86.1194,Nicaragua,NI,NIC,Masaya,Masaya,NI-MS,department,minor,268.4,38355,38355,3,America/Managua,FALSE,1558216045
"San Carlos","San Carlos",,11.1333,-84.7833,Nicaragua,NI,NIC,"Río San Juan","Rio San Juan",NI-SJ,department,admin,93,37461,37461,2,America/Managua,FALSE,1558170572
Camoapa,Camoapa,Camaopa,12.3833,-85.5167,Nicaragua,NI,NIC,Boaco,Boaco,NI-BO,department,minor,23.6,34962,34962,3,America/Managua,FALSE,1558644621
Nandaime,Nandaime,,11.7500,-86.0500,Nicaragua,NI,NIC,Granada,Granada,NI-GR,department,minor,92.2,34288,34288,3,America/Managua,FALSE,1558998589
Somoto,Somoto,,13.4833,-86.5833,Nicaragua,NI,NIC,Madriz,Madriz,NI-MD,department,admin,72.5,33788,33788,2,America/Managua,FALSE,1558605178
Nagarote,Nagarote,Nagorote,12.2667,-86.5667,Nicaragua,NI,NIC,León,Leon,NI-LE,department,minor,54.0,32303,32303,3,America/Managua,FALSE,1558005234
Sébaco,Sebaco,,12.8500,-86.1000,Nicaragua,NI,NIC,Matagalpa,Matagalpa,NI-MT,department,minor,111.2,32221,32221,3,America/Managua,FALSE,1558662201
"La Concepción","La Concepcion","La Cancepción|Concepción",11.9333,-86.1833,Nicaragua,NI,NIC,Masaya,Masaya,NI-MS,department,minor,486.5,31950,31950,3,America/Managua,FALSE,1558215738
"Bocana de Paiwas","Bocana de Paiwas","Paiwas|Paiguás|Paigua|San José de Paiwas",12.7861,-85.1231,Nicaragua,NI,NIC,"Costa Caribe Sur","Costa Caribe Sur",NI-AS,"autonomous region",minor,15.2,31762,31762,3,America/Managua,FALSE,1558901000
Masatepe,Masatepe,,11.9167,-86.1500,Nicaragua,NI,NIC,Masaya,Masaya,NI-MS,department,minor,531.7,31583,31583,3,America/Managua,FALSE,1558293076
"Río Blanco","Rio Blanco",,12.9333,-85.2167,Nicaragua,NI,NIC,Matagalpa,Matagalpa,NI-MT,department,minor,46.5,30785,30785,3,America/Managua,FALSE,1558593583
"San Ramón","San Ramon",,12.9167,-85.8333,Nicaragua,NI,NIC,Matagalpa,Matagalpa,NI-MT,department,minor,72.4,30682,30682,3,America/Managua,FALSE,1558617224
Waslala,Waslala,,13.2333,-85.3833,Nicaragua,NI,NIC,"Costa Caribe Norte","Costa Caribe Norte",NI-AN,"autonomous region",,15.7,29838,29838,3,America/Managua,FALSE,1558730387
Somotillo,Somotillo,Poyas,13.0333,-86.9167,Nicaragua,NI,NIC,Chinandega,Chinandega,NI-CI,department,minor,40.1,29030,29030,3,America/Managua,FALSE,1558936840
"San Marcos","San Marcos",,11.9167,-86.2000,Nicaragua,NI,NIC,Carazo,Carazo,NI-CA,department,minor,245.7,29019,29019,3,America/Managua,FALSE,1558544498
Condega,Condega,,13.3500,-86.4000,Nicaragua,NI,NIC,Estelí,Esteli,NI-ES,department,minor,76.8,28481,28481,3,America/Managua,FALSE,1558543389
"La Paz Centro","La Paz Centro","La Paz Central|Paz Central|La Paz",12.3400,-86.6753,Nicaragua,NI,NIC,León,Leon,NI-LE,department,minor,40.7,28118,28118,3,America/Managua,FALSE,1558538095
"El Sauce","El Sauce",Sauce,12.8833,-86.5333,Nicaragua,NI,NIC,León,Leon,NI-LE,department,minor,40.3,27900,27900,3,America/Managua,FALSE,1558542535
Larreynaga,Larreynaga,,12.6744,-86.5708,Nicaragua,NI,NIC,León,Leon,NI-LE,department,,35.8,27898,27898,3,America/Managua,FALSE,1558602365
"Villa El Carmen","Villa El Carmen","Carlos Fonseca Amador|El Carmen|Villa Carlos Fonseca Amador|Villa Carlos Fonseca",11.9833,-86.5167,Nicaragua,NI,NIC,Managua,Managua,NI-MN,department,minor,48.8,27449,27449,3,America/Managua,FALSE,1558217117
Ticuantepe,Ticuantepe,,12.0167,-86.2000,Nicaragua,NI,NIC,Managua,Managua,NI-MN,department,minor,444.3,27008,27008,3,America/Managua,FALSE,1558748108
"San Sebastián de Yalí","San Sebastian de Yali",Yalí,13.3000,-86.1833,Nicaragua,NI,NIC,Jinotega,Jinotega,NI-JI,department,minor,88.6,26979,26979,3,America/Managua,FALSE,1558797659
Quilalí,Quilali,,13.5667,-86.0333,Nicaragua,NI,NIC,"Nueva Segovia","Nueva Segovia",NI-NS,department,minor,76.7,26461,26461,3,America/Managua,FALSE,1558890150
Teustepe,Teustepe,Tuestepe,12.4167,-85.8000,Nicaragua,NI,NIC,Boaco,Boaco,NI-BO,department,minor,40.7,26265,26265,3,America/Managua,FALSE,1558471999
"Rancho Grande","Rancho Grande",,13.2536,-85.5528,Nicaragua,NI,NIC,Matagalpa,Matagalpa,NI-MT,department,minor,43.8,26223,26223,3,America/Managua,FALSE,1558000014
"El Jícaro","El Jicaro","Ciudad Sandino|Jícaro",13.7167,-86.1333,Nicaragua,NI,NIC,"Nueva Segovia","Nueva Segovia",NI-NS,department,minor,60.4,25901,25901,3,America/Managua,FALSE,1558370447
Villanueva,Villanueva,"Villa Nueva",12.9636,-86.8147,Nicaragua,NI,NIC,Chinandega,Chinandega,NI-CI,department,minor,32.9,25660,25660,3,America/Managua,FALSE,1558614186
"San Lorenzo","San Lorenzo",,12.3667,-85.6667,Nicaragua,NI,NIC,Boaco,Boaco,NI-BO,department,minor,42.3,23666,23666,3,America/Managua,FALSE,1558007382
"La Cruz de Río Grande","La Cruz de Rio Grande","La Cruz",13.1167,-84.1833,Nicaragua,NI,NIC,"Costa Caribe Sur","Costa Caribe Sur",NI-AS,"autonomous region",minor,6.8,23284,23284,3,America/Managua,FALSE,1558703104
Telica,Telica,,12.5167,-86.8667,Nicaragua,NI,NIC,León,Leon,NI-LE,department,minor,59.1,23266,23266,3,America/Managua,FALSE,1558515596
Rosita,Rosita,"La Rosita",13.8833,-84.4000,Nicaragua,NI,NIC,"Costa Caribe Norte","Costa Caribe Norte",NI-AN,"autonomous region",minor,10.3,22723,22723,3,America/Managua,FALSE,1558197649
"La Trinidad","La Trinidad","Caserío La Trinidad",12.5578,-86.1835,Nicaragua,NI,NIC,Managua,Managua,NI-MN,department,,15.8,22645,22645,3,America/Managua,TRUE,1558209065
Diriomo,Diriomo,,11.8667,-86.0500,Nicaragua,NI,NIC,Granada,Granada,NI-GR,department,minor,446.3,22352,22352,3,America/Managua,FALSE,1558287966
"El Tortuguero","El Tortuguero","Nuevo Amanecer|Tortuguero",12.8167,-84.2000,Nicaragua,NI,NIC,"Costa Caribe Sur","Costa Caribe Sur",NI-AS,"autonomous region",minor,6.6,22324,22324,3,America/Managua,FALSE,1558390224
"Muelle de los Bueyes","Muelle de los Bueyes",,12.0667,-84.5333,Nicaragua,NI,NIC,"Costa Caribe Sur","Costa Caribe Sur",NI-AS,"autonomous region",minor,16.0,22082,22082,3,America/Managua,FALSE,1558837878
Tola,Tola,,11.4333,-85.9333,Nicaragua,NI,NIC,Rivas,Rivas,NI-RI,department,minor,46.2,22012,22012,3,America/Managua,FALSE,1558491249
"San Juan de Río Coco","San Juan de Rio Coco","San Juan del Río Coco|San Juan|San Juan de Telpaneca",13.5500,-86.1667,Nicaragua,NI,NIC,Madriz,Madriz,NI-MD,department,minor,116.2,21114,21114,3,America/Managua,FALSE,1558017262
"Pueblo Nuevo","Pueblo Nuevo",,13.3833,-86.4833,Nicaragua,NI,NIC,Estelí,Esteli,NI-ES,department,minor,101.8,20620,20620,3,America/Managua,FALSE,1558373095
"La Trinidad","La Trinidad",Trinidad,12.9677,-86.2346,Nicaragua,NI,NIC,Estelí,Esteli,NI-ES,department,minor,74.6,20140,20140,3,America/Managua,FALSE,1558560145
Altagracia,Altagracia,,11.5667,-85.5833,Nicaragua,NI,NIC,Rivas,Rivas,NI-RI,department,minor,94.5,19955,19955,3,America/Managua,FALSE,1558219497
"El Castillo de La Concepción","El Castillo de La Concepcion","El Castillo Viejo|El Castillo|Castillo Viejo|Castillo",11.0333,-84.4667,Nicaragua,NI,NIC,"Río San Juan","Rio San Juan",NI-SJ,department,,12.0,19864,19864,3,America/Managua,FALSE,1558240788
Telpaneca,Telpaneca,,13.5333,-86.2833,Nicaragua,NI,NIC,Madriz,Madriz,NI-MD,department,minor,53.8,19025,19025,3,America/Managua,FALSE,1558890724
Bonanza,Bonanza,"Bonanza Bodega",14.0167,-84.5833,Nicaragua,NI,NIC,"Costa Caribe Norte","Costa Caribe Norte",NI-AN,"autonomous region",minor,9.8,18633,18633,3,America/Managua,FALSE,1558074379
Corinto,Corinto,,12.4833,-87.1833,Nicaragua,NI,NIC,Chinandega,Chinandega,NI-CI,department,minor,235.2,18602,16624,3,America/Managua,FALSE,1558830378
"San Rafael del Norte","San Rafael del Norte",,13.2167,-86.1167,Nicaragua,NI,NIC,Jinotega,Jinotega,NI-JI,department,minor,95,17789,17789,3,America/Managua,FALSE,1558286153
"San Isidro","San Isidro",,12.9319,-86.1953,Nicaragua,NI,NIC,Matagalpa,Matagalpa,NI-MT,department,minor,61.6,17412,17412,3,America/Managua,FALSE,1558059313
"San Miguelito","San Miguelito","San Miguellito",11.4000,-84.9000,Nicaragua,NI,NIC,"Río San Juan","Rio San Juan",NI-SJ,department,minor,15.5,17031,17031,3,America/Managua,FALSE,1558918781
Acoyapa,Acoyapa,"San Sebastian de Acoyapa",11.9667,-85.1667,Nicaragua,NI,NIC,Chontales,Chontales,NI-CO,department,minor,12.3,16946,16946,3,America/Managua,FALSE,1558571997
"Santa Teresa","Santa Teresa",,11.7333,-86.2167,Nicaragua,NI,NIC,Carazo,Carazo,NI-CA,department,,79.2,16891,16891,3,America/Managua,FALSE,1558632681
Posoltega,Posoltega,Posoletega,12.5500,-86.9833,Nicaragua,NI,NIC,Chinandega,Chinandega,NI-CI,department,minor,112.6,16771,16771,3,America/Managua,FALSE,1558561951
Belén,Belen,,11.5000,-85.8833,Nicaragua,NI,NIC,Rivas,Rivas,NI-RI,department,minor,66.7,16428,16428,3,America/Managua,FALSE,1558470755
"San Dionisio","San Dionisio",,12.7500,-85.8500,Nicaragua,NI,NIC,Matagalpa,Matagalpa,NI-MT,department,minor,98.3,16273,16273,3,America/Managua,FALSE,1558895835
Prinzapolka,Prinzapolka,Prinzapolca|Principulco,13.4000,-83.5667,Nicaragua,NI,NIC,"Costa Caribe Norte","Costa Caribe Norte",NI-AN,"autonomous region",minor,0.2,16105,16105,3,America/Managua,FALSE,1558643619
Esquipulas,Esquipulas,,12.6667,-85.7833,Nicaragua,NI,NIC,Matagalpa,Matagalpa,NI-MT,department,minor,72.6,15877,15877,3,America/Managua,FALSE,1558602400
Niquinohomo,Niquinohomo,Niquinomo|Niqui,11.9000,-86.1000,Nicaragua,NI,NIC,Masaya,Masaya,NI-MS,department,minor,468.5,14847,14847,3,America/Managua,FALSE,1558281722
"San Juan del Sur","San Juan del Sur",,11.2500,-85.8667,Nicaragua,NI,NIC,Rivas,Rivas,NI-RI,department,minor,35.9,14741,14741,3,America/Managua,FALSE,1558967577
"Muy Muy","Muy Muy",,12.7667,-85.6333,Nicaragua,NI,NIC,Matagalpa,Matagalpa,NI-MT,department,minor,39.2,14721,14721,3,America/Managua,FALSE,1558387669
Murra,Murra,"San Juan|San Juan de Murra",13.7667,-86.0167,Nicaragua,NI,NIC,"Nueva Segovia","Nueva Segovia",NI-NS,department,minor,23.3,14487,14487,3,America/Managua,FALSE,1558838779
Achuapa,Achuapa,"San José de Achuapa",13.0500,-86.5833,Nicaragua,NI,NIC,León,Leon,NI-LE,department,minor,33.1,13797,13797,3,America/Managua,FALSE,1558765003
"El Crucero","El Crucero","Crucero|El Cirucero",11.9833,-86.3167,Nicaragua,NI,NIC,Managua,Managua,NI-MN,department,minor,60.5,13656,13656,3,America/Managua,FALSE,1558750409
"San Juan de Limay","San Juan de Limay",Limay,13.1667,-86.6167,Nicaragua,NI,NIC,Estelí,Esteli,NI-ES,department,minor,31.5,13455,13455,3,America/Managua,FALSE,1558155206
"El Almendro","El Almendro","El Almendo|Almendro",11.6833,-84.7000,Nicaragua,NI,NIC,"Río San Juan","Rio San Juan",NI-SJ,department,minor,13.2,13363,13363,3,America/Managua,FALSE,1558104640
"Puerto Morazán","Puerto Morazan",Morazán,12.8500,-87.1833,Nicaragua,NI,NIC,Chinandega,Chinandega,NI-CI,department,,25.8,13328,13328,3,America/Managua,FALSE,1558742913
"Villa Sandino","Villa Sandino","Viila Somoza|Villa Somoza",12.0500,-84.9833,Nicaragua,NI,NIC,Chontales,Chontales,NI-CO,department,minor,19.4,13152,13152,3,America/Managua,FALSE,1558762382
"San Lucas","San Lucas",,13.4167,-86.6000,Nicaragua,NI,NIC,Madriz,Madriz,NI-MD,department,minor,85.3,12975,12975,3,America/Managua,FALSE,1558795437
Palacagüina,Palacaguina,,13.4500,-86.4000,Nicaragua,NI,NIC,Madriz,Madriz,NI-MD,department,minor,81.9,12825,12825,3,America/Managua,FALSE,1558692932
Terrabona,Terrabona,Terabona,12.7333,-85.9667,Nicaragua,NI,NIC,Matagalpa,Matagalpa,NI-MT,department,minor,51.2,12740,12740,3,America/Managua,FALSE,1558844965
"El Ayote","El Ayote",,12.1905,-85.2874,Nicaragua,NI,NIC,Chontales,Chontales,NI-CO,department,,86.0,12417,12417,3,America/Managua,FALSE,1558565622
"El Ayote","El Ayote",,12.5000,-84.8167,Nicaragua,NI,NIC,"Costa Caribe Sur","Costa Caribe Sur",NI-AS,"autonomous region",minor,14.9,12417,12417,3,America/Managua,FALSE,1558000010
"Santo Domingo","Santo Domingo","Santa Domingo",12.2500,-85.0667,Nicaragua,NI,NIC,Chontales,Chontales,NI-CO,department,minor,17.9,12182,12182,3,America/Managua,FALSE,1558352804
Totogalpa,Totogalpa,,13.5667,-86.5000,Nicaragua,NI,NIC,Madriz,Madriz,NI-MD,department,minor,89.6,11927,11927,3,America/Managua,FALSE,1558378832
Comalapa,Comalapa,,12.2833,-85.5000,Nicaragua,NI,NIC,Chontales,Chontales,NI-CO,department,minor,18.3,11785,11785,3,America/Managua,FALSE,1558074780
"La Libertad","La Libertad",Libertad,12.2167,-85.1667,Nicaragua,NI,NIC,Chontales,Chontales,NI-CO,department,minor,14.8,11429,11429,3,America/Managua,FALSE,1558065930
Potosí,Potosi,,11.5000,-85.8833,Nicaragua,NI,NIC,Rivas,Rivas,NI-RI,department,minor,77.3,11094,11094,3,America/Managua,FALSE,1558256706
Nandasmo,Nandasmo,Nandasma,11.9333,-86.1167,Nicaragua,NI,NIC,Masaya,Masaya,NI-MS,department,minor,608.7,10732,10732,3,America/Managua,FALSE,1558448256
Tisma,Tisma,,12.0833,-86.0167,Nicaragua,NI,NIC,Masaya,Masaya,NI-MS,department,minor,84.6,10681,10681,3,America/Managua,FALSE,1558010790
"El Jicaral","El Jicaral","Jicaral|La Jicaral|Jicaro|La India Jicaral",12.7333,-86.3833,Nicaragua,NI,NIC,León,Leon,NI-LE,department,minor,23.9,10326,10326,3,America/Managua,FALSE,1558715100
Moyogalpa,Moyogalpa,,11.5333,-85.7000,Nicaragua,NI,NIC,Rivas,Rivas,NI-RI,department,minor,147.5,9729,9729,3,America/Managua,FALSE,1558198586
Yalagüina,Yalaguina,,13.4833,-86.4833,Nicaragua,NI,NIC,Madriz,Madriz,NI-MD,department,minor,135.3,9597,9597,3,America/Managua,FALSE,1558031609
"Santa Rosa del Peñón","Santa Rosa del Penon","Santa Rosa",12.8000,-86.3667,Nicaragua,NI,NIC,León,Leon,NI-LE,department,minor,41.9,9529,9529,3,America/Managua,FALSE,1558392157
"San Francisco Libre","San Francisco Libre","San Francisco del Carnerico|San Francisco|San Francisco del Carnicero",12.5000,-86.3000,Nicaragua,NI,NIC,Managua,Managua,NI-MN,department,minor,36,9416,9416,3,America/Managua,FALSE,1558719164
"El Realejo","El Realejo",Realejo,12.5333,-87.1667,Nicaragua,NI,NIC,Chinandega,Chinandega,NI-CI,department,minor,84.5,8834,8834,3,America/Managua,FALSE,1558231692
Kukrahill,Kukrahill,"Cukra|Kukra|Cukra Hill|Campamento Kukra Hill|Kukra Hill",12.2500,-83.7500,Nicaragua,NI,NIC,"Costa Caribe Sur","Costa Caribe Sur",NI-AS,"autonomous region",minor,7.4,8789,8789,3,America/Managua,FALSE,1558733102
Quezalguaque,Quezalguaque,Quesalguaque,12.5061,-86.9033,Nicaragua,NI,NIC,León,Leon,NI-LE,department,minor,100.2,8591,8591,3,America/Managua,FALSE,1558204970
"San Fernando","San Fernando",,13.6833,-86.3167,Nicaragua,NI,NIC,"Nueva Segovia","Nueva Segovia",NI-NS,department,minor,36.2,8549,8549,3,America/Managua,FALSE,1558217254
"Santa Lucía","Santa Lucia",,12.5333,-85.7000,Nicaragua,NI,NIC,Boaco,Boaco,NI-BO,department,minor,68.3,8254,8254,3,America/Managua,FALSE,1558774245
"San Jorge","San Jorge",,11.4500,-85.8000,Nicaragua,NI,NIC,Rivas,Rivas,NI-RI,department,minor,323.2,8024,8024,3,America/Managua,FALSE,1558548281
"San Pedro de Lóvago","San Pedro de Lovago","San Pedro|Pedro de Laya|San Pedro de Lavajo",12.1333,-85.1167,Nicaragua,NI,NIC,Chontales,Chontales,NI-CO,department,minor,16.4,7650,7650,3,America/Managua,FALSE,1558232698
"San José de los Remates","San Jose de los Remates","San José",12.6000,-85.7667,Nicaragua,NI,NIC,Boaco,Boaco,NI-BO,department,minor,27.3,7650,7650,3,America/Managua,FALSE,1558703220
Catarina,Catarina,,11.9167,-86.0833,Nicaragua,NI,NIC,Masaya,Masaya,NI-MS,department,minor,654.8,7524,7524,3,America/Managua,FALSE,1558753959
"Santo Tomás del Norte","Santo Tomas del Norte","Santo Tomás de Nance|Santo Tomas",13.1833,-86.9333,Nicaragua,NI,NIC,Chinandega,Chinandega,NI-CI,department,minor,178.1,7124,7124,3,America/Managua,FALSE,1558820567
"San José de Cusmapa","San Jose de Cusmapa",Cusmapa,13.2833,-86.6500,Nicaragua,NI,NIC,Madriz,Madriz,NI-MD,department,minor,54.4,7072,7072,3,America/Managua,FALSE,1558629064
"El Coral","El Coral",,11.9158,-84.6503,Nicaragua,NI,NIC,Chontales,Chontales,NI-CO,department,minor,23.0,7039,7039,3,America/Managua,FALSE,1558000009
Cárdenas,Cardenas,"Concepción|La Concepción",11.2000,-85.5167,Nicaragua,NI,NIC,Rivas,Rivas,NI-RI,department,minor,30.8,6990,6990,3,America/Managua,FALSE,1558536468
Mozonte,Mozonte,Mosonte,13.6500,-86.4500,Nicaragua,NI,NIC,"Nueva Segovia","Nueva Segovia",NI-NS,department,minor,31.2,6795,6795,3,America/Managua,FALSE,1558922064
"San Nicolás","San Nicolas",,12.9331,-86.3469,Nicaragua,NI,NIC,Estelí,Esteli,NI-ES,department,minor,41.5,6768,6768,3,America/Managua,FALSE,1558358458
Dolores,Dolores,,11.8500,-86.2167,Nicaragua,NI,NIC,Carazo,Carazo,NI-CA,department,minor,2580.5,6761,6761,2,America/Managua,FALSE,1558105745
"San Francisco del Norte","San Francisco del Norte","San Francisco de Guaniquilapa|Cuajiniquilapa|San Francisco de Quajiniquilapa|San Francisco de Cuajiniquilapa|San Francisco de Cuaginiquilapa|San Francisco",13.2000,-86.7667,Nicaragua,NI,NIC,Chinandega,Chinandega,NI-CI,department,minor,56.2,6758,6758,3,America/Managua,FALSE,1558077797
"Corn Island","Corn Island","South End",12.1746,-83.0604,Nicaragua,NI,NIC,"Costa Caribe Sur","Costa Caribe Sur",NI-AS,"autonomous region",minor,736.2,6626,6626,3,America/Managua,FALSE,1558572306
Morrito,Morrito,"El Morrito|Puerto Morrito",11.6167,-85.0833,Nicaragua,NI,NIC,"Río San Juan","Rio San Juan",NI-SJ,department,minor,9.7,6570,6570,3,America/Managua,FALSE,1558071142
"La Concordia","La Concordia",Concordia,13.1833,-86.1667,Nicaragua,NI,NIC,Jinotega,Jinotega,NI-JI,department,minor,48.5,6486,6486,3,America/Managua,FALSE,1558118479
Diriá,Diria,,11.8833,-86.0500,Nicaragua,NI,NIC,Granada,Granada,NI-GR,department,minor,249.8,6375,6375,3,America/Managua,FALSE,1558044292
Macuelizo,Macuelizo,,13.6500,-86.6167,Nicaragua,NI,NIC,"Nueva Segovia","Nueva Segovia",NI-NS,department,minor,23.9,6076,6076,3,America/Managua,FALSE,1558779316
"Buenos Aires","Buenos Aires",,11.4667,-85.8167,Nicaragua,NI,NIC,Rivas,Rivas,NI-RI,department,minor,72.1,5420,5420,3,America/Managua,FALSE,1558117612
"El Rosario","El Rosario",Rosario,11.8333,-86.1667,Nicaragua,NI,NIC,Carazo,Carazo,NI-CA,department,minor,377.6,5317,5317,3,America/Managua,FALSE,1558148069
Dipilto,Dipilto,,13.7167,-86.5000,Nicaragua,NI,NIC,"Nueva Segovia","Nueva Segovia",NI-NS,department,minor,49.6,5207,5207,3,America/Managua,FALSE,1558991033
"Ciudad Antigua","Ciudad Antigua",,13.6333,-86.3167,Nicaragua,NI,NIC,"Nueva Segovia","Nueva Segovia",NI-NS,department,minor,33.1,4868,4868,3,America/Managua,FALSE,1558395638
"San Juan de Oriente","San Juan de Oriente","San Juan",11.9000,-86.0833,Nicaragua,NI,NIC,Masaya,Masaya,NI-MS,department,minor,514.6,4734,4734,3,America/Managua,FALSE,1558642066
"San Pedro del Norte","San Pedro del Norte","San Pedro de Potrero Grande|San Pedro de Potrero|San Pedro",13.2667,-86.8833,Nicaragua,NI,NIC,Chinandega,Chinandega,NI-CI,department,minor,66.0,4719,4719,3,America/Managua,FALSE,1558519099
"La Paz de Carazo","La Paz de Carazo","La Paz|La Paz de Oriente|Paz",11.8167,-86.1333,Nicaragua,NI,NIC,Carazo,Carazo,NI-CA,department,minor,300.3,4657,4657,3,America/Managua,FALSE,1558781376
"Santa María","Santa Maria",,13.7500,-86.7167,Nicaragua,NI,NIC,"Nueva Segovia","Nueva Segovia",NI-NS,department,minor,28.0,4404,4404,3,America/Managua,FALSE,1558771505
"Las Sabanas","Las Sabanas","La Sabana|Pueblo La Sabana|Sabanas|Savanas",13.3500,-86.6167,Nicaragua,NI,NIC,Madriz,Madriz,NI-MD,department,minor,64.1,4136,4136,3,America/Managua,FALSE,1558706228
"La Conquista","La Conquista",Conquista,11.7333,-86.2000,Nicaragua,NI,NIC,Carazo,Carazo,NI-CA,department,minor,42.7,3777,3777,3,America/Managua,FALSE,1558089159
Orinoco,Orinoco,,12.5542,-83.7117,Nicaragua,NI,NIC,"Costa Caribe Sur","Costa Caribe Sur",NI-AS,"autonomous region",,11.7,2000,2000,4,America/Managua,FALSE,1558603470
Greytown,Greytown,"San Juan del Norte|San Juan de Nicaragua",10.9167,-83.7000,Nicaragua,NI,NIC,"Río San Juan","Rio San Juan",NI-SJ,department,minor,0.8,1307,1307,3,America/Managua,FALSE,1558125707
"Santa Isabel","Santa Isabel",,11.8456,-85.9268,Nicaragua,NI,NIC,Granada,Granada,NI-GR,department,,193.2,,,4,America/Managua,FALSE,1558930022
"San Juan","San Juan",,12.1663,-84.1818,Nicaragua,NI,NIC,"Costa Caribe Sur","Costa Caribe Sur",NI-AS,"autonomous region",,17.2,,,4,America/Managua,FALSE,1558515712
"Barra de Wawa","Barra de Wawa","Huahua|Huahua River|Wawa|Río Wawa",13.8792,-83.4585,Nicaragua,NI,NIC,"Costa Caribe Norte","Costa Caribe Norte",NI-AN,"autonomous region",,23.6,,,4,America/Managua,FALSE,1558542619
Tapales,Tapales,,12.9167,-84.8833,Nicaragua,NI,NIC,"Costa Caribe Sur","Costa Caribe Sur",NI-AS,"autonomous region",,25.2,,,4,America/Managua,FALSE,1558097895
Facundo,Facundo,,12.3114,-84.2367,Nicaragua,NI,NIC,"Costa Caribe Sur","Costa Caribe Sur",NI-AS,"autonomous region",,17.2,,,4,America/Managua,FALSE,1558967246
"Corre Viento","Corre Viento",,12.9467,-86.5200,Nicaragua,NI,NIC,León,Leon,NI-LE,department,,44.3,,,4,America/Managua,FALSE,1558170142
"Corre Viento","Corre Viento","Caserío Corre Viento",12.6169,-86.6894,Nicaragua,NI,NIC,León,Leon,NI-LE,department,,33.7,,,4,America/Managua,TRUE,1558333176
"La Batea","La Batea",,12.0483,-84.6189,Nicaragua,NI,NIC,"Costa Caribe Sur","Costa Caribe Sur",NI-AS,"autonomous region",,14.6,,,4,America/Managua,FALSE,1558701892
Kukalaya,Kukalaya,Culculaia|Cucalaya|Kukulaya|Kukulaua|Kuculaya|Kuculalia,13.7089,-83.6981,Nicaragua,NI,NIC,"Costa Caribe Norte","Costa Caribe Norte",NI-AN,"autonomous region",,12.4,,,4,America/Managua,FALSE,1558012555
"San Miguelito","San Miguelito",,12.7829,-85.5824,Nicaragua,NI,NIC,Matagalpa,Matagalpa,NI-MT,department,,46.6,,,4,America/Managua,FALSE,1558353537
"Monte Mar","Monte Mar",,11.6563,-86.3523,Nicaragua,NI,NIC,Carazo,Carazo,NI-CA,department,,193.2,,,4,America/Managua,FALSE,1558030363
Bilampí,Bilampi,,12.9333,-85.0333,Nicaragua,NI,NIC,"Costa Caribe Sur","Costa Caribe Sur",NI-AS,"autonomous region",,25.2,,,4,America/Managua,FALSE,1558088246
"Colonia La Esperanza Grande","Colonia La Esperanza Grande","Colonia La Esperanza",12.4883,-87.0455,Nicaragua,NI,NIC,Chinandega,Chinandega,NI-CI,department,,223.7,,,3,America/Managua,FALSE,1558567686
"El Esfuerzo","El Esfuerzo",,12.2295,-86.3830,Nicaragua,NI,NIC,Managua,Managua,NI-MN,department,,202.3,,,3,America/Managua,FALSE,1558871829
Wayawás,Wayawas,,14.3655,-85.1956,Nicaragua,NI,NIC,Jinotega,Jinotega,NI-JI,department,,42.0,,,4,America/Managua,FALSE,1558674667
Guanacastillo,Guanacastillo,,12.5167,-86.7500,Nicaragua,NI,NIC,León,Leon,NI-LE,department,,84.9,,,4,America/Managua,FALSE,1558966684
"Piedra de Agua","Piedra de Agua",,12.9662,-85.9499,Nicaragua,NI,NIC,Matagalpa,Matagalpa,NI-MT,department,,297.6,,,3,America/Managua,FALSE,1558422749
"Los Cruces","Los Cruces",,11.8142,-86.1484,Nicaragua,NI,NIC,Carazo,Carazo,NI-CA,department,,74.1,,,4,America/Managua,FALSE,1558467784
"El Zapotillal","El Zapotillal","La Zapotilla|Zapotillal|Zapotillo|Zapotilla",13.6200,-86.0476,Nicaragua,NI,NIC,"Nueva Segovia","Nueva Segovia",NI-NS,department,,108.5,,,4,America/Managua,FALSE,1558022396
"El Guayacan","El Guayacan",,11.7034,-86.2911,Nicaragua,NI,NIC,Carazo,Carazo,NI-CA,department,,177.7,,,4,America/Managua,FALSE,1558168588
"El Capulín","El Capulin",,11.5334,-85.8265,Nicaragua,NI,NIC,Rivas,Rivas,NI-RI,department,,98.0,,,4,America/Managua,FALSE,1558890705
Vado,Vado,,11.7256,-86.3883,Nicaragua,NI,NIC,Carazo,Carazo,NI-CA,department,,193.3,,,4,America/Managua,FALSE,1558100336
Vado,Vado,,11.7149,-86.0582,Nicaragua,NI,NIC,Carazo,Carazo,NI-CA,department,,99.1,,,4,America/Managua,TRUE,1558782302
"Canta Gallito","Canta Gallito",,12.8735,-87.1341,Nicaragua,NI,NIC,Chinandega,Chinandega,NI-CI,department,,34.0,,,4,America/Managua,FALSE,1558870616
"La Pintada","La Pintada",Pintada|Pintades,13.0809,-86.3938,Nicaragua,NI,NIC,Estelí,Esteli,NI-ES,department,,184.2,,,4,America/Managua,FALSE,1558543636
Kiawás,Kiawas,Siawás,13.1667,-84.1333,Nicaragua,NI,NIC,"Costa Caribe Sur","Costa Caribe Sur",NI-AS,"autonomous region",,15.6,,,4,America/Managua,FALSE,1558629564
"Santa Margarita","Santa Margarita",,11.8084,-85.9473,Nicaragua,NI,NIC,Granada,Granada,NI-GR,department,,193.2,,,4,America/Managua,FALSE,1558996195
"El Guásimo","El Guasimo",,12.8518,-86.4971,Nicaragua,NI,NIC,León,Leon,NI-LE,department,,44.3,,,4,America/Managua,FALSE,1558283393
"San Victor","San Victor",,12.4333,-87.0333,Nicaragua,NI,NIC,León,Leon,NI-LE,department,,240.6,,,3,America/Managua,FALSE,1558442441
"El Toco","El Toco",,11.7197,-86.0052,Nicaragua,NI,NIC,Carazo,Carazo,NI-CA,department,,99.1,,,4,America/Managua,FALSE,1558964171
"El Silencio","El Silencio",,12.6594,-85.1201,Nicaragua,NI,NIC,Boaco,Boaco,NI-BO,department,,26.3,,,4,America/Managua,FALSE,1558472807
"San Ignacio","San Ignacio",,11.9167,-86.0000,Nicaragua,NI,NIC,Granada,Granada,NI-GR,department,,193.2,,,4,America/Managua,FALSE,1558094749
"El Pacion","El Pacion",,11.8744,-85.9760,Nicaragua,NI,NIC,Granada,Granada,NI-GR,department,,193.2,,,4,America/Managua,FALSE,1558734296
"San Esteban","San Esteban",,12.1333,-85.4617,Nicaragua,NI,NIC,Chontales,Chontales,NI-CO,department,,86.0,,,4,America/Managua,FALSE,1558412953
"El Golfo","El Golfo","Horoal|El Horcal",11.8880,-86.3504,Nicaragua,NI,NIC,Carazo,Carazo,NI-CA,department,,146.5,,,4,America/Managua,FALSE,1558732220
"Las Mercedes","Las Mercedes",,12.2819,-86.8451,Nicaragua,NI,NIC,León,Leon,NI-LE,department,,240.6,,,3,America/Managua,FALSE,1558316649
"Las Mercedes","Las Mercedes",,12.4437,-86.7767,Nicaragua,NI,NIC,León,Leon,NI-LE,department,,240.6,,,3,America/Managua,TRUE,1558491686
"Las Mercedes","Las Mercedes",,12.5000,-86.9833,Nicaragua,NI,NIC,León,Leon,NI-LE,department,,223.7,,,3,America/Managua,TRUE,1558779155
"Las Mercedes","Las Mercedes",,12.4020,-86.7334,Nicaragua,NI,NIC,León,Leon,NI-LE,department,,193.2,,,4,America/Managua,TRUE,1558675943
"Las Mercedes","Las Mercedes",Mercedes,12.8397,-86.4725,Nicaragua,NI,NIC,León,Leon,NI-LE,department,,44.3,,,4,America/Managua,TRUE,1558170302
"El Queso","El Queso",,12.7101,-86.8098,Nicaragua,NI,NIC,León,Leon,NI-LE,department,,155.4,,,4,America/Managua,FALSE,1558973414
Sáupuka,Saupuka,,14.7487,-83.9107,Nicaragua,NI,NIC,"Costa Caribe Norte","Costa Caribe Norte",NI-AN,"autonomous region",,8.5,,,5,America/Managua,FALSE,1558399923
"Santa Teresa","Santa Teresa",,11.4908,-85.5982,Nicaragua,NI,NIC,Rivas,Rivas,NI-RI,department,,111.9,,,4,America/Managua,FALSE,1558697507
"Santa Teresa","Santa Teresa",,11.6380,-85.9249,Nicaragua,NI,NIC,Rivas,Rivas,NI-RI,department,,96.1,,,4,America/Managua,TRUE,1558662130
"Valle El Limón","Valle El Limon",Limón,13.8424,-86.1948,Nicaragua,NI,NIC,"Nueva Segovia","Nueva Segovia",NI-NS,department,,124.8,,,4,America/Managua,FALSE,1558818461
"La Alianza","La Alianza",,12.9815,-85.5729,Nicaragua,NI,NIC,Matagalpa,Matagalpa,NI-MT,department,,29.4,,,4,America/Managua,FALSE,1558166889
Momotombito,Momotombito,,12.3511,-86.4828,Nicaragua,NI,NIC,Managua,Managua,NI-MN,department,,42.1,,,4,America/Managua,FALSE,1558054488
"Puerto Viejo","Puerto Viejo",,13.5146,-85.2456,Nicaragua,NI,NIC,"Costa Caribe Norte","Costa Caribe Norte",NI-AN,"autonomous region",,67.5,,,4,America/Managua,FALSE,1558187817
"El Carmen","El Carmen",,12.9833,-87.6500,Nicaragua,NI,NIC,Chinandega,Chinandega,NI-CI,department,,70.2,,,4,America/Managua,FALSE,1558268105
"El Guayacah","El Guayacah",,11.6749,-86.3064,Nicaragua,NI,NIC,Carazo,Carazo,NI-CA,department,,175.7,,,4,America/Managua,FALSE,1558510124
"El Roblar","El Roblar",,12.3309,-85.5093,Nicaragua,NI,NIC,Boaco,Boaco,NI-BO,department,,26.1,,,4,America/Managua,FALSE,1558343955
"San Andrés","San Andres",,12.9329,-85.7014,Nicaragua,NI,NIC,Matagalpa,Matagalpa,NI-MT,department,,110.2,,,4,America/Managua,FALSE,1558242398
"San Andrés","San Andres",,12.8833,-86.2333,Nicaragua,NI,NIC,Matagalpa,Matagalpa,NI-MT,department,,71.8,,,4,America/Managua,TRUE,1558597929
"San Andrés","San Andres",,12.8167,-86.2333,Nicaragua,NI,NIC,Matagalpa,Matagalpa,NI-MT,department,,71.8,,,4,America/Managua,TRUE,1558523545
"El Carmen","El Carmen",,11.8710,-86.2523,Nicaragua,NI,NIC,Carazo,Carazo,NI-CA,department,,193.3,,,4,America/Managua,FALSE,1558124625
"El Carmen","El Carmen",,11.7426,-86.1799,Nicaragua,NI,NIC,Carazo,Carazo,NI-CA,department,,39.8,,,4,America/Managua,TRUE,1558495721
"San Pablo","San Pablo",,12.5383,-86.9919,Nicaragua,NI,NIC,Chinandega,Chinandega,NI-CI,department,,127.8,,,4,America/Managua,FALSE,1558424676
"San Pablo","San Pablo",,12.8826,-86.7194,Nicaragua,NI,NIC,Chinandega,Chinandega,NI-CI,department,,39.4,,,4,America/Managua,TRUE,1558802245
Yayule,Yayule,,12.9833,-85.7333,Nicaragua,NI,NIC,Matagalpa,Matagalpa,NI-MT,department,,110.2,,,4,America/Managua,FALSE,1558587984
Portalupi,Portalupi,,14.6191,-84.4658,Nicaragua,NI,NIC,"Costa Caribe Norte","Costa Caribe Norte",NI-AN,"autonomous region",,6.9,,,5,America/Managua,FALSE,1558659483
"Anris Tara","Anris Tara",,14.7766,-84.9254,Nicaragua,NI,NIC,Jinotega,Jinotega,NI-JI,department,,0.9,,,5,America/Tegucigalpa,FALSE,1558030713
"San Andrés","San Andres",,12.1667,-86.4000,Nicaragua,NI,NIC,Managua,Managua,NI-MN,department,,202.3,,,3,America/Managua,FALSE,1558359648
"San Pablo","San Pablo",,11.8644,-86.2225,Nicaragua,NI,NIC,Carazo,Carazo,NI-CA,department,,1861.6,,,3,America/Managua,FALSE,1558733889
"San Rafael","San Rafael",,12.8654,-85.5754,Nicaragua,NI,NIC,Matagalpa,Matagalpa,NI-MT,department,,29.4,,,4,America/Managua,FALSE,1558856014
"Las Vegas","Las Vegas",Vegas,13.3732,-86.0974,Nicaragua,NI,NIC,Jinotega,Jinotega,NI-JI,department,,102.7,,,4,America/Managua,FALSE,1558594368
Pipilwas,Pipilwas,,12.9167,-84.8500,Nicaragua,NI,NIC,"Costa Caribe Sur","Costa Caribe Sur",NI-AS,"autonomous region",,25.2,,,4,America/Managua,FALSE,1558855843
"Medio Mundo","Medio Mundo",,11.8833,-86.0167,Nicaragua,NI,NIC,Granada,Granada,NI-GR,department,,490.8,,,3,America/Managua,FALSE,1558639798
"Los Mangles","Los Mangles","Caserío Los Mangles",12.6618,-86.8701,Nicaragua,NI,NIC,León,Leon,NI-LE,department,,67.2,,,4,America/Managua,FALSE,1558261564
"Las Cuatro Esquinas de la Mora","Las Cuatro Esquinas de la Mora","La Mora",12.6333,-87.0833,Nicaragua,NI,NIC,Chinandega,Chinandega,NI-CI,department,,194.6,,,4,America/Managua,FALSE,1558124289
Sicantal,Sicantal,,12.7228,-87.3064,Nicaragua,NI,NIC,Chinandega,Chinandega,NI-CI,department,,70.2,,,4,America/Managua,FALSE,1558354748
"San Rafael","San Rafael",,12.3489,-86.2175,Nicaragua,NI,NIC,Managua,Managua,NI-MN,department,,15.8,,,4,America/Managua,FALSE,1558760506
Campuzano,Campuzano,,12.7924,-87.0614,Nicaragua,NI,NIC,Chinandega,Chinandega,NI-CI,department,,194.6,,,4,America/Managua,FALSE,1558833789
"Las Crucitas","Las Crucitas",,11.8582,-86.1134,Nicaragua,NI,NIC,Masaya,Masaya,NI-MS,department,,536.5,,,3,America/Managua,FALSE,1558785215
"El Cedral","El Cedral",,12.2128,-85.6356,Nicaragua,NI,NIC,Boaco,Boaco,NI-BO,department,,26.9,,,4,America/Managua,FALSE,1558277840
"Las Mercedes","Las Mercedes",Mercedes,12.5527,-85.6741,Nicaragua,NI,NIC,Boaco,Boaco,NI-BO,department,,67.9,,,4,America/Managua,FALSE,1558067207
"El Dorado","El Dorado",,11.9500,-86.2500,Nicaragua,NI,NIC,Masaya,Masaya,NI-MS,department,,584.0,,,3,America/Managua,FALSE,1558653812
"La Piedra Pintada","La Piedra Pintada","Tapriedra Pintada",11.7597,-86.1976,Nicaragua,NI,NIC,Carazo,Carazo,NI-CA,department,,78.3,,,4,America/Managua,FALSE,1558018275
Pasocaballos,Pasocaballos,"Caserío Pasocaballos",12.5208,-87.2070,Nicaragua,NI,NIC,Chinandega,Chinandega,NI-CI,department,,372.8,,,3,America/Managua,FALSE,1558573806
"El Tigre","El Tigre",,11.8475,-86.3007,Nicaragua,NI,NIC,Carazo,Carazo,NI-CA,department,,193.3,,,4,America/Managua,FALSE,1558701991
Bilwás,Bilwas,,12.8833,-85.5833,Nicaragua,NI,NIC,Matagalpa,Matagalpa,NI-MT,department,,29.4,,,4,America/Managua,FALSE,1558136840
"El Ocote","El Ocote",,12.8549,-85.9377,Nicaragua,NI,NIC,Matagalpa,Matagalpa,NI-MT,department,,297.6,,,3,America/Managua,FALSE,1558714610
"El Portillo","El Portillo",,12.9941,-86.7930,Nicaragua,NI,NIC,Chinandega,Chinandega,NI-CI,department,,39.4,,,4,America/Managua,FALSE,1558074668
"Los Baltodanos","Los Baltodanos","Los Baltodano",11.7934,-86.3657,Nicaragua,NI,NIC,Carazo,Carazo,NI-CA,department,,193.3,,,4,America/Managua,FALSE,1558091878
"El Ocotillo","El Ocotillo",,13.0092,-86.3349,Nicaragua,NI,NIC,Estelí,Esteli,NI-ES,department,,184.2,,,4,America/Managua,FALSE,1558221110
"Las Lajas","Las Lajas",,13.2994,-86.0810,Nicaragua,NI,NIC,Jinotega,Jinotega,NI-JI,department,,104.9,,,4,America/Managua,FALSE,1558430456
"Tierra Blanca","Tierra Blanca",,12.2686,-85.8070,Nicaragua,NI,NIC,Boaco,Boaco,NI-BO,department,,77.4,,,4,America/Managua,FALSE,1558822680
"Tierra Blanca","Tierra Blanca",,12.5218,-85.9017,Nicaragua,NI,NIC,Boaco,Boaco,NI-BO,department,,56.6,,,4,America/Managua,TRUE,1558725976
"Laguna de Perlas","Laguna de Perlas","Las Perlas|Perlas|Perla|Los Perlos|English Bank|Las Perlas Town",12.3429,-83.6712,Nicaragua,NI,NIC,"Costa Caribe Sur","Costa Caribe Sur",NI-AS,"autonomous region",minor,11.7,,,3,America/Managua,FALSE,1558453218
"El Guarumo","El Guarumo",,11.6858,-86.1014,Nicaragua,NI,NIC,Granada,Granada,NI-GR,department,,99.1,,,4,America/Managua,FALSE,1558079629
"Las Brisas","Las Brisas",,13.6242,-84.7993,Nicaragua,NI,NIC,"Costa Caribe Norte","Costa Caribe Norte",NI-AN,"autonomous region",,31.7,,,4,America/Managua,FALSE,1558825306
"El Guapinol","El Guapinol",,12.6222,-85.8941,Nicaragua,NI,NIC,Matagalpa,Matagalpa,NI-MT,department,,67.5,,,4,America/Managua,FALSE,1558189753
"La Madaleña","La Madalena",,11.7225,-86.2879,Nicaragua,NI,NIC,Carazo,Carazo,NI-CA,department,,193.3,,,4,America/Managua,FALSE,1558723950
"Caserío Las Ranas","Caserio Las Ranas","Ranas|Las Ranas",12.6007,-86.2369,Nicaragua,NI,NIC,Managua,Managua,NI-MN,department,,15.8,,,4,America/Managua,FALSE,1558000006
"Puerto Limón","Puerto Limon",,12.4888,-87.1088,Nicaragua,NI,NIC,Chinandega,Chinandega,NI-CI,department,,343.8,,,3,America/Managua,FALSE,1558593431
"Los Calpules","Los Calpules",,12.7419,-86.0131,Nicaragua,NI,NIC,Matagalpa,Matagalpa,NI-MT,department,,68.4,,,4,America/Managua,FALSE,1558986752
"Puerto Díaz","Puerto Diaz",,11.9654,-85.5124,Nicaragua,NI,NIC,Chontales,Chontales,NI-CO,department,,86.0,,,4,America/Managua,FALSE,1558599497
"San Lucas","San Lucas",,11.7093,-86.0369,Nicaragua,NI,NIC,Carazo,Carazo,NI-CA,department,,99.1,,,4,America/Managua,FALSE,1558154559
"El Socorro","El Socorro",,12.8950,-85.9213,Nicaragua,NI,NIC,Matagalpa,Matagalpa,NI-MT,department,,297.6,,,3,America/Managua,FALSE,1558657612
"El Bonete","El Bonete",,12.5422,-85.9028,Nicaragua,NI,NIC,Boaco,Boaco,NI-BO,department,,28.5,,,4,America/Managua,FALSE,1558843397
"San Lucas","San Lucas",,12.6990,-86.8769,Nicaragua,NI,NIC,Chinandega,Chinandega,NI-CI,department,,194.6,,,4,America/Managua,FALSE,1558605652
"San Lucas","San Lucas",,11.9631,-85.1113,Nicaragua,NI,NIC,Chontales,Chontales,NI-CO,department,,12.3,,,4,America/Managua,FALSE,1558615189
Cañas,Canas,,11.7122,-85.8172,Nicaragua,NI,NIC,Granada,Granada,NI-GR,department,,193.2,,,4,America/Managua,FALSE,1558232797
"Bajos de Tomatoya","Bajos de Tomatoya",Tomatoyo|Tomatoya|Jocote,12.5783,-85.8591,Nicaragua,NI,NIC,Boaco,Boaco,NI-BO,department,,26.9,,,4,America/Managua,FALSE,1558327059
Alaska,Alaska,,12.6306,-86.9031,Nicaragua,NI,NIC,Chinandega,Chinandega,NI-CI,department,,127.8,,,4,America/Managua,FALSE,1558887655
Nauawás,Nauawas,Nawawas,12.5667,-84.7333,Nicaragua,NI,NIC,"Costa Caribe Sur","Costa Caribe Sur",NI-AS,"autonomous region",,26.1,,,4,America/Managua,FALSE,1558206636
"El Socorro","El Socorro",,12.0833,-86.3667,Nicaragua,NI,NIC,Managua,Managua,NI-MN,department,,4173.9,,,2,America/Managua,FALSE,1558749991
"El Socorro","El Socorro",,12.3696,-86.2270,Nicaragua,NI,NIC,Managua,Managua,NI-MN,department,,15.8,,,4,America/Managua,TRUE,1558720365
"La Fortuna","La Fortuna",,12.8415,-85.2686,Nicaragua,NI,NIC,Matagalpa,Matagalpa,NI-MT,department,,29.4,,,4,America/Managua,FALSE,1558037786
"Santa Rita","Santa Rita",,12.4040,-85.7281,Nicaragua,NI,NIC,Boaco,Boaco,NI-BO,department,,56.6,,,4,America/Managua,FALSE,1558598105
"Santa Rita","Santa Rita",,12.1964,-85.6737,Nicaragua,NI,NIC,Boaco,Boaco,NI-BO,department,,46.0,,,4,America/Managua,TRUE,1558880770
"La Breña","La Brena",,11.7802,-86.0521,Nicaragua,NI,NIC,Granada,Granada,NI-GR,department,,99.1,,,4,America/Managua,FALSE,1558062449
"El Tule","El Tule",Tule,13.3251,-86.2449,Nicaragua,NI,NIC,Jinotega,Jinotega,NI-JI,department,,88.0,,,4,America/Managua,FALSE,1558883080
"Las Tablas","Las Tablas",,12.6905,-86.4772,Nicaragua,NI,NIC,León,Leon,NI-LE,department,,33.7,,,4,America/Managua,FALSE,1558878810
"Boca de Sábalos","Boca de Sabalos",,11.0500,-84.4667,Nicaragua,NI,NIC,"Río San Juan","Rio San Juan",NI-SJ,department,minor,34.7,,,3,America/Managua,FALSE,1558439158
"Bella Vista","Bella Vista",,12.6541,-85.7658,Nicaragua,NI,NIC,Matagalpa,Matagalpa,NI-MT,department,,80.2,,,4,America/Managua,FALSE,1558057526
"Las Postreras","Las Postreras",,12.2531,-85.8128,Nicaragua,NI,NIC,Granada,Granada,NI-GR,department,,106.6,,,4,America/Managua,FALSE,1558839550
"Los Menas","Los Menas",,12.3956,-85.9604,Nicaragua,NI,NIC,Managua,Managua,NI-MN,department,,142.5,,,4,America/Managua,FALSE,1558037861
"El Jicote","El Jicote",,12.8610,-86.4442,Nicaragua,NI,NIC,León,Leon,NI-LE,department,,44.5,,,4,America/Managua,FALSE,1558553823
"El Trapichito","El Trapichito",,12.3833,-86.8667,Nicaragua,NI,NIC,León,Leon,NI-LE,department,,240.6,,,3,America/Managua,FALSE,1558780210
"El Guayabal","El Guayabal",,12.1286,-86.6507,Nicaragua,NI,NIC,León,Leon,NI-LE,department,,61.7,,,4,America/Managua,FALSE,1558313549
"Caño de la Laja","Cano de la Laja",,12.6607,-85.4175,Nicaragua,NI,NIC,Boaco,Boaco,NI-BO,department,,52.9,,,4,America/Managua,FALSE,1558611454
Periamo,Periamo,,11.6886,-86.0419,Nicaragua,NI,NIC,Carazo,Carazo,NI-CA,department,,99.1,,,4,America/Managua,FALSE,1558847926
Tumarín,Tumarin,,13.0050,-84.3708,Nicaragua,NI,NIC,"Costa Caribe Sur","Costa Caribe Sur",NI-AS,"autonomous region",,15.6,,,4,America/Managua,FALSE,1558904386
"El Pital","El Pital",Veracruz|Pital,11.7333,-86.0000,Nicaragua,NI,NIC,Granada,Granada,NI-GR,department,,99.1,,,4,America/Managua,FALSE,1558335244
Mérida,Merida,,12.6167,-87.0833,Nicaragua,NI,NIC,Chinandega,Chinandega,NI-CI,department,,194.6,,,4,America/Managua,FALSE,1558802363
"El Naranjo","El Naranjo",Naranjo,12.9940,-86.0310,Nicaragua,NI,NIC,Matagalpa,Matagalpa,NI-MT,department,,162.2,,,4,America/Managua,FALSE,1558644602
"El Naranjo","El Naranjo","Naranjo|Naranjo Pass",12.9127,-85.8118,Nicaragua,NI,NIC,Matagalpa,Matagalpa,NI-MT,department,,110.2,,,4,America/Managua,TRUE,1558174728
"La Estrella","La Estrella",,12.0467,-84.6635,Nicaragua,NI,NIC,"Costa Caribe Sur","Costa Caribe Sur",NI-AS,"autonomous region",,14.6,,,4,America/Managua,FALSE,1558312024
"Aqui Te Espero","Aqui Te Espero",,11.7445,-86.2390,Nicaragua,NI,NIC,Carazo,Carazo,NI-CA,department,,173.8,,,4,America/Managua,FALSE,1558089010
"Las Guabas","Las Guabas",,12.2338,-85.7651,Nicaragua,NI,NIC,Boaco,Boaco,NI-BO,department,,46.0,,,4,America/Managua,FALSE,1558711741
"San Lorenzo","San Lorenzo",,11.8061,-86.4540,Nicaragua,NI,NIC,Managua,Managua,NI-MN,department,,146.5,,,4,America/Managua,FALSE,1558465988
"El Naranjo","El Naranjo",Naranjo,12.6106,-86.2316,Nicaragua,NI,NIC,Managua,Managua,NI-MN,department,,15.8,,,4,America/Managua,FALSE,1558769273
"San Marcos","San Marcos",,11.5818,-85.6482,Nicaragua,NI,NIC,Rivas,Rivas,NI-RI,department,,111.9,,,4,America/Managua,FALSE,1558180660
"San Marcos","San Marcos","San Marco",11.5954,-86.0105,Nicaragua,NI,NIC,Rivas,Rivas,NI-RI,department,,68.3,,,4,America/Managua,TRUE,1558754513
"El Pellisco","El Pellisco",,12.6667,-87.0667,Nicaragua,NI,NIC,Chinandega,Chinandega,NI-CI,department,,194.6,,,4,America/Managua,FALSE,1558284766
"San José de Cuasompa","San Jose de Cuasompa",,12.7152,-87.1861,Nicaragua,NI,NIC,Chinandega,Chinandega,NI-CI,department,,70.2,,,4,America/Managua,FALSE,1558723577
"El Prado","El Prado",,12.1000,-86.4000,Nicaragua,NI,NIC,Managua,Managua,NI-MN,department,,93.3,,,4,America/Managua,FALSE,1558551988
"Los Llanos","Los Llanos",,13.3044,-86.5696,Nicaragua,NI,NIC,Estelí,Esteli,NI-ES,department,,108.7,,,4,America/Managua,FALSE,1558684726
"El Matasano","El Matasano",Matasano,13.3734,-86.6527,Nicaragua,NI,NIC,Madriz,Madriz,NI-MD,department,,104.5,,,4,America/Managua,FALSE,1558488147
"Valle Santa Isabel","Valle Santa Isabel","Santa Isabel",13.4501,-86.5920,Nicaragua,NI,NIC,Madriz,Madriz,NI-MD,department,,91.3,,,4,America/Managua,FALSE,1558719176
"San Silvestre","San Silvestre",,12.3667,-86.9333,Nicaragua,NI,NIC,León,Leon,NI-LE,department,,240.6,,,3,America/Managua,FALSE,1558566581
"Paso de Carreta","Paso de Carreta",,12.8667,-86.1500,Nicaragua,NI,NIC,Matagalpa,Matagalpa,NI-MT,department,,80.6,,,4,America/Managua,FALSE,1558697049
Soledad,Soledad,,11.3531,-85.7843,Nicaragua,NI,NIC,Rivas,Rivas,NI-RI,department,,163.6,,,4,America/Managua,FALSE,1558622407
Izapa,Izapa,,12.2703,-86.7385,Nicaragua,NI,NIC,León,Leon,NI-LE,department,,42.1,,,4,America/Managua,FALSE,1558959895
"El Valle","El Valle",,11.2503,-85.8410,Nicaragua,NI,NIC,Rivas,Rivas,NI-RI,department,,42.1,,,4,America/Managua,FALSE,1558359213
"Los Loras","Los Loras",,12.9695,-86.6158,Nicaragua,NI,NIC,León,Leon,NI-LE,department,,44.3,,,4,America/Managua,FALSE,1558086756
"La Virgen","La Virgen",,11.3790,-85.7618,Nicaragua,NI,NIC,Rivas,Rivas,NI-RI,department,,163.6,,,4,America/Managua,FALSE,1558276228
"La Virgen","La Virgen",,11.4883,-86.0946,Nicaragua,NI,NIC,Rivas,Rivas,NI-RI,department,,53.6,,,4,America/Managua,TRUE,1558780428
"Palo Blanco","Palo Blanco",,12.9006,-86.3897,Nicaragua,NI,NIC,León,Leon,NI-LE,department,,48.0,,,4,America/Managua,FALSE,1558595379
Salónica,Salonica,Salónicas,12.6845,-85.6286,Nicaragua,NI,NIC,Matagalpa,Matagalpa,NI-MT,department,,63.3,,,4,America/Managua,FALSE,1558982016
"San Salvador","San Salvador",,12.9584,-85.8707,Nicaragua,NI,NIC,Matagalpa,Matagalpa,NI-MT,department,,297.6,,,3,America/Managua,FALSE,1558154665
"La Granja","La Granja",,11.9343,-86.4064,Nicaragua,NI,NIC,Managua,Managua,NI-MN,department,,114.5,,,4,America/Managua,FALSE,1558251708
"San Carlos","San Carlos",,12.5306,-86.5518,Nicaragua,NI,NIC,León,Leon,NI-LE,department,,42.1,,,4,America/Managua,FALSE,1558244745
"Barrio El Nacascolo","Barrio El Nacascolo",,12.1000,-86.6000,Nicaragua,NI,NIC,Managua,Managua,NI-MN,department,,61.7,,,4,America/Managua,FALSE,1558794976
"El Gallo","El Gallo",,13.1042,-84.2305,Nicaragua,NI,NIC,"Costa Caribe Sur","Costa Caribe Sur",NI-AS,"autonomous region",,15.6,,,4,America/Managua,FALSE,1558852018
"El Espino","El Espino",Espino,13.4500,-86.7167,Nicaragua,NI,NIC,Madriz,Madriz,NI-MD,department,,91.3,,,4,America/Managua,FALSE,1558046171
"El Gualiqueme","El Gualiqueme",,13.3950,-86.7358,Nicaragua,NI,NIC,Madriz,Madriz,NI-MD,department,,114.5,,,4,America/Managua,FALSE,1558571718
"El Cerrito","El Cerrito",,12.4500,-86.8333,Nicaragua,NI,NIC,León,Leon,NI-LE,department,,240.6,,,3,America/Managua,FALSE,1558543888
"Comarca Tomayunca","Comarca Tomayunca",Tomayuca|Tomayunca,13.2337,-85.9393,Nicaragua,NI,NIC,Jinotega,Jinotega,NI-JI,department,,171.1,,,4,America/Managua,FALSE,1558075994
"Los Ranchos de Sinecapa","Los Ranchos de Sinecapa",,12.4747,-86.4038,Nicaragua,NI,NIC,León,Leon,NI-LE,department,,24.6,,,4,America/Managua,FALSE,1558000185
"La Laguna","La Laguna",Laguna,12.6899,-87.3467,Nicaragua,NI,NIC,Chinandega,Chinandega,NI-CI,department,,70.2,,,4,America/Managua,FALSE,1558935169
"El Río","El Rio",,12.6333,-85.8500,Nicaragua,NI,NIC,Matagalpa,Matagalpa,NI-MT,department,,26.9,,,4,America/Managua,FALSE,1558680100
"El Boquerón","El Boqueron",Boquerón,12.2877,-86.5242,Nicaragua,NI,NIC,Managua,Managua,NI-MN,department,,61.7,,,4,America/Managua,FALSE,1558880276
"Agua Caliente","Agua Caliente",,12.3879,-85.7887,Nicaragua,NI,NIC,Boaco,Boaco,NI-BO,department,,56.6,,,4,America/Managua,FALSE,1558356175
"Santa Julia","Santa Julia",,12.3897,-84.8181,Nicaragua,NI,NIC,"Costa Caribe Sur","Costa Caribe Sur",NI-AS,"autonomous region",,26.1,,,4,America/Managua,FALSE,1558371950
"San Antonio","San Antonio",,11.9613,-85.2178,Nicaragua,NI,NIC,Chontales,Chontales,NI-CO,department,,12.3,,,4,America/Managua,FALSE,1558443171
"Los Caraos","Los Caraos",Carao,13.0296,-86.6313,Nicaragua,NI,NIC,León,Leon,NI-LE,department,,37.5,,,4,America/Managua,FALSE,1558003819
"El Cristal","El Cristal",,12.5656,-85.9676,Nicaragua,NI,NIC,Matagalpa,Matagalpa,NI-MT,department,,68.5,,,4,America/Managua,FALSE,1558718868
"Río Grande","Rio Grande",,11.8893,-85.9777,Nicaragua,NI,NIC,Granada,Granada,NI-GR,department,,193.2,,,4,America/Managua,FALSE,1558657783
"Puerto Nuevo","Puerto Nuevo","Costa Rica",12.4910,-86.2817,Nicaragua,NI,NIC,Managua,Managua,NI-MN,department,,15.8,,,4,America/Managua,FALSE,1558583179
"Carreta Buena","Carreta Buena",,11.6678,-85.8717,Nicaragua,NI,NIC,Granada,Granada,NI-GR,department,,98.0,,,4,America/Managua,FALSE,1558404438
"San Fernando","San Fernando",,12.5686,-87.2236,Nicaragua,NI,NIC,Chinandega,Chinandega,NI-CI,department,,95.8,,,4,America/Managua,FALSE,1558920005
Güiquiliapa,Guiquiliapa,Guisquiliapa|Guisguilapa|Güisquilapa,11.8217,-86.1811,Nicaragua,NI,NIC,Carazo,Carazo,NI-CA,department,,123.4,,,4,America/Managua,FALSE,1558073049
"Casa Colorada","Casa Colorada","Casa Colorado",11.9810,-86.3111,Nicaragua,NI,NIC,Managua,Managua,NI-MN,department,,66.9,,,4,America/Managua,FALSE,1558964990
"Valle Mancotal Abajo","Valle Mancotal Abajo",Mancotal,13.2457,-85.9667,Nicaragua,NI,NIC,Jinotega,Jinotega,NI-JI,department,,171.1,,,4,America/Managua,FALSE,1558373638
"San Francisco","San Francisco",,12.1719,-86.3477,Nicaragua,NI,NIC,Managua,Managua,NI-MN,department,,2123.2,,,2,America/Managua,FALSE,1558696638
"San Francisco","San Francisco",,12.0352,-86.2826,Nicaragua,NI,NIC,Managua,Managua,NI-MN,department,,1634.6,,,3,America/Managua,TRUE,1558075866
"San Francisco","San Francisco",,12.2418,-85.9845,Nicaragua,NI,NIC,Managua,Managua,NI-MN,department,,142.5,,,4,America/Managua,TRUE,1558318905
"San Nicolás","San Nicolas",,12.3547,-84.5552,Nicaragua,NI,NIC,"Costa Caribe Sur","Costa Caribe Sur",NI-AS,"autonomous region",,17.2,,,4,America/Managua,FALSE,1558022634
"Comarca Los Madrigales","Comarca Los Madrigales",,12.0667,-86.2000,Nicaragua,NI,NIC,Masaya,Masaya,NI-MS,department,,763.2,,,3,America/Managua,FALSE,1558849816
"La Gorra","La Gorra",,12.0227,-84.6448,Nicaragua,NI,NIC,"Costa Caribe Sur","Costa Caribe Sur",NI-AS,"autonomous region",,14.6,,,4,America/Managua,FALSE,1558556170
Limón,Limon,"El Limón",11.3591,-85.7411,Nicaragua,NI,NIC,Rivas,Rivas,NI-RI,department,,163.6,,,4,America/Managua,FALSE,1558390142
"San Pedro del Norte","San Pedro del Norte","Dos Socos|Pedro del Norte",13.0500,-84.7333,Nicaragua,NI,NIC,"Costa Caribe Norte","Costa Caribe Norte",NI-AN,"autonomous region",,22.7,,,4,America/Managua,FALSE,1558770640
"El Charco","El Charco",,11.9042,-85.9541,Nicaragua,NI,NIC,Granada,Granada,NI-GR,department,,193.2,,,4,America/Managua,FALSE,1558134049
"El Parque","El Parque",,11.9621,-85.9584,Nicaragua,NI,NIC,Granada,Granada,NI-GR,department,,193.2,,,4,America/Managua,FALSE,1558597690
"La Esperanza","La Esperanza",,12.1978,-84.2830,Nicaragua,NI,NIC,"Costa Caribe Sur","Costa Caribe Sur",NI-AS,"autonomous region",,17.2,,,4,America/Managua,FALSE,1558402661
"Barrio San Lorenzo","Barrio San Lorenzo","San Lorenzo",12.1167,-86.5667,Nicaragua,NI,NIC,Managua,Managua,NI-MN,department,,61.7,,,4,America/Managua,FALSE,1558223199
Aposentillo,Aposentillo,,12.6348,-87.3613,Nicaragua,NI,NIC,Chinandega,Chinandega,NI-CI,department,,70.2,,,4,America/Managua,FALSE,1558010739
"Sabana Grande","Sabana Grande",,12.8182,-86.4844,Nicaragua,NI,NIC,León,Leon,NI-LE,department,,44.3,,,4,America/Managua,FALSE,1558952516
"Sabana Grande","Sabana Grande",,12.5114,-86.5949,Nicaragua,NI,NIC,León,Leon,NI-LE,department,,42.1,,,4,America/Managua,TRUE,1558136868
"Todo Obrero","Todo Obrero","Toro Overo",12.1926,-86.4668,Nicaragua,NI,NIC,Managua,Managua,NI-MN,department,,202.3,,,3,America/Managua,FALSE,1558043965
"San Marcos","San Marcos",,12.8795,-87.5388,Nicaragua,NI,NIC,Chinandega,Chinandega,NI-CI,department,,70.2,,,4,America/Managua,FALSE,1558522501
"San Marcos","San Marcos",,12.8522,-86.6926,Nicaragua,NI,NIC,Chinandega,Chinandega,NI-CI,department,,39.4,,,4,America/Managua,TRUE,1558057376
"Tee Kamp","Tee Kamp","Kamp Tee",14.4809,-83.9899,Nicaragua,NI,NIC,"Costa Caribe Norte","Costa Caribe Norte",NI-AN,"autonomous region",,8.5,,,5,America/Managua,FALSE,1558605201
Haulover,Haulover,"Coco Haulover",13.6903,-83.5124,Nicaragua,NI,NIC,"Costa Caribe Norte","Costa Caribe Norte",NI-AN,"autonomous region",,12.4,,,4,America/Managua,FALSE,1558307845
"Los Placeres","Los Placeres",,12.9903,-85.7440,Nicaragua,NI,NIC,Matagalpa,Matagalpa,NI-MT,department,,110.2,,,4,America/Managua,FALSE,1558479012
"La Caldera","La Caldera",,12.8663,-85.8025,Nicaragua,NI,NIC,Matagalpa,Matagalpa,NI-MT,department,,260.4,,,3,America/Managua,FALSE,1558589612
Cosmapa,Cosmapa,,12.5833,-87.0667,Nicaragua,NI,NIC,Chinandega,Chinandega,NI-CI,department,,210.5,,,3,America/Managua,FALSE,1558502955
"El Paso Real","El Paso Real",,12.8398,-86.1713,Nicaragua,NI,NIC,Matagalpa,Matagalpa,NI-MT,department,,131.2,,,4,America/Managua,FALSE,1558674321
Tapasle,Tapasle,"Buenos Aires",13.0316,-85.6410,Nicaragua,NI,NIC,Matagalpa,Matagalpa,NI-MT,department,,127.7,,,4,America/Managua,FALSE,1558565295
"El Guapote","El Guapote",,12.7454,-86.4042,Nicaragua,NI,NIC,León,Leon,NI-LE,department,,24.6,,,4,America/Managua,FALSE,1558556040
Sacalis,Sacalis,,13.0833,-86.1000,Nicaragua,NI,NIC,Jinotega,Jinotega,NI-JI,department,,171.1,,,4,America/Managua,FALSE,1558448784
Lisawé,Lisawe,,13.3693,-84.9689,Nicaragua,NI,NIC,"Costa Caribe Norte","Costa Caribe Norte",NI-AN,"autonomous region",,31.2,,,4,America/Managua,FALSE,1558593543
Pacayita,Pacayita,,11.9408,-86.0733,Nicaragua,NI,NIC,Masaya,Masaya,NI-MS,department,,1102.9,,,3,America/Managua,FALSE,1558936155
"La Bacinica","La Bacinica",,12.8397,-86.6613,Nicaragua,NI,NIC,León,Leon,NI-LE,department,,41.4,,,4,America/Managua,FALSE,1558689878
"San Rafael","San Rafael",,12.2952,-86.8594,Nicaragua,NI,NIC,León,Leon,NI-LE,department,,240.6,,,3,America/Managua,FALSE,1558388104
"San Rafael","San Rafael",,12.6980,-86.6890,Nicaragua,NI,NIC,León,Leon,NI-LE,department,,33.7,,,4,America/Managua,TRUE,1558627730
"Los Placeres","Los Placeres",,12.5603,-86.0504,Nicaragua,NI,NIC,Managua,Managua,NI-MN,department,,138.1,,,4,America/Managua,FALSE,1558536415
Haulover,Haulover,,11.0977,-83.8229,Nicaragua,NI,NIC,"Costa Caribe Sur","Costa Caribe Sur",NI-AS,"autonomous region",,13.3,,,4,America/Managua,FALSE,1558206953
Haulover,Haulover,,12.3226,-83.6727,Nicaragua,NI,NIC,"Costa Caribe Sur","Costa Caribe Sur",NI-AS,"autonomous region",,11.7,,,4,America/Managua,TRUE,1558499211
"El Níspero","El Nispero",,11.6814,-86.1250,Nicaragua,NI,NIC,Granada,Granada,NI-GR,department,,99.1,,,4,America/Managua,FALSE,1558316677
"Las Mercedes","Las Mercedes",,12.6167,-86.9333,Nicaragua,NI,NIC,Chinandega,Chinandega,NI-CI,department,,127.8,,,4,America/Managua,FALSE,1558460055
"Las Mesas","Las Mesas",,11.5659,-85.9398,Nicaragua,NI,NIC,Rivas,Rivas,NI-RI,department,,68.3,,,4,America/Managua,FALSE,1558038015
"Las Mercedes","Las Mercedes",,11.7988,-86.3162,Nicaragua,NI,NIC,Carazo,Carazo,NI-CA,department,,193.3,,,4,America/Managua,FALSE,1558209308
"Las Mercedes","Las Mercedes",,11.7460,-86.1736,Nicaragua,NI,NIC,Carazo,Carazo,NI-CA,department,,39.8,,,4,America/Managua,TRUE,1558466279
"El Palaíso","El Palaiso","El Portillo",11.8623,-86.0927,Nicaragua,NI,NIC,Masaya,Masaya,NI-MS,department,,536.5,,,3,America/Managua,FALSE,1558933734
"Yasica Norte","Yasica Norte",Yacica,13.0065,-85.7969,Nicaragua,NI,NIC,Matagalpa,Matagalpa,NI-MT,department,,121.3,,,4,America/Managua,FALSE,1558127237
"El Cebollín","El Cebollin",,12.3226,-85.6080,Nicaragua,NI,NIC,Boaco,Boaco,NI-BO,department,,20.2,,,4,America/Managua,FALSE,1558689408
"Las Minitas","Las Minitas",,12.8333,-85.3833,Nicaragua,NI,NIC,Matagalpa,Matagalpa,NI-MT,department,,29.4,,,4,America/Managua,FALSE,1558631688
"San Ignacio","San Ignacio",,11.5156,-86.0778,Nicaragua,NI,NIC,Rivas,Rivas,NI-RI,department,,53.6,,,4,America/Managua,FALSE,1558898472
"Los Portillos","Los Portillos",,12.4613,-85.8504,Nicaragua,NI,NIC,Boaco,Boaco,NI-BO,department,,56.6,,,4,America/Managua,FALSE,1558256098
"Presa Candelaria","Presa Candelaria",,11.7384,-86.0422,Nicaragua,NI,NIC,Carazo,Carazo,NI-CA,department,,99.1,,,4,America/Managua,FALSE,1558614094
"San Juan","San Juan",,12.5220,-85.6039,Nicaragua,NI,NIC,Boaco,Boaco,NI-BO,department,,52.9,,,4,America/Managua,FALSE,1558504117
Guadalupe,Guadalupe,,12.8845,-85.8380,Nicaragua,NI,NIC,Matagalpa,Matagalpa,NI-MT,department,,252.4,,,3,America/Managua,FALSE,1558991501
"Los Ortiz","Los Ortiz","Los Caleros",11.9992,-86.1987,Nicaragua,NI,NIC,Masaya,Masaya,NI-MS,department,,654.8,,,3,America/Managua,FALSE,1558969198
"El Estero","El Estero",,12.6933,-86.6840,Nicaragua,NI,NIC,León,Leon,NI-LE,department,,33.7,,,4,America/Managua,FALSE,1558190649
Silvandera,Silvandera,,12.1459,-84.0881,Nicaragua,NI,NIC,"Costa Caribe Sur","Costa Caribe Sur",NI-AS,"autonomous region",,17.2,,,4,America/Managua,FALSE,1558597916
"Santa Cecilia","Santa Cecilia",,11.9681,-85.9714,Nicaragua,NI,NIC,Granada,Granada,NI-GR,department,,193.2,,,4,America/Managua,FALSE,1558955809
"San Caralampio","San Caralampio","San Caralimpio|El Coyolar",11.8077,-86.0422,Nicaragua,NI,NIC,Granada,Granada,NI-GR,department,,359.6,,,3,America/Managua,FALSE,1558666607
"El Ocotillo","El Ocotillo",Ocotillo,12.7688,-86.3540,Nicaragua,NI,NIC,León,Leon,NI-LE,department,,44.5,,,4,America/Managua,FALSE,1558500338
"Amatitán Viejo","Amatitan Viejo",,12.3833,-86.7500,Nicaragua,NI,NIC,León,Leon,NI-LE,department,,42.1,,,4,America/Managua,FALSE,1558000004
Tecomajoche,Tecomajoche,,11.9393,-86.5471,Nicaragua,NI,NIC,Managua,Managua,NI-MN,department,,58.0,,,4,America/Managua,FALSE,1558497527
"El Aguatal","El Aguatal",,12.8808,-86.5566,Nicaragua,NI,NIC,León,Leon,NI-LE,department,,44.3,,,4,America/Managua,FALSE,1558073523
Posintepe,Posintepe,,11.9073,-85.9516,Nicaragua,NI,NIC,Granada,Granada,NI-GR,department,,193.2,,,4,America/Managua,FALSE,1558824179
"La Calle de Los Besos","La Calle de Los Besos","Calle de Los Besos",12.1110,-86.5541,Nicaragua,NI,NIC,Managua,Managua,NI-MN,department,,60.8,,,4,America/Managua,FALSE,1558487168
Sonzapote,Sonzapote,,12.4143,-85.6879,Nicaragua,NI,NIC,Boaco,Boaco,NI-BO,department,,46.6,,,4,America/Managua,FALSE,1558054843
Tecolostote,Tecolostote,,12.2530,-85.6423,Nicaragua,NI,NIC,Boaco,Boaco,NI-BO,department,,46.0,,,4,America/Managua,FALSE,1558286956
"Barrio Momotombo","Barrio Momotombo","Los Pocitos",11.9146,-86.1077,Nicaragua,NI,NIC,Masaya,Masaya,NI-MS,department,,538.4,,,3,America/Managua,FALSE,1558488815
Washington,Washington,,12.9609,-85.5662,Nicaragua,NI,NIC,Matagalpa,Matagalpa,NI-MT,department,,29.4,,,4,America/Managua,FALSE,1558311857
"Hato Viejo","Hato Viejo",,12.9175,-86.6206,Nicaragua,NI,NIC,León,Leon,NI-LE,department,,44.3,,,4,America/Managua,FALSE,1558870090
"El Remate","El Remate",,11.5072,-86.0527,Nicaragua,NI,NIC,Rivas,Rivas,NI-RI,department,,53.6,,,4,America/Managua,FALSE,1558845073
"La Azucena","La Azucena",,11.1567,-84.6308,Nicaragua,NI,NIC,"Río San Juan","Rio San Juan",NI-SJ,department,,37.9,,,4,America/Managua,FALSE,1558110675
Greystown,Greystown,Graytown,14.4597,-83.2835,Nicaragua,NI,NIC,"Costa Caribe Norte","Costa Caribe Norte",NI-AN,"autonomous region",,23.6,,,4,America/Managua,FALSE,1558840985
"Vigía del Río Grande","Vigia del Rio Grande",,12.5000,-86.3667,Nicaragua,NI,NIC,León,Leon,NI-LE,department,,21.3,,,4,America/Managua,FALSE,1558769009
"Aserradero Sanders","Aserradero Sanders","Aserrío Bum",14.1051,-83.5537,Nicaragua,NI,NIC,"Costa Caribe Norte","Costa Caribe Norte",NI-AN,"autonomous region",,23.6,,,4,America/Managua,FALSE,1558992916
"La Remonta","La Remonta",,12.7287,-86.1812,Nicaragua,NI,NIC,Matagalpa,Matagalpa,NI-MT,department,,68.5,,,4,America/Managua,FALSE,1558828846
Totecacinte,Totecacinte,Totecasinte|Totacasinte,14.0667,-86.0833,Nicaragua,NI,NIC,"Nueva Segovia","Nueva Segovia",NI-NS,department,,88.3,,,4,America/Tegucigalpa,FALSE,1558302918
"Santa Fe","Santa Fe",,11.3772,-85.7950,Nicaragua,NI,NIC,Rivas,Rivas,NI-RI,department,,235.8,,,3,America/Managua,FALSE,1558890496
Kamusasca,Kamusasca,Kumusaca,12.2167,-84.7500,Nicaragua,NI,NIC,"Costa Caribe Sur","Costa Caribe Sur",NI-AS,"autonomous region",,14.6,,,4,America/Managua,FALSE,1558032096
Dakban,Dakban,,14.0596,-83.5172,Nicaragua,NI,NIC,"Costa Caribe Norte","Costa Caribe Norte",NI-AN,"autonomous region",,23.6,,,4,America/Managua,FALSE,1558873553
"San Antonio","San Antonio",,13.2597,-85.8386,Nicaragua,NI,NIC,Jinotega,Jinotega,NI-JI,department,,171.1,,,4,America/Managua,FALSE,1558589751
"Los Ranchones","Los Ranchones",,11.7880,-86.0145,Nicaragua,NI,NIC,Granada,Granada,NI-GR,department,,136.7,,,4,America/Managua,FALSE,1558002238
"El Piñuelar","El Pinuelar","Caserío El Piñuelar",12.6523,-86.7008,Nicaragua,NI,NIC,León,Leon,NI-LE,department,,33.7,,,4,America/Managua,FALSE,1558602834
Urbaite,Urbaite,,11.5243,-85.5880,Nicaragua,NI,NIC,Rivas,Rivas,NI-RI,department,,111.9,,,4,America/Managua,FALSE,1558769554
"Barranco Bayo","Barranco Bayo",,11.6730,-86.3040,Nicaragua,NI,NIC,Carazo,Carazo,NI-CA,department,,175.7,,,4,America/Managua,FALSE,1558076289
"La Fundadora","La Fundadora",Fundadora|Fundadera|Potter,13.0600,-85.9119,Nicaragua,NI,NIC,Jinotega,Jinotega,NI-JI,department,,185.9,,,4,America/Managua,FALSE,1558347437
"El Palmar","El Palmar",,11.5029,-85.8030,Nicaragua,NI,NIC,Rivas,Rivas,NI-RI,department,,98.0,,,4,America/Managua,FALSE,1558842285
"El Tigre","El Tigre",Tigre,11.1421,-85.3411,Nicaragua,NI,NIC,Rivas,Rivas,NI-RI,department,,53.2,,,4,America/Managua,FALSE,1558086896
"La Calera","La Calera",,12.8830,-86.7833,Nicaragua,NI,NIC,Chinandega,Chinandega,NI-CI,department,,39.4,,,4,America/Managua,FALSE,1558185315
"Santa Cruz","Santa Cruz","Valle Santa Cruz",13.0152,-86.3123,Nicaragua,NI,NIC,Estelí,Esteli,NI-ES,department,,184.2,,,4,America/Managua,FALSE,1558292740
"El Ceibo","El Ceibo",,11.7168,-86.2879,Nicaragua,NI,NIC,Carazo,Carazo,NI-CA,department,,193.3,,,4,America/Managua,FALSE,1558853230
"La Calera","La Calera",,11.9415,-85.2903,Nicaragua,NI,NIC,Chontales,Chontales,NI-CO,department,,12.3,,,4,America/Managua,FALSE,1558378389
"San Luis","San Luis",Laguntara,14.7568,-84.0788,Nicaragua,NI,NIC,"Costa Caribe Norte","Costa Caribe Norte",NI-AN,"autonomous region",,5.0,,,5,America/Managua,FALSE,1558796027
"Rodeo Grande","Rodeo Grande",,13.1347,-86.4425,Nicaragua,NI,NIC,Estelí,Esteli,NI-ES,department,,184.2,,,4,America/Managua,FALSE,1558206115
"Las Mercedes","Las Mercedes",Mercedes,12.1575,-86.1731,Nicaragua,NI,NIC,Managua,Managua,NI-MN,department,,4173.9,,,2,America/Managua,FALSE,1558171303
"Las Mercedes","Las Mercedes",Mercedes,12.0379,-86.3447,Nicaragua,NI,NIC,Managua,Managua,NI-MN,department,,66.9,,,4,America/Managua,TRUE,1558467798
"Las Mercedes","Las Mercedes",,12.4190,-86.1873,Nicaragua,NI,NIC,Managua,Managua,NI-MN,department,,15.8,,,4,America/Managua,TRUE,1558695018
Cosigüina,Cosiguina,Coseguina,12.9114,-87.5013,Nicaragua,NI,NIC,Chinandega,Chinandega,NI-CI,department,,70.2,,,4,America/Managua,FALSE,1558207562
"Las Mercedes","Las Mercedes",,12.9000,-85.5333,Nicaragua,NI,NIC,Matagalpa,Matagalpa,NI-MT,department,,29.4,,,4,America/Managua,FALSE,1558392016
"La Luz","La Luz",,13.6167,-85.9500,Nicaragua,NI,NIC,"Nueva Segovia","Nueva Segovia",NI-NS,department,,108.5,,,4,America/Managua,FALSE,1558950752
"El Carmen","El Carmen",,12.2098,-85.5366,Nicaragua,NI,NIC,Boaco,Boaco,NI-BO,department,,20.2,,,4,America/Managua,FALSE,1558927174
"El Gigante","El Gigante",Gigante,11.3840,-86.0383,Nicaragua,NI,NIC,Rivas,Rivas,NI-RI,department,,53.6,,,4,America/Managua,FALSE,1558384990
"El Corozo","El Corozo",Corozo,11.9667,-86.3167,Nicaragua,NI,NIC,Managua,Managua,NI-MN,department,,66.9,,,4,America/Managua,FALSE,1558041809
"El Amparo","El Amparo",,11.9545,-85.9757,Nicaragua,NI,NIC,Granada,Granada,NI-GR,department,,193.2,,,4,America/Managua,FALSE,1558154407
"Valle Congojas","Valle Congojas",Congojas,13.8057,-85.8721,Nicaragua,NI,NIC,"Nueva Segovia","Nueva Segovia",NI-NS,department,,54.4,,,4,America/Managua,FALSE,1558342291
"La Flor","La Flor","Caserío La Flor",12.5295,-86.0099,Nicaragua,NI,NIC,Managua,Managua,NI-MN,department,,142.5,,,4,America/Managua,FALSE,1558514877
Temoa,Temoa,,11.9520,-86.2708,Nicaragua,NI,NIC,Masaya,Masaya,NI-MS,department,,584.0,,,3,America/Managua,FALSE,1558092949
"La Corneta","La Corneta",Corneta,12.9703,-86.0456,Nicaragua,NI,NIC,Matagalpa,Matagalpa,NI-MT,department,,162.2,,,4,America/Managua,FALSE,1558914696
"Las Cuacas","Las Cuacas",,11.7362,-86.2316,Nicaragua,NI,NIC,Carazo,Carazo,NI-CA,department,,173.8,,,4,America/Managua,FALSE,1558501071
"El Quebrachal","El Quebrachal",,12.9994,-86.0696,Nicaragua,NI,NIC,Matagalpa,Matagalpa,NI-MT,department,,162.2,,,4,America/Managua,FALSE,1558408826
"Valle San José","Valle San Jose","San José",13.2333,-86.3000,Nicaragua,NI,NIC,Estelí,Esteli,NI-ES,department,,184.2,,,4,America/Managua,FALSE,1558447684
"Santa Inés","Santa Ines","Bull Camp",14.7172,-84.0928,Nicaragua,NI,NIC,"Costa Caribe Norte","Costa Caribe Norte",NI-AN,"autonomous region",,8.2,,,5,America/Managua,FALSE,1558307721
"Tierra Azul","Tierra Azul",,12.6971,-85.5484,Nicaragua,NI,NIC,Boaco,Boaco,NI-BO,department,,52.9,,,4,America/Managua,FALSE,1558478509
Calabaza,Calabaza,Calabazas,12.6416,-85.9420,Nicaragua,NI,NIC,Matagalpa,Matagalpa,NI-MT,department,,68.5,,,4,America/Managua,FALSE,1558504536
"Las Enramadas","Las Enramadas",,12.0500,-86.7000,Nicaragua,NI,NIC,León,Leon,NI-LE,department,,61.7,,,4,America/Managua,FALSE,1558534852
"El Limonal","El Limonal",Limonal,11.4815,-85.8340,Nicaragua,NI,NIC,Rivas,Rivas,NI-RI,department,,100.6,,,4,America/Managua,FALSE,1558798986
"El Polvón","El Polvon","Polvón|Palvon|Ingenio El Povón",12.4693,-87.0503,Nicaragua,NI,NIC,León,Leon,NI-LE,department,,231.6,,,3,America/Managua,FALSE,1558555490
"El Carrizal","El Carrizal",,11.7636,-85.8370,Nicaragua,NI,NIC,Granada,Granada,NI-GR,department,,193.2,,,4,America/Managua,FALSE,1558168847
"La Marrana","La Marrana",,14.0914,-85.4945,Nicaragua,NI,NIC,Jinotega,Jinotega,NI-JI,department,,15.1,,,4,America/Tegucigalpa,FALSE,1558683706
"El Abejonal","El Abejonal",,11.5751,-86.1450,Nicaragua,NI,NIC,Rivas,Rivas,NI-RI,department,,67.3,,,4,America/Managua,FALSE,1558593356
"Bum Sirpi","Bum Sirpi",Bumsirpe,14.1514,-83.4607,Nicaragua,NI,NIC,"Costa Caribe Norte","Costa Caribe Norte",NI-AN,"autonomous region",,23.6,,,4,America/Managua,FALSE,1558115583
"Bum Sirpi","Bum Sirpi","Bull Sirpe",14.7179,-84.1481,Nicaragua,NI,NIC,"Costa Caribe Norte","Costa Caribe Norte",NI-AN,"autonomous region",,2.4,,,5,America/Managua,TRUE,1558966934
"Santo Tomás","Santo Tomas","Santa Tomas",12.0694,-85.0906,Nicaragua,NI,NIC,Chontales,Chontales,NI-CO,department,minor,34.2,,,3,America/Managua,FALSE,1558874714
"Santa Elisa","Santa Elisa",,12.1667,-86.0333,Nicaragua,NI,NIC,Managua,Managua,NI-MN,department,,142.5,,,4,America/Managua,FALSE,1558466348
"Santa Clara","Santa Clara",,11.3029,-85.7665,Nicaragua,NI,NIC,Rivas,Rivas,NI-RI,department,,155.9,,,4,America/Managua,FALSE,1558692869
Olimpo,Olimpo,,11.9426,-86.3935,Nicaragua,NI,NIC,Managua,Managua,NI-MN,department,,66.9,,,4,America/Managua,FALSE,1558761623
"Santo Tomás","Santo Tomas","Santa Tomas",12.7517,-87.3764,Nicaragua,NI,NIC,Chinandega,Chinandega,NI-CI,department,,70.2,,,4,America/Managua,FALSE,1558872742
"Las Castillos","Las Castillos","Las Casillos",12.3501,-86.7855,Nicaragua,NI,NIC,León,Leon,NI-LE,department,,240.6,,,3,America/Managua,FALSE,1558592883
"El Paraíso","El Paraiso",,11.8845,-86.2324,Nicaragua,NI,NIC,Carazo,Carazo,NI-CA,department,,201.3,,,3,America/Managua,FALSE,1558470907
"El Paraíso","El Paraiso",,11.7114,-86.2363,Nicaragua,NI,NIC,Carazo,Carazo,NI-CA,department,,173.8,,,4,America/Managua,TRUE,1558355614
"EL Paraíso","EL Paraiso",,11.7474,-86.0411,Nicaragua,NI,NIC,Carazo,Carazo,NI-CA,department,,99.1,,,4,America/Managua,TRUE,1558607992
"El Recreo","El Recreo",,11.9506,-86.2689,Nicaragua,NI,NIC,Masaya,Masaya,NI-MS,department,,584.0,,,3,America/Managua,FALSE,1558180899
"Las Palancas","Las Palancas",,12.7716,-86.7110,Nicaragua,NI,NIC,León,Leon,NI-LE,department,,38.9,,,4,America/Managua,FALSE,1558736192
"El Espino","El Espino","Caserío El Espino",12.5825,-86.5194,Nicaragua,NI,NIC,León,Leon,NI-LE,department,,33.7,,,4,America/Managua,FALSE,1558478664
"El Paraíso","El Paraiso",,12.7399,-87.1216,Nicaragua,NI,NIC,Chinandega,Chinandega,NI-CI,department,,113.2,,,4,America/Managua,FALSE,1558731681
"El Paraíso","El Paraiso",,12.9182,-87.5012,Nicaragua,NI,NIC,Chinandega,Chinandega,NI-CI,department,,70.2,,,4,America/Managua,TRUE,1558008683
"San Jacinto","San Jacinto",,12.5825,-86.7768,Nicaragua,NI,NIC,León,Leon,NI-LE,department,,60.9,,,4,America/Managua,FALSE,1558839088
"Miguel Bikan","Miguel Bikan","La Tronquera",14.5611,-84.1091,Nicaragua,NI,NIC,"Costa Caribe Norte","Costa Caribe Norte",NI-AN,"autonomous region",,8.5,,,5,America/Managua,FALSE,1558523189
"La Cañada","La Canada",Cañada,13.0333,-86.2333,Nicaragua,NI,NIC,Estelí,Esteli,NI-ES,department,,82.0,,,4,America/Managua,FALSE,1558229575
Baká,Baka,,13.6951,-84.5529,Nicaragua,NI,NIC,"Costa Caribe Norte","Costa Caribe Norte",NI-AN,"autonomous region",,31.7,,,4,America/Managua,FALSE,1558130249
"Los Tendidos del Carbonal","Los Tendidos del Carbonal","Lomas Los Tendidos del Carbonal",13.0620,-86.1546,Nicaragua,NI,NIC,Jinotega,Jinotega,NI-JI,department,,82.0,,,4,America/Managua,FALSE,1558306352
"Tierra Blanca","Tierra Blanca",,11.6963,-86.0163,Nicaragua,NI,NIC,Carazo,Carazo,NI-CA,department,,99.1,,,4,America/Managua,FALSE,1558752109
"Mangle Alto","Mangle Alto",,12.8752,-87.4051,Nicaragua,NI,NIC,Chinandega,Chinandega,NI-CI,department,,70.2,,,4,America/Managua,FALSE,1558549478
"La Virgen","La Virgen",,12.2673,-84.4526,Nicaragua,NI,NIC,"Costa Caribe Sur","Costa Caribe Sur",NI-AS,"autonomous region",,17.2,,,4,America/Managua,FALSE,1558954088
"La Cumplida","La Cumplida",Cumplida,12.9998,-85.8495,Nicaragua,NI,NIC,Matagalpa,Matagalpa,NI-MT,department,,297.6,,,3,America/Managua,FALSE,1558214818
"San Francisco de La Unión","San Francisco de La Union",,11.7833,-86.1500,Nicaragua,NI,NIC,Carazo,Carazo,NI-CA,department,,73.7,,,4,America/Managua,FALSE,1558462438
"San Antonio","San Antonio",,12.4815,-85.1486,Nicaragua,NI,NIC,Boaco,Boaco,NI-BO,department,,26.3,,,4,America/Managua,FALSE,1558203466
"Barrio El Terrero","Barrio El Terrero","El Terrero|Terrero",12.5667,-86.6000,Nicaragua,NI,NIC,León,Leon,NI-LE,department,,33.7,,,4,America/Managua,FALSE,1558033116
"La Orilla","La Orilla",Orilla,11.7828,-86.0405,Nicaragua,NI,NIC,Granada,Granada,NI-GR,department,,99.1,,,4,America/Managua,FALSE,1558000003
"San Roberto","San Roberto",,12.0912,-86.2790,Nicaragua,NI,NIC,Managua,Managua,NI-MN,department,,4173.9,,,2,America/Managua,FALSE,1558000038
"Los Viejitos","Los Viejitos",,11.5543,-85.8970,Nicaragua,NI,NIC,Rivas,Rivas,NI-RI,department,,89.8,,,4,America/Managua,FALSE,1558468400
"El Guabillo","El Guabillo",,11.6440,-86.2370,Nicaragua,NI,NIC,Carazo,Carazo,NI-CA,department,,173.8,,,4,America/Managua,FALSE,1558596472
"Cicaya Grande","Cicaya Grande",,11.9247,-86.2519,Nicaragua,NI,NIC,Carazo,Carazo,NI-CA,department,,285.8,,,3,America/Managua,FALSE,1558205734
"San José del Mombacho","San Jose del Mombacho",Mombacho,11.7869,-85.8973,Nicaragua,NI,NIC,Granada,Granada,NI-GR,department,,193.2,,,4,America/Managua,FALSE,1558906126
Talolinga,Talolinga,,12.4897,-86.2260,Nicaragua,NI,NIC,Boaco,Boaco,NI-BO,department,,15.8,,,4,America/Managua,FALSE,1558486387
"La Ceiba","La Ceiba",,12.4415,-85.6300,Nicaragua,NI,NIC,Boaco,Boaco,NI-BO,department,,52.9,,,4,America/Managua,FALSE,1558769059
"Buena Vista","Buena Vista",,14.6473,-83.6488,Nicaragua,NI,NIC,"Costa Caribe Norte","Costa Caribe Norte",NI-AN,"autonomous region",,23.6,,,4,America/Managua,FALSE,1558414131
"El Tizate","El Tizate",Tizate,12.0167,-86.3167,Nicaragua,NI,NIC,Managua,Managua,NI-MN,department,,66.9,,,4,America/Managua,FALSE,1558587289
"Alta Mira","Alta Mira",,12.1167,-85.7667,Nicaragua,NI,NIC,Boaco,Boaco,NI-BO,department,,46.0,,,4,America/Managua,FALSE,1558940740
"Boca del Toro","Boca del Toro","Bocas del Toro",14.4070,-83.8770,Nicaragua,NI,NIC,"Costa Caribe Norte","Costa Caribe Norte",NI-AN,"autonomous region",,8.5,,,5,America/Managua,FALSE,1558816349
"El Trapichito","El Trapichito",Trapichito,13.4455,-86.4840,Nicaragua,NI,NIC,Madriz,Madriz,NI-MD,department,,194.2,,,4,America/Managua,FALSE,1558790200
"Buena Vista","Buena Vista",,11.0754,-83.8135,Nicaragua,NI,NIC,"Costa Caribe Sur","Costa Caribe Sur",NI-AS,"autonomous region",,13.3,,,4,America/Managua,FALSE,1558042263
"El Valle","El Valle",,11.7500,-86.1000,Nicaragua,NI,NIC,Granada,Granada,NI-GR,department,,74.5,,,4,America/Managua,FALSE,1558577212
"Santa Ana","Santa Ana",,13.6536,-86.0255,Nicaragua,NI,NIC,"Nueva Segovia","Nueva Segovia",NI-NS,department,,76.9,,,4,America/Managua,FALSE,1558358430
Soledad,Soledad,,12.0570,-84.2490,Nicaragua,NI,NIC,"Costa Caribe Sur","Costa Caribe Sur",NI-AS,"autonomous region",,17.2,,,4,America/Managua,FALSE,1558141593
"San Benito","San Benito",,12.5539,-87.0410,Nicaragua,NI,NIC,Chinandega,Chinandega,NI-CI,department,,223.7,,,3,America/Managua,FALSE,1558196333
"Barrio de San Francisco","Barrio de San Francisco",,12.0306,-86.1165,Nicaragua,NI,NIC,Masaya,Masaya,NI-MS,department,,387.3,,,3,America/Managua,FALSE,1558926857
Mecatepillo,Mecatepillo,Mecitepio,11.7017,-85.9486,Nicaragua,NI,NIC,Granada,Granada,NI-GR,department,,99.1,,,4,America/Managua,FALSE,1558817760
"Valle Telpochapa","Valle Telpochapa",Telpochoapa|Telpochapa,12.5511,-86.2168,Nicaragua,NI,NIC,Managua,Managua,NI-MN,department,,15.8,,,4,America/Managua,FALSE,1558791169
"Barrio Los Hidalgos","Barrio Los Hidalgos",,12.0147,-86.3890,Nicaragua,NI,NIC,Managua,Managua,NI-MN,department,,66.9,,,4,America/Managua,FALSE,1558779101
Masapía,Masapia,Masapa,12.1728,-85.7409,Nicaragua,NI,NIC,Boaco,Boaco,NI-BO,department,,46.0,,,4,America/Managua,FALSE,1558162566
"Los Robles","Los Robles",,13.6930,-86.6941,Nicaragua,NI,NIC,"Nueva Segovia","Nueva Segovia",NI-NS,department,,35.4,,,4,America/Managua,FALSE,1558619996
"El Salto","El Salto",,12.1197,-85.3868,Nicaragua,NI,NIC,Chontales,Chontales,NI-CO,department,,86.0,,,4,America/Managua,FALSE,1558738956
"San Marcos","San Marcos",,13.1310,-86.1051,Nicaragua,NI,NIC,Jinotega,Jinotega,NI-JI,department,,104.9,,,4,America/Managua,FALSE,1558137773
"El Sabalar","El Sabalar",,12.9667,-85.5333,Nicaragua,NI,NIC,Matagalpa,Matagalpa,NI-MT,department,,29.4,,,4,America/Managua,FALSE,1558256362
"Los Capules","Los Capules",,13.0505,-86.0891,Nicaragua,NI,NIC,Jinotega,Jinotega,NI-JI,department,,171.1,,,4,America/Managua,FALSE,1558385685
Talolinga,Talolinga,,12.8356,-86.4186,Nicaragua,NI,NIC,León,Leon,NI-LE,department,,44.5,,,4,America/Managua,FALSE,1558953482
"San Lorenzo","San Lorenzo",,12.4960,-86.8529,Nicaragua,NI,NIC,León,Leon,NI-LE,department,,113.9,,,4,America/Managua,FALSE,1558111520
"San Lorenzo","San Lorenzo",,12.1167,-86.6167,Nicaragua,NI,NIC,León,Leon,NI-LE,department,,61.7,,,4,America/Managua,TRUE,1558777456
"El Empalme","El Empalme",,12.6746,-86.4245,Nicaragua,NI,NIC,León,Leon,NI-LE,department,,24.6,,,4,America/Managua,FALSE,1558429684
"Valle Las Pilas","Valle Las Pilas",,13.0030,-86.7720,Nicaragua,NI,NIC,Chinandega,Chinandega,NI-CI,department,,39.4,,,4,America/Managua,FALSE,1558405351
Aranjuez,Aranjuez,,12.3636,-86.8255,Nicaragua,NI,NIC,León,Leon,NI-LE,department,,240.6,,,3,America/Managua,FALSE,1558787099
"El Pital","El Pital",Pital,13.0625,-86.4434,Nicaragua,NI,NIC,Estelí,Esteli,NI-ES,department,,184.2,,,4,America/Managua,FALSE,1558648988
"Los Brasiles","Los Brasiles","Brasiles|Los Braziles",12.1865,-86.3624,Nicaragua,NI,NIC,Managua,Managua,NI-MN,department,,202.3,,,3,America/Managua,FALSE,1558751872
Tungla,Tungla,Iungla,13.3140,-84.4310,Nicaragua,NI,NIC,"Costa Caribe Norte","Costa Caribe Norte",NI-AN,"autonomous region",,12.4,,,4,America/Managua,FALSE,1558422568
México,Mexico,Méjico,10.9985,-85.0634,Nicaragua,NI,NIC,Rivas,Rivas,NI-RI,department,,52.6,,,4,America/Costa_Rica,FALSE,1558999883
Dákura,Dakura,Dacura,14.3942,-83.2257,Nicaragua,NI,NIC,"Costa Caribe Norte","Costa Caribe Norte",NI-AN,"autonomous region",,23.6,,,4,America/Managua,FALSE,1558237171
"El Naranjo","El Naranjo",Naranja|Naranjo,11.0853,-85.7083,Nicaragua,NI,NIC,Rivas,Rivas,NI-RI,department,,42.1,,,4,America/Managua,FALSE,1558544039
"Poza Redonda","Poza Redonda",,12.4833,-84.5333,Nicaragua,NI,NIC,"Costa Caribe Sur","Costa Caribe Sur",NI-AS,"autonomous region",,17.2,,,4,America/Managua,FALSE,1558694399
"San José del Obraje","San Jose del Obraje","Valle San José",12.7973,-86.9870,Nicaragua,NI,NIC,Chinandega,Chinandega,NI-CI,department,,194.6,,,4,America/Managua,FALSE,1558175505
"San Martín","San Martin",,11.1084,-83.9459,Nicaragua,NI,NIC,"Costa Caribe Sur","Costa Caribe Sur",NI-AS,"autonomous region",,11.9,,,4,America/Managua,FALSE,1558828333
Tichán,Tichan,,14.9833,-83.4667,Nicaragua,NI,NIC,"Costa Caribe Norte","Costa Caribe Norte",NI-AN,"autonomous region",,16.8,,,4,America/Managua,FALSE,1558765197
"Seven Benk","Seven Benk",,14.2039,-83.6344,Nicaragua,NI,NIC,"Costa Caribe Norte","Costa Caribe Norte",NI-AN,"autonomous region",,23.6,,,4,America/Managua,FALSE,1558781106
"La Esperanza","La Esperanza",,12.8167,-85.7500,Nicaragua,NI,NIC,Matagalpa,Matagalpa,NI-MT,department,,297.6,,,3,America/Managua,FALSE,1558550343
"Los Bañaderos","Los Banaderos",,13.3311,-86.1206,Nicaragua,NI,NIC,Jinotega,Jinotega,NI-JI,department,,102.7,,,4,America/Managua,FALSE,1558632492
"Santa Lucía","Santa Lucia",,12.6000,-87.1333,Nicaragua,NI,NIC,Chinandega,Chinandega,NI-CI,department,,194.6,,,4,America/Managua,FALSE,1558802703
"San Ramón","San Ramon",,11.6844,-85.9065,Nicaragua,NI,NIC,Rivas,Rivas,NI-RI,department,,98.2,,,4,America/Managua,FALSE,1558221494
"Santa Marta","Santa Marta",,11.8000,-85.1833,Nicaragua,NI,NIC,Chontales,Chontales,NI-CO,department,,12.3,,,4,America/Managua,FALSE,1558722799
"Las Mesas","Las Mesas","Las Mesitas|Mesas",12.9824,-86.9637,Nicaragua,NI,NIC,Chinandega,Chinandega,NI-CI,department,,51.5,,,4,America/Managua,FALSE,1558748883
"La Pintada","La Pintada",,11.7119,-86.1005,Nicaragua,NI,NIC,Granada,Granada,NI-GR,department,,93.9,,,4,America/Managua,FALSE,1558973178
"Las Breñas","Las Brenas",,11.7272,-86.4412,Nicaragua,NI,NIC,Carazo,Carazo,NI-CA,department,,179.6,,,4,America/Managua,FALSE,1558234979
"El Morado","El Morado",Morado,13.0829,-86.4529,Nicaragua,NI,NIC,Estelí,Esteli,NI-ES,department,,184.2,,,4,America/Managua,FALSE,1558448988
"Cañas Gordas","Canas Gordas",,11.2971,-85.6865,Nicaragua,NI,NIC,Rivas,Rivas,NI-RI,department,,163.6,,,4,America/Managua,FALSE,1558881150
"La Mohosa","La Mohosa",,11.7008,-86.1744,Nicaragua,NI,NIC,Carazo,Carazo,NI-CA,department,,39.8,,,4,America/Managua,FALSE,1558649205
"El Mojón","El Mojon",Mojón,13.2155,-86.0492,Nicaragua,NI,NIC,Jinotega,Jinotega,NI-JI,department,,118.7,,,4,America/Managua,FALSE,1558523167
"Santa Clara","Santa Clara",,13.7067,-86.2578,Nicaragua,NI,NIC,"Nueva Segovia","Nueva Segovia",NI-NS,department,,63.4,,,4,America/Managua,FALSE,1558949304
"El Salto","El Salto",,12.9788,-86.0274,Nicaragua,NI,NIC,Matagalpa,Matagalpa,NI-MT,department,,162.2,,,4,America/Managua,FALSE,1558195137
"El Salto","El Salto",,12.9833,-85.2167,Nicaragua,NI,NIC,Matagalpa,Matagalpa,NI-MT,department,,58.1,,,4,America/Managua,TRUE,1558167127
"Sannilaya Lakus","Sannilaya Lakus",,14.2667,-83.6667,Nicaragua,NI,NIC,"Costa Caribe Norte","Costa Caribe Norte",NI-AN,"autonomous region",,23.6,,,4,America/Managua,FALSE,1558945414
"El Jobo","El Jobo",,12.7765,-86.1270,Nicaragua,NI,NIC,Matagalpa,Matagalpa,NI-MT,department,,68.5,,,4,America/Managua,FALSE,1558117055
"El Jobo","El Jobo",,12.9167,-85.2833,Nicaragua,NI,NIC,Matagalpa,Matagalpa,NI-MT,department,,58.1,,,4,America/Managua,TRUE,1558304241
"El Almendro","El Almendro",,11.7459,-86.0745,Nicaragua,NI,NIC,Carazo,Carazo,NI-CA,department,,99.1,,,4,America/Managua,FALSE,1558664387
"El Salto","El Salto",Salto,11.8740,-86.4130,Nicaragua,NI,NIC,Managua,Managua,NI-MN,department,,146.5,,,4,America/Managua,FALSE,1558413673
"Ocote de Abajo","Ocote de Abajo",,12.7487,-85.8710,Nicaragua,NI,NIC,Matagalpa,Matagalpa,NI-MT,department,,98.1,,,4,America/Managua,FALSE,1558832503
Nancimí,Nancimi,Nancemi,11.4727,-85.9601,Nicaragua,NI,NIC,Rivas,Rivas,NI-RI,department,,53.6,,,4,America/Managua,FALSE,1558106309
Bachilaya,Bachilaya,Batsilaya,14.7897,-83.8202,Nicaragua,NI,NIC,"Costa Caribe Norte","Costa Caribe Norte",NI-AN,"autonomous region",,4.9,,,5,America/Managua,FALSE,1558913774
"Los Arados","Los Arados",Arados|Arado,13.2545,-86.7643,Nicaragua,NI,NIC,Chinandega,Chinandega,NI-CI,department,,68.0,,,4,America/Managua,FALSE,1558809900
Tecomapa,Tecomapa,,11.6467,-86.2599,Nicaragua,NI,NIC,Carazo,Carazo,NI-CA,department,,173.8,,,4,America/Managua,FALSE,1558115874
"San Agustín","San Agustin",,12.3602,-85.9077,Nicaragua,NI,NIC,Boaco,Boaco,NI-BO,department,,56.6,,,4,America/Managua,FALSE,1558467973
"El Carmen","El Carmen",,14.7517,-84.2457,Nicaragua,NI,NIC,"Costa Caribe Norte","Costa Caribe Norte",NI-AN,"autonomous region",,2.7,,,5,America/Managua,FALSE,1558167133
"La Ponzoña","La Ponzona",,12.9273,-85.2594,Nicaragua,NI,NIC,Matagalpa,Matagalpa,NI-MT,department,,58.1,,,4,America/Managua,FALSE,1558902300
"Tum Tum","Tum Tum",,14.3167,-83.4000,Nicaragua,NI,NIC,"Costa Caribe Norte","Costa Caribe Norte",NI-AN,"autonomous region",,23.6,,,4,America/Managua,FALSE,1558608870
"Santa Bárbara","Santa Barbara",,12.6667,-87.0833,Nicaragua,NI,NIC,Chinandega,Chinandega,NI-CI,department,,194.6,,,4,America/Managua,FALSE,1558555640
"Las Conchitas","Las Conchitas",,11.7500,-86.0333,Nicaragua,NI,NIC,Granada,Granada,NI-GR,department,,99.1,,,4,America/Managua,FALSE,1558229405
"Auya Pihni","Auya Pihni",,14.2939,-83.6123,Nicaragua,NI,NIC,"Costa Caribe Norte","Costa Caribe Norte",NI-AN,"autonomous region",,23.6,,,4,America/Managua,FALSE,1558333053
Valparaíso,Valparaiso,,12.0141,-85.5476,Nicaragua,NI,NIC,Chontales,Chontales,NI-CO,department,,84.5,,,4,America/Managua,FALSE,1558124487
"El Cráter","El Crater",,11.8185,-85.9723,Nicaragua,NI,NIC,Granada,Granada,NI-GR,department,,193.2,,,4,America/Managua,FALSE,1558176816
Chicago,Chicago,,13.1209,-84.1312,Nicaragua,NI,NIC,"Costa Caribe Sur","Costa Caribe Sur",NI-AS,"autonomous region",,15.6,,,4,America/Managua,FALSE,1558709000
"El Mango","El Mango","Caserío El Mango",12.5000,-86.0167,Nicaragua,NI,NIC,Managua,Managua,NI-MN,department,,142.5,,,4,America/Managua,FALSE,1558093252
"Los Tacanistes","Los Tacanistes",Tacanites,11.8596,-84.5135,Nicaragua,NI,NIC,"Costa Caribe Sur","Costa Caribe Sur",NI-AS,"autonomous region",,19.3,,,4,America/Managua,FALSE,1558867018
Cuyalí,Cuyali,Cuyal,13.1815,-85.9120,Nicaragua,NI,NIC,Jinotega,Jinotega,NI-JI,department,,171.1,,,4,America/Managua,FALSE,1558788936
"El Guapote","El Guapote",,12.8173,-85.2635,Nicaragua,NI,NIC,Matagalpa,Matagalpa,NI-MT,department,,29.4,,,4,America/Managua,FALSE,1558162764
"Pueblo Nuevo","Pueblo Nuevo",,11.5216,-85.8978,Nicaragua,NI,NIC,Rivas,Rivas,NI-RI,department,,71.1,,,4,America/Managua,FALSE,1558249971
"Pueblo Nuevo","Pueblo Nuevo",,11.1626,-85.7062,Nicaragua,NI,NIC,Rivas,Rivas,NI-RI,department,,42.1,,,4,America/Managua,TRUE,1558450357
"La República","La Republica",,12.6997,-87.1698,Nicaragua,NI,NIC,Chinandega,Chinandega,NI-CI,department,,70.2,,,4,America/Managua,FALSE,1558243006
Kum,Kum,Coom|Cum,14.8110,-83.7142,Nicaragua,NI,NIC,"Costa Caribe Norte","Costa Caribe Norte",NI-AN,"autonomous region",,8.5,,,5,America/Managua,FALSE,1558511708
"San Juan","San Juan",,11.7398,-86.1888,Nicaragua,NI,NIC,Carazo,Carazo,NI-CA,department,,39.8,,,4,America/Managua,FALSE,1558149644
"La Avanzada","La Avanzada",,11.9897,-85.9698,Nicaragua,NI,NIC,Granada,Granada,NI-GR,department,,193.2,,,4,America/Managua,FALSE,1558297839
"La Bandera","La Bandera",,12.7092,-87.0262,Nicaragua,NI,NIC,Chinandega,Chinandega,NI-CI,department,,194.6,,,4,America/Managua,FALSE,1558615778
"Las Cañas","Las Canas",,12.9372,-86.6403,Nicaragua,NI,NIC,León,Leon,NI-LE,department,,44.3,,,4,America/Managua,FALSE,1558720432
"San Ubaldo","San Ubaldo","San Agustín",11.8556,-85.3281,Nicaragua,NI,NIC,Chontales,Chontales,NI-CO,department,,12.3,,,4,America/Managua,FALSE,1558010343
"Mina El Limón","Mina El Limon","Limon|El Limón|Mina Limón",12.7507,-86.7380,Nicaragua,NI,NIC,León,Leon,NI-LE,department,,33.7,,,4,America/Managua,FALSE,1558530053
"San Ubaldo","San Ubaldo",,12.6737,-87.1110,Nicaragua,NI,NIC,Chinandega,Chinandega,NI-CI,department,,194.6,,,4,America/Managua,FALSE,1558591759
Chalmeca,Chalmeca,,12.1296,-84.0971,Nicaragua,NI,NIC,"Costa Caribe Sur","Costa Caribe Sur",NI-AS,"autonomous region",,17.2,,,4,America/Managua,FALSE,1558853262
"Omar Torrijos","Omar Torrijos",,12.2753,-86.8425,Nicaragua,NI,NIC,León,Leon,NI-LE,department,,240.6,,,3,America/Managua,FALSE,1558072457
"El Guaira","El Guaira",,11.7129,-86.2869,Nicaragua,NI,NIC,Carazo,Carazo,NI-CA,department,,185.3,,,4,America/Managua,FALSE,1558070476
"Bella Vista","Bella Vista",Palmira,12.8787,-84.1843,Nicaragua,NI,NIC,"Costa Caribe Sur","Costa Caribe Sur",NI-AS,"autonomous region",,26.3,,,4,America/Managua,FALSE,1558423343
Ilapo,Ilapo,,12.9931,-85.7928,Nicaragua,NI,NIC,Matagalpa,Matagalpa,NI-MT,department,,110.2,,,4,America/Managua,FALSE,1558913908
Sinkita,Sinkita,"Isinquita|Cinquita|Esenkita|Cincuita|Ising Kita",12.9508,-83.5375,Nicaragua,NI,NIC,"Costa Caribe Sur","Costa Caribe Sur",NI-AS,"autonomous region",,2.5,,,4,America/Managua,FALSE,1558642281
"Los Velásquez","Los Velasquez",,12.5773,-86.9387,Nicaragua,NI,NIC,Chinandega,Chinandega,NI-CI,department,,127.8,,,4,America/Managua,FALSE,1558794787
"Portillo del Jícaro","Portillo del Jicaro",,12.8688,-85.6484,Nicaragua,NI,NIC,Matagalpa,Matagalpa,NI-MT,department,,110.2,,,4,America/Managua,FALSE,1558005834
"San Cristóbal","San Cristobal",,12.8058,-86.0347,Nicaragua,NI,NIC,Matagalpa,Matagalpa,NI-MT,department,,68.5,,,4,America/Managua,FALSE,1558857533
"Wiwilí de Jinotega","Wiwili de Jinotega",,13.6194,-85.8179,Nicaragua,NI,NIC,Jinotega,Jinotega,NI-JI,department,minor,44.6,,,3,America/Managua,FALSE,1558000011
"Las Brisas","Las Brisas",,11.6875,-86.3147,Nicaragua,NI,NIC,Carazo,Carazo,NI-CA,department,,193.3,,,4,America/Managua,FALSE,1558894003
"El Disparate","El Disparate",,11.1456,-85.4224,Nicaragua,NI,NIC,Rivas,Rivas,NI-RI,department,,53.2,,,4,America/Managua,FALSE,1558604076
"Las Brisas","Las Brisas",,12.6167,-87.0167,Nicaragua,NI,NIC,Chinandega,Chinandega,NI-CI,department,,223.7,,,3,America/Managua,FALSE,1558341648
"La Avellana","La Avellana",,12.5029,-85.9925,Nicaragua,NI,NIC,Managua,Managua,NI-MN,department,,142.5,,,4,America/Managua,FALSE,1558194738
Salamina,Salamina,,11.9938,-86.6464,Nicaragua,NI,NIC,Managua,Managua,NI-MN,department,,58.0,,,4,America/Managua,FALSE,1558220846
Lapan,Lapan,,13.8771,-83.7765,Nicaragua,NI,NIC,"Costa Caribe Norte","Costa Caribe Norte",NI-AN,"autonomous region",,23.6,,,4,America/Managua,FALSE,1558724701
"San Antonio","San Antonio",,12.7297,-87.0485,Nicaragua,NI,NIC,Chinandega,Chinandega,NI-CI,department,,194.6,,,4,America/Managua,FALSE,1558462148
Teotecacinte,Teotecacinte,Teotecicante,14.0500,-86.0667,Nicaragua,NI,NIC,"Nueva Segovia","Nueva Segovia",NI-NS,department,,124.8,,,4,America/Managua,FALSE,1558607574
"San Cristóbal","San Cristobal",,12.1500,-86.1500,Nicaragua,NI,NIC,Managua,Managua,NI-MN,department,,3497.0,,,2,America/Managua,FALSE,1558775445
Cacaguapa,Cacaguapa,,12.0959,-85.5907,Nicaragua,NI,NIC,Boaco,Boaco,NI-BO,department,,20.2,,,4,America/Managua,FALSE,1558773797
"El Martillo","El Martillo",,12.1974,-86.3882,Nicaragua,NI,NIC,Managua,Managua,NI-MN,department,,202.3,,,3,America/Managua,FALSE,1558632809
"San Antonio","San Antonio",,11.6944,-86.3247,Nicaragua,NI,NIC,Carazo,Carazo,NI-CA,department,,193.3,,,4,America/Managua,FALSE,1558802216
"San Antonio","San Antonio",,11.7294,-86.2277,Nicaragua,NI,NIC,Carazo,Carazo,NI-CA,department,,173.8,,,4,America/Managua,TRUE,1558562464
"San Antonio","San Antonio",,11.7149,-86.1327,Nicaragua,NI,NIC,Carazo,Carazo,NI-CA,department,,74.7,,,4,America/Managua,TRUE,1558026846
"Las Manos","Las Manos",,13.7946,-86.5712,Nicaragua,NI,NIC,"Nueva Segovia","Nueva Segovia",NI-NS,department,,85.8,,,4,America/Tegucigalpa,FALSE,1558856488
"La Camaroncita","La Camaroncita",,11.6706,-86.0891,Nicaragua,NI,NIC,Granada,Granada,NI-GR,department,,99.1,,,4,America/Managua,FALSE,1558957018
"Waswalí Abajo","Waswali Abajo",Waslala|Waswali,12.9193,-85.9762,Nicaragua,NI,NIC,Matagalpa,Matagalpa,NI-MT,department,,297.6,,,3,America/Managua,FALSE,1558375607
"Santa Teresa","Santa Teresa",,11.8447,-85.9915,Nicaragua,NI,NIC,Granada,Granada,NI-GR,department,,193.2,,,4,America/Managua,FALSE,1558916266
"El Rodeo","El Rodeo",,12.3397,-85.6520,Nicaragua,NI,NIC,Boaco,Boaco,NI-BO,department,,46.0,,,4,America/Managua,FALSE,1558473049
"Barrio Chiquito","Barrio Chiquito",,12.6333,-87.2000,Nicaragua,NI,NIC,Chinandega,Chinandega,NI-CI,department,,70.2,,,4,America/Managua,FALSE,1558214991
Pacaya,Pacaya,Pecaya|Passaya,11.9491,-86.3005,Nicaragua,NI,NIC,Masaya,Masaya,NI-MS,department,,83.0,,,4,America/Managua,FALSE,1558479872
"La Presa","La Presa",,12.2333,-86.6167,Nicaragua,NI,NIC,León,Leon,NI-LE,department,,61.7,,,4,America/Managua,FALSE,1558040755
"Los Limones","Los Limones",,12.2913,-84.5315,Nicaragua,NI,NIC,"Costa Caribe Sur","Costa Caribe Sur",NI-AS,"autonomous region",,17.2,,,4,America/Managua,FALSE,1558615738
Saguatepe,Saguatepe,Sagua|Zaguatepe,12.5173,-85.6498,Nicaragua,NI,NIC,Boaco,Boaco,NI-BO,department,,52.9,,,4,America/Managua,FALSE,1558342135
"Tierra Blanca","Tierra Blanca",,11.5588,-85.8991,Nicaragua,NI,NIC,Rivas,Rivas,NI-RI,department,,90.8,,,4,America/Managua,FALSE,1558732392
"El Tuma","El Tuma",Tuma,13.0620,-85.7449,Nicaragua,NI,NIC,Matagalpa,Matagalpa,NI-MT,department,,127.7,,,4,America/Managua,FALSE,1558137532
"El Salvador","El Salvador",Salvador,12.7167,-87.3333,Nicaragua,NI,NIC,Chinandega,Chinandega,NI-CI,department,,70.2,,,4,America/Managua,FALSE,1558943286
"Santa Bárbara","Santa Barbara",,13.8170,-86.2039,Nicaragua,NI,NIC,"Nueva Segovia","Nueva Segovia",NI-NS,department,,124.8,,,4,America/Managua,FALSE,1558100545
"Casa Sola","Casa Sola",,14.3621,-83.6572,Nicaragua,NI,NIC,"Costa Caribe Norte","Costa Caribe Norte",NI-AN,"autonomous region",,23.6,,,4,America/Managua,FALSE,1558153680
"El Puente","El Puente",,12.8602,-87.5628,Nicaragua,NI,NIC,Chinandega,Chinandega,NI-CI,department,,70.2,,,4,America/Managua,FALSE,1558518946
Medina,Medina,,11.7185,-86.0880,Nicaragua,NI,NIC,Carazo,Carazo,NI-CA,department,,98.3,,,4,America/Managua,FALSE,1558416218
Chuslí,Chusli,,13.9558,-86.1123,Nicaragua,NI,NIC,"Nueva Segovia","Nueva Segovia",NI-NS,department,,124.8,,,4,America/Managua,FALSE,1558295272
Buenavista,Buenavista,,11.7063,-86.2127,Nicaragua,NI,NIC,Carazo,Carazo,NI-CA,department,,44.5,,,4,America/Managua,FALSE,1558433362
"San Jacinto","San Jacinto",,11.7327,-86.3117,Nicaragua,NI,NIC,Carazo,Carazo,NI-CA,department,,193.3,,,4,America/Managua,FALSE,1558933962
"Desmotadora Las Brasiles","Desmotadora Las Brasiles",,12.1924,-86.3703,Nicaragua,NI,NIC,Managua,Managua,NI-MN,department,,202.3,,,3,America/Managua,FALSE,1558584852
Kilambé,Kilambe,"El Zapote",13.5500,-85.7833,Nicaragua,NI,NIC,Jinotega,Jinotega,NI-JI,department,,42.0,,,4,America/Managua,FALSE,1558650252
Isnawás,Isnawas,Isnahuas,13.8012,-83.7464,Nicaragua,NI,NIC,"Costa Caribe Norte","Costa Caribe Norte",NI-AN,"autonomous region",,23.6,,,4,America/Managua,FALSE,1558991037
"El Papalote","El Papalote",,12.2961,-86.0569,Nicaragua,NI,NIC,Managua,Managua,NI-MN,department,,142.5,,,4,America/Managua,FALSE,1558768968
"San Martín","San Martin",,11.3554,-85.7995,Nicaragua,NI,NIC,Rivas,Rivas,NI-RI,department,,163.6,,,4,America/Managua,FALSE,1558072168
"San Martín","San Martin",,11.5583,-85.8310,Nicaragua,NI,NIC,Rivas,Rivas,NI-RI,department,,98.0,,,4,America/Managua,TRUE,1558424151
"San Martín","San Martin",,11.4778,-86.1399,Nicaragua,NI,NIC,Rivas,Rivas,NI-RI,department,,53.6,,,4,America/Managua,TRUE,1558933934
"San Antonio del Condadillo","San Antonio del Condadillo",,12.7521,-86.4499,Nicaragua,NI,NIC,León,Leon,NI-LE,department,,44.3,,,4,America/Managua,FALSE,1558815556
Kuakuil,Kuakuil,Quaquel|Olanceri|Olankeri,14.2107,-83.5190,Nicaragua,NI,NIC,"Costa Caribe Norte","Costa Caribe Norte",NI-AN,"autonomous region",,23.6,,,4,America/Managua,FALSE,1558626453
Castillo,Castillo,,12.3500,-86.8000,Nicaragua,NI,NIC,León,Leon,NI-LE,department,,240.6,,,3,America/Managua,FALSE,1558967722
"Agua Clara","Agua Clara",,13.9667,-84.5167,Nicaragua,NI,NIC,"Costa Caribe Norte","Costa Caribe Norte",NI-AN,"autonomous region",,19.1,,,4,America/Managua,FALSE,1558708635
"Las Tinajas","Las Tinajas",,12.3177,-86.1685,Nicaragua,NI,NIC,Managua,Managua,NI-MN,department,,15.8,,,4,America/Managua,FALSE,1558583539
"Valle Guadalupe","Valle Guadalupe",,11.0057,-85.0484,Nicaragua,NI,NIC,"Río San Juan","Rio San Juan",NI-SJ,department,,37.9,,,4,America/Managua,FALSE,1558705980
"El Coyotar","El Coyotar",,11.7346,-86.3465,Nicaragua,NI,NIC,Carazo,Carazo,NI-CA,department,,193.3,,,4,America/Managua,FALSE,1558039374
"El Caracol","El Caracol",,12.8217,-85.9909,Nicaragua,NI,NIC,Matagalpa,Matagalpa,NI-MT,department,,155.7,,,4,America/Managua,FALSE,1558200391
Cuascoto,Cuascoto,,11.4818,-86.0219,Nicaragua,NI,NIC,Rivas,Rivas,NI-RI,department,,53.6,,,4,America/Managua,FALSE,1558162211
"Santa Inés","Santa Ines","Santa Inez",12.3931,-85.6225,Nicaragua,NI,NIC,Boaco,Boaco,NI-BO,department,,52.9,,,4,America/Managua,FALSE,1558019785
Salinas,Salinas,"Las Salinas",11.4757,-86.1043,Nicaragua,NI,NIC,Rivas,Rivas,NI-RI,department,,53.6,,,4,America/Managua,FALSE,1558805368
Labú,Labu,,13.5609,-84.9334,Nicaragua,NI,NIC,"Costa Caribe Norte","Costa Caribe Norte",NI-AN,"autonomous region",,31.7,,,4,America/Managua,FALSE,1558277457
"La Chilamita","La Chilamita",,12.6175,-87.2993,Nicaragua,NI,NIC,Chinandega,Chinandega,NI-CI,department,,70.2,,,4,America/Managua,FALSE,1558260550
"La Zopilota","La Zopilota",,11.8489,-86.5173,Nicaragua,NI,NIC,Managua,Managua,NI-MN,department,,146.5,,,4,America/Managua,FALSE,1558176403
"Las Lomas","Las Lomas",,12.5877,-86.5054,Nicaragua,NI,NIC,León,Leon,NI-LE,department,,33.7,,,4,America/Managua,FALSE,1558546942
Sotacaballo,Sotacaballo,,11.2292,-85.6563,Nicaragua,NI,NIC,Rivas,Rivas,NI-RI,department,,53.9,,,4,America/Managua,FALSE,1558187282
"El Venado","El Venado",,12.6838,-85.1817,Nicaragua,NI,NIC,Matagalpa,Matagalpa,NI-MT,department,,29.4,,,4,America/Managua,FALSE,1558927004
"El Gallo","El Gallo",,11.9355,-85.4166,Nicaragua,NI,NIC,Chontales,Chontales,NI-CO,department,,86.0,,,4,America/Managua,FALSE,1558874390
"El Tamarindo","El Tamarindo",,12.2373,-86.7233,Nicaragua,NI,NIC,León,Leon,NI-LE,department,,49.0,,,4,America/Managua,FALSE,1558899995
"San Jacinto","San Jacinto",,12.3400,-86.0207,Nicaragua,NI,NIC,Managua,Managua,NI-MN,department,,142.5,,,4,America/Managua,FALSE,1558943918
"Valle el Ojochal","Valle el Ojochal",,12.5833,-86.7167,Nicaragua,NI,NIC,León,Leon,NI-LE,department,,36.0,,,4,America/Managua,FALSE,1558057372
"Santa Isabel","Santa Isabel",,12.5229,-85.5190,Nicaragua,NI,NIC,Boaco,Boaco,NI-BO,department,,52.9,,,4,America/Managua,FALSE,1558196920
"Santa Isabel","Santa Isabel",,12.0936,-85.6682,Nicaragua,NI,NIC,Boaco,Boaco,NI-BO,department,,35.5,,,4,America/Managua,TRUE,1558639263
"Torre Cinco","Torre Cinco",,14.5500,-83.7167,Nicaragua,NI,NIC,"Costa Caribe Norte","Costa Caribe Norte",NI-AN,"autonomous region",,12.1,,,4,America/Managua,FALSE,1558656491
"El Portón","El Porton",,11.7667,-86.3500,Nicaragua,NI,NIC,Carazo,Carazo,NI-CA,department,,193.3,,,4,America/Managua,FALSE,1558764991
"Las Cabras","Las Cabras",,11.5391,-86.0451,Nicaragua,NI,NIC,Rivas,Rivas,NI-RI,department,,53.6,,,4,America/Managua,FALSE,1558978818
Paloyumpa,Paloyumpa,"La Esperanza",14.6620,-84.4009,Nicaragua,NI,NIC,"Costa Caribe Norte","Costa Caribe Norte",NI-AN,"autonomous region",,1.8,,,5,America/Managua,FALSE,1558948512
"El Apante","El Apante",Apante,11.9655,-86.4907,Nicaragua,NI,NIC,Managua,Managua,NI-MN,department,,58.0,,,4,America/Managua,FALSE,1558298961
"Carril Guásimo","Carril Guasimo",,11.6871,-86.3616,Nicaragua,NI,NIC,Carazo,Carazo,NI-CA,department,,193.3,,,4,America/Managua,FALSE,1558387994
"El Ojochal","El Ojochal",,11.8970,-86.3406,Nicaragua,NI,NIC,Carazo,Carazo,NI-CA,department,,282.7,,,3,America/Managua,FALSE,1558446753
"El Ojochal","El Ojochal",,11.8047,-86.2162,Nicaragua,NI,NIC,Carazo,Carazo,NI-CA,department,,173.8,,,4,America/Managua,TRUE,1558432491
"La Piedra","La Piedra",,11.9009,-85.9877,Nicaragua,NI,NIC,Granada,Granada,NI-GR,department,,193.2,,,4,America/Managua,FALSE,1558738976
Cusirina,Cusirina,,12.3573,-85.7807,Nicaragua,NI,NIC,Boaco,Boaco,NI-BO,department,,56.6,,,4,America/Managua,FALSE,1558604869
"Las Cumbres","Las Cumbres",,11.9990,-86.2951,Nicaragua,NI,NIC,Managua,Managua,NI-MN,department,,66.9,,,4,America/Managua,FALSE,1558375173
"La Guabina","La Guabina",,11.7059,-86.2746,Nicaragua,NI,NIC,Carazo,Carazo,NI-CA,department,,173.8,,,4,America/Managua,FALSE,1558284724
Uhri,Uhri,,14.7704,-83.8369,Nicaragua,NI,NIC,"Costa Caribe Norte","Costa Caribe Norte",NI-AN,"autonomous region",,8.5,,,5,America/Managua,FALSE,1558731425
Alsacia,Alsacia,,12.7552,-86.8962,Nicaragua,NI,NIC,Chinandega,Chinandega,NI-CI,department,,194.6,,,4,America/Managua,FALSE,1558348692
"Los Ángeles","Los Angeles",,12.5381,-86.0489,Nicaragua,NI,NIC,Managua,Managua,NI-MN,department,,142.5,,,4,America/Managua,FALSE,1558838079
"Los Ángeles","Los Angeles",,12.0833,-86.4667,Nicaragua,NI,NIC,Managua,Managua,NI-MN,department,,58.0,,,4,America/Managua,TRUE,1558215605
Kuri,Kuri,,14.5644,-83.5015,Nicaragua,NI,NIC,"Costa Caribe Norte","Costa Caribe Norte",NI-AN,"autonomous region",,23.6,,,4,America/Managua,FALSE,1558023874
"La California","La California",California,11.9214,-86.5159,Nicaragua,NI,NIC,Managua,Managua,NI-MN,department,,58.0,,,4,America/Managua,FALSE,1558421349
Guanacaste,Guanacaste,,12.8399,-86.3200,Nicaragua,NI,NIC,León,Leon,NI-LE,department,,44.5,,,4,America/Managua,FALSE,1558269611
"San Pedro","San Pedro",,13.1153,-86.3287,Nicaragua,NI,NIC,Estelí,Esteli,NI-ES,department,,184.2,,,4,America/Managua,FALSE,1558133580
Tupilapa,Tupilapa,Tupitapa|Veracruz,11.6076,-86.3062,Nicaragua,NI,NIC,Carazo,Carazo,NI-CA,department,,173.8,,,4,America/Managua,FALSE,1558274197
"Las Limas","Las Limas",,12.2357,-83.8420,Nicaragua,NI,NIC,"Costa Caribe Sur","Costa Caribe Sur",NI-AS,"autonomous region",,9.4,,,5,America/Managua,FALSE,1558581948
"Buena Vista","Buena Vista",,12.0543,-85.6139,Nicaragua,NI,NIC,Boaco,Boaco,NI-BO,department,,20.2,,,4,America/Managua,FALSE,1558957873
"Sabana Grande","Sabana Grande",,13.1897,-86.1110,Nicaragua,NI,NIC,Jinotega,Jinotega,NI-JI,department,,104.9,,,4,America/Managua,FALSE,1558690266
"La Cuesta de Apatite","La Cuesta de Apatite",,12.8167,-85.7500,Nicaragua,NI,NIC,Matagalpa,Matagalpa,NI-MT,department,,297.6,,,3,America/Managua,FALSE,1558670350
