city,city_ascii,city_alt,lat,lng,country,iso2,iso3,admin_name,admin_name_ascii,admin_code,admin_type,capital,density,population,population_proper,ranking,timezone,same_name,id
"Panama City","Panama City","Panamá|Ciudad de Panamá",8.9833,-79.5167,Panama,PA,PAN,Panamá,Panama,PA-8,province,primary,3202.5,1500189,880691,1,America/Panama,FALSE,1591672475
"San Miguelito","San Miguelito","San Miguel",9.0330,-79.5000,Panama,PA,PAN,Panamá,Panama,PA-8,province,minor,6287.8,315019,315019,2,America/Panama,FALSE,1591394184
David,David,"Ciudad de David",8.4333,-82.4333,Panama,PA,PAN,Chiriquí,Chiriqui,PA-4,province,admin,471.1,82907,82907,2,America/Panama,FALSE,1591487342
Colón,Colon,"Aspinwall|Ciudad de Colón",9.3572,-79.8986,Panama,PA,PAN,Colón,Colon,PA-3,province,admin,8462.0,78000,78000,2,America/Panama,FALSE,1591599922
Tocumen,Tocumen,,9.0800,-79.3800,Panama,PA,PAN,Panamá,Panama,PA-8,province,minor,1173.9,74952,74952,3,America/Panama,FALSE,1591862635
"La Chorrera","La Chorrera",Chorrera,8.8792,-79.7822,Panama,PA,PAN,"Panamá Oeste","Panama Oeste",PA-10,province,admin,3035.1,68896,68896,2,America/Panama,FALSE,1591982720
"Balboa Heights","Balboa Heights",,8.9500,-79.5500,Panama,PA,PAN,Panamá,Panama,PA-8,province,,482.9,62882,62882,3,America/Panama,FALSE,1591234164
Chilibre,Chilibre,,9.1500,-79.6200,Panama,PA,PAN,Panamá,Panama,PA-8,province,minor,58.4,53955,53955,3,America/Panama,FALSE,1591081204
Pacora,Pacora,,9.0800,-79.2800,Panama,PA,PAN,Panamá,Panama,PA-8,province,minor,131.4,52494,52494,3,America/Panama,FALSE,1591023850
Aguadulce,Aguadulce,,8.2400,-80.5400,Panama,PA,PAN,Coclé,Cocle,PA-2,province,minor,215.5,51668,51668,3,America/Panama,FALSE,1591589017
Chitré,Chitre,,7.9667,-80.4333,Panama,PA,PAN,Herrera,Herrera,PA-6,province,admin,1080.8,46191,46191,2,America/Panama,FALSE,1591257375
Santiago,Santiago,,8.1004,-80.9833,Panama,PA,PAN,Veraguas,Veraguas,PA-9,province,admin,1036.4,45955,45955,2,America/Panama,FALSE,1591231138
"Alcalde Díaz","Alcalde Diaz",Peñoncito|Alcaldedíaz,9.1200,-79.5500,Panama,PA,PAN,Panamá,Panama,PA-8,province,minor,897.3,41292,41292,3,America/Panama,FALSE,1591462898
Arraiján,Arraijan,,8.9500,-79.6500,Panama,PA,PAN,"Panamá Oeste","Panama Oeste",PA-10,province,minor,626.8,41041,41041,3,America/Panama,FALSE,1591458943
Cativá,Cativa,Catival,9.3600,-79.8400,Panama,PA,PAN,Colón,Colon,PA-3,province,minor,1494.5,34558,34558,3,America/Panama,FALSE,1591118642
Kusapín,Kusapin,Cusapín,9.1800,-81.8900,Panama,PA,PAN,Ngäbe-Buglé,Ngabe-Bugle,PA-NB,"indigenous region",minor,214.3,33121,33121,3,America/Panama,FALSE,1591073084
Changuinola,Changuinola,,9.4333,-82.5167,Panama,PA,PAN,"Bocas del Toro","Bocas del Toro",PA-1,province,minor,322.9,31223,31223,3,America/Panama,FALSE,1591849136
Ancón,Ancon,,8.9700,-79.5500,Panama,PA,PAN,Panamá,Panama,PA-8,province,minor,145.5,29761,29761,3,America/Panama,FALSE,1591827249
"Nuevo Arraiján","Nuevo Arraijan","Nueva Arraiján",8.9200,-79.7200,Panama,PA,PAN,"Panamá Oeste","Panama Oeste",PA-10,province,minor,1112.1,26298,26298,3,America/Panama,FALSE,1591824667
Penonomé,Penonome,,8.5187,-80.3553,Panama,PA,PAN,Coclé,Cocle,PA-2,province,admin,410.7,21748,21748,2,America/Panama,FALSE,1591602960
Chepo,Chepo,,9.1700,-79.1000,Panama,PA,PAN,Panamá,Panama,PA-8,province,minor,46.6,20420,20420,3,America/Panama,FALSE,1591679968
"Puerto Armuelles","Puerto Armuelles","Armuelles|Rabo de Puerco",8.2833,-82.8667,Panama,PA,PAN,Chiriquí,Chiriqui,PA-4,province,minor,88.8,19763,19763,3,America/Panama,FALSE,1591562054
"El Coco","El Coco",Coco,8.8834,-79.8332,Panama,PA,PAN,"Panamá Oeste","Panama Oeste",PA-10,province,minor,1410.3,19603,19603,3,America/Panama,FALSE,1591500996
Sabanitas,Sabanitas,Sabanita,9.3400,-79.8000,Panama,PA,PAN,Colón,Colon,PA-3,province,minor,1646.2,19052,19052,3,America/Panama,FALSE,1591407052
"Bajo Boquete","Bajo Boquete",Boquete,8.7800,-82.4400,Panama,PA,PAN,Chiriquí,Chiriqui,PA-4,province,minor,43.76,19000,19000,3,America/Panama,FALSE,1591141139
"Puerto Caimito","Puerto Caimito","Puerto de la Chorrera|Chorrera Landing|Port of La Chorrera|Puerto Chorrera|Puerto de Chorrera",8.8700,-79.7200,Panama,PA,PAN,"Panamá Oeste","Panama Oeste",PA-10,province,minor,535.6,16951,16951,3,America/Panama,FALSE,1591589350
"Puerto Pilón","Puerto Pilon",,9.3600,-79.7900,Panama,PA,PAN,Colón,Colon,PA-3,province,minor,165.8,16517,16517,3,America/Panama,FALSE,1591571377
"Bocas del Toro","Bocas del Toro",,9.3333,-82.2500,Panama,PA,PAN,"Bocas del Toro","Bocas del Toro",PA-1,province,admin,109.5,12996,12996,2,America/Panama,FALSE,1591037947
Almirante,Almirante,,9.3000,-82.4000,Panama,PA,PAN,"Bocas del Toro","Bocas del Toro",PA-1,province,minor,133.5,12731,12731,3,America/Panama,FALSE,1591293829
"Paso Canoas","Paso Canoas","Canoa Arriba|Paso de Canoa|Paso Canoas Internacional",8.5333,-82.8333,Panama,PA,PAN,Chiriquí,Chiriqui,PA-4,province,,177.5,9543,9543,3,America/Panama,FALSE,1591880725
"Las Tablas","Las Tablas",,7.7667,-80.2833,Panama,PA,PAN,"Los Santos","Los Santos",PA-7,province,admin,13.3,9255,9255,2,America/Panama,FALSE,1591472114
Guabito,Guabito,,9.4949,-82.6117,Panama,PA,PAN,"Bocas del Toro","Bocas del Toro",PA-1,province,minor,49.7,8387,8387,3,America/Panama,FALSE,1591317249
Metetí,Meteti,Metety,8.5000,-77.9700,Panama,PA,PAN,Darién,Darien,PA-5,province,minor,9.2,7976,7976,3,America/Panama,FALSE,1591738495
Ocú,Ocu,,7.9400,-80.7800,Panama,PA,PAN,Herrera,Herrera,PA-6,province,minor,57.6,7006,7006,3,America/Panama,FALSE,1591769499
"Santa Fé","Santa Fe",,8.6564,-78.1483,Panama,PA,PAN,Darién,Darien,PA-5,province,minor,11.3,6923,6923,3,America/Panama,FALSE,1591966050
Natá,Nata,,8.3300,-80.5200,Panama,PA,PAN,Coclé,Cocle,PA-2,province,minor,34.4,6003,6003,3,America/Panama,FALSE,1591028958
"Río Sereno","Rio Sereno",Sereno,8.8200,-82.8600,Panama,PA,PAN,Chiriquí,Chiriqui,PA-4,province,minor,65.7,5463,5463,3,America/Panama,FALSE,1591017489
"La Mitra","La Mitra",,8.8400,-79.7900,Panama,PA,PAN,"Panamá Oeste","Panama Oeste",PA-10,province,minor,235.0,5326,5326,3,America/Panama,FALSE,1591443659
Lídice,Lidice,,8.7500,-79.9000,Panama,PA,PAN,"Panamá Oeste","Panama Oeste",PA-10,province,minor,124.5,5307,5307,3,America/Panama,FALSE,1591107541
Capira,Capira,,8.7500,-79.8700,Panama,PA,PAN,"Panamá Oeste","Panama Oeste",PA-10,province,minor,113.5,5181,5181,3,America/Panama,FALSE,1591699371
Pedasí,Pedasi,,7.5333,-80.0333,Panama,PA,PAN,"Los Santos","Los Santos",PA-7,province,minor,12.4,4696,4696,3,America/Panama,FALSE,1591301506
Portobelo,Portobelo,"Portobello|Puerto Bello",9.5544,-79.6550,Panama,PA,PAN,Colón,Colon,PA-3,province,minor,18.6,4559,4559,3,America/Panama,FALSE,1591003598
Guararé,Guarare,,7.8200,-80.2700,Panama,PA,PAN,"Los Santos","Los Santos",PA-7,province,minor,275.4,4524,4524,3,America/Panama,FALSE,1591892939
Yaviza,Yaviza,Yavisa,8.1550,-77.6919,Panama,PA,PAN,Darién,Darien,PA-5,province,minor,11.2,4441,4441,3,America/Panama,FALSE,1591938052
"La Palma","La Palma",,8.4100,-78.1500,Panama,PA,PAN,Darién,Darien,PA-5,province,admin,8.0,4205,4205,2,America/Panama,FALSE,1591177082
"Nueva Gorgona","Nueva Gorgona",Gorgona,8.5500,-79.8700,Panama,PA,PAN,"Panamá Oeste","Panama Oeste",PA-10,province,minor,204.9,4075,4075,3,America/Panama,FALSE,1591660134
"Río Alejandro Arriba","Rio Alejandro Arriba",,9.3736,-79.7886,Panama,PA,PAN,Colón,Colon,PA-3,province,,188.0,4048,4048,4,America/Panama,FALSE,1591964951
Parita,Parita,,8.0000,-80.5100,Panama,PA,PAN,Herrera,Herrera,PA-6,province,minor,34.4,3723,3723,3,America/Panama,FALSE,1591591867
"San Carlos","San Carlos",,8.4800,-79.9494,Panama,PA,PAN,"Panamá Oeste","Panama Oeste",PA-10,province,minor,122.6,3578,3578,3,America/Panama,FALSE,1591254568
"Coclé del Norte","Cocle del Norte",,9.0833,-80.5833,Panama,PA,PAN,Colón,Colon,PA-3,province,minor,3.8,3555,3555,3,America/Panama,FALSE,1591809714
"Santa Fe","Santa Fe","Santa Fé",8.5111,-81.0778,Panama,PA,PAN,Veraguas,Veraguas,PA-9,province,minor,21.0,3047,3047,3,America/Panama,FALSE,1591181571
"Sioguí Abajo","Siogui Abajo",,8.5000,-82.6700,Panama,PA,PAN,Chiriquí,Chiriqui,PA-4,province,,107.3,2982,2982,4,America/Panama,FALSE,1591848429
Macaracas,Macaracas,,7.7300,-80.5400,Panama,PA,PAN,"Los Santos","Los Santos",PA-7,province,minor,80.8,2890,2890,3,America/Panama,FALSE,1591864244
"El Guásimo","El Guasimo",,9.1167,-80.2000,Panama,PA,PAN,Colón,Colon,PA-3,province,,9.8,2843,2843,4,America/Panama,FALSE,1591606472
Ustupu,Ustupu,Ustupo|Yantupo|Usdup,9.1300,-77.9300,Panama,PA,PAN,"Guna Yala","Guna Yala",PA-KY,"indigenous region",,18.8,2802,2802,4,America/Panama,FALSE,1591528485
"Tierra Oscura","Tierra Oscura",,9.1833,-82.2833,Panama,PA,PAN,"Bocas del Toro","Bocas del Toro",PA-1,province,minor,30.0,2661,2661,3,America/Panama,FALSE,1591257306
Pesé,Pese,,7.9000,-80.6100,Panama,PA,PAN,Herrera,Herrera,PA-6,province,minor,447.4,2565,2565,3,America/Panama,FALSE,1591091504
Calobre,Calobre,Colobre,8.3200,-80.8400,Panama,PA,PAN,Veraguas,Veraguas,PA-9,province,minor,29.7,2514,2514,3,America/Panama,FALSE,1591844611
Chame,Chame,,8.5800,-79.8700,Panama,PA,PAN,"Panamá Oeste","Panama Oeste",PA-10,province,minor,78.1,2432,2432,3,America/Panama,FALSE,1591275222
"María Chiquita","Maria Chiquita",,9.4400,-79.7600,Panama,PA,PAN,Colón,Colon,PA-3,province,minor,26.7,2415,2415,3,America/Panama,FALSE,1591687754
"Nuevo Vigía","Nuevo Vigia",Vigia,9.2400,-79.6100,Panama,PA,PAN,Colón,Colon,PA-3,province,,289.0,2411,2411,3,America/Panama,FALSE,1591063890
Escobal,Escobal,,9.1500,-79.9600,Panama,PA,PAN,Colón,Colon,PA-3,province,minor,29.4,2388,2388,3,America/Panama,FALSE,1591772908
Jaqué,Jaque,Jarque|Jagué,7.5181,-78.1625,Panama,PA,PAN,Darién,Darien,PA-5,province,minor,2.3,2386,2386,3,America/Panama,FALSE,1591579329
"Miguel de La Borda","Miguel de La Borda",Donoso,9.1500,-80.3000,Panama,PA,PAN,Colón,Colon,PA-3,province,minor,7.3,2326,2326,3,America/Panama,FALSE,1591221259
Tonosí,Tonosi,,7.4000,-80.4400,Panama,PA,PAN,"Los Santos","Los Santos",PA-7,province,minor,27.0,2257,2257,3,America/Panama,FALSE,1591002871
"Los Pozos","Los Pozos","Los Pozo",7.8000,-80.6333,Panama,PA,PAN,Herrera,Herrera,PA-6,province,minor,37.2,2199,2199,3,America/Panama,FALSE,1591144822
"Santa Rita Arriba","Santa Rita Arriba",,9.3400,-79.7800,Panama,PA,PAN,Colón,Colon,PA-3,province,,341.2,2184,2184,3,America/Panama,FALSE,1591801483
"Quebrada Bonita Adentro","Quebrada Bonita Adentro",,9.3000,-79.7000,Panama,PA,PAN,Colón,Colon,PA-3,province,,141.0,2014,2014,4,America/Panama,FALSE,1591193039
Bastimentos,Bastimentos,,9.3500,-82.2000,Panama,PA,PAN,"Bocas del Toro","Bocas del Toro",PA-1,province,minor,31.4,1954,1954,3,America/Panama,FALSE,1591548375
Garachiné,Garachine,,8.0600,-78.3600,Panama,PA,PAN,Darién,Darien,PA-5,province,minor,10.0,1878,1878,3,America/Panama,FALSE,1591926932
"Churuquita Grande","Churuquita Grande","Churiquita Grande",8.6000,-80.2700,Panama,PA,PAN,Coclé,Cocle,PA-2,province,,103.2,1878,1878,4,America/Panama,FALSE,1591400520
"La Loma","La Loma",,8.1700,-80.6300,Panama,PA,PAN,Coclé,Cocle,PA-2,province,,55.5,1844,1844,3,America/Panama,FALSE,1591594319
"Palmas Bellas","Palmas Bellas",Lagarto,9.2300,-80.0900,Panama,PA,PAN,Colón,Colon,PA-3,province,minor,24.3,1844,1844,3,America/Panama,FALSE,1591882962
Ailigandí,Ailigandi,Ailingandí,9.2278,-78.0278,Panama,PA,PAN,"Guna Yala","Guna Yala",PA-KY,"indigenous region",minor,18.8,1842,1842,3,America/Panama,FALSE,1591901241
"Finca Blanco","Finca Blanco","Blanco|Finca Blanco Número Uno",8.3800,-82.8700,Panama,PA,PAN,Chiriquí,Chiriqui,PA-4,province,minor,96.1,1803,1803,3,America/Panama,FALSE,1591068997
"Llano de Piedra","Llano de Piedra",,7.6700,-80.5700,Panama,PA,PAN,"Los Santos","Los Santos",PA-7,province,minor,17.4,1737,1737,3,America/Panama,FALSE,1591454467
"Punta Laurel","Punta Laurel",,9.1333,-82.1333,Panama,PA,PAN,"Bocas del Toro","Bocas del Toro",PA-1,province,minor,24.0,1730,1730,3,America/Panama,FALSE,1591911123
"Calzada Larga","Calzada Larga","Casa Larga",9.1700,-79.5700,Panama,PA,PAN,Panamá,Panama,PA-8,province,,67.2,1591,1591,4,America/Panama,FALSE,1591996784
"Achutupo Número Dos","Achutupo Numero Dos","Achutupu|Achutupo Número 2|Achutupo|Achutupu",9.1986,-77.9861,Panama,PA,PAN,"Guna Yala","Guna Yala",PA-KY,"indigenous region",,18.8,1586,1586,4,America/Panama,FALSE,1591626920
"Río Congo","Rio Congo",,8.4003,-78.3698,Panama,PA,PAN,Darién,Darien,PA-5,province,,3.2,1540,1540,4,America/Panama,FALSE,1591490103
"Finca Corredor","Finca Corredor",Corredor,8.3500,-82.8500,Panama,PA,PAN,Chiriquí,Chiriqui,PA-4,province,,96.1,1529,1529,4,America/Panama,FALSE,1591653349
Burica,Burica,"Punta de Burica",8.0300,-82.8700,Panama,PA,PAN,Chiriquí,Chiriqui,PA-4,province,,20.7,1516,1516,4,America/Panama,FALSE,1591983498
"Los Lotes","Los Lotes",,9.1300,-79.3000,Panama,PA,PAN,Panamá,Panama,PA-8,province,,92.1,1470,1470,4,America/Panama,FALSE,1591083492
"El Giral","El Giral",Jiral|Giral,9.2500,-79.6900,Panama,PA,PAN,Colón,Colon,PA-3,province,,141.0,1460,1460,4,America/Panama,FALSE,1591004426
Mulatupo,Mulatupo,"Mulatupo Sasardí|Isla Gallinazo|Gallinazo",8.9500,-77.7500,Panama,PA,PAN,"Guna Yala","Guna Yala",PA-KY,"indigenous region",,10.9,1452,1452,4,America/Panama,FALSE,1591644326
"Cerro Cama","Cerro Cama",,9.0300,-79.9100,Panama,PA,PAN,"Panamá Oeste","Panama Oeste",PA-10,province,,26.2,1420,1420,4,America/Panama,FALSE,1591148773
Mamitupo,Mamitupo,Mosquito|Mamiturru,9.1903,-77.9736,Panama,PA,PAN,"Guna Yala","Guna Yala",PA-KY,"indigenous region",,18.8,1417,1417,4,America/Panama,FALSE,1591260833
"Llano Marín","Llano Marin",,8.5000,-80.3300,Panama,PA,PAN,Coclé,Cocle,PA-2,province,,41.1,1408,1408,4,America/Panama,FALSE,1591690988
"Los Pollos","Los Pollos",,8.4071,-80.1568,Panama,PA,PAN,Coclé,Cocle,PA-2,province,,152.0,1405,1405,4,America/Panama,FALSE,1591299099
"Nuevo San Juan","Nuevo San Juan",,9.2200,-79.6600,Panama,PA,PAN,Colón,Colon,PA-3,province,minor,427.0,1373,1373,3,America/Panama,FALSE,1591734623
"Río Rita","Rio Rita",,9.3000,-79.7900,Panama,PA,PAN,Colón,Colon,PA-3,province,,352.2,1355,1355,3,America/Panama,FALSE,1591388258
"Río Duque","Rio Duque",,9.2700,-79.6800,Panama,PA,PAN,Colón,Colon,PA-3,province,,141.0,1300,1300,4,America/Panama,FALSE,1591067072
"Las Guías de Oriente","Las Guias de Oriente","Las Guías",8.4300,-80.0700,Panama,PA,PAN,Coclé,Cocle,PA-2,province,,147.3,1274,1274,4,America/Panama,FALSE,1591542988
"Churuquita Chiquita","Churuquita Chiquita","Churuquita|Chiquita|Churiquita Chiquita",8.5700,-80.2800,Panama,PA,PAN,Coclé,Cocle,PA-2,province,minor,106.4,1273,1273,3,America/Panama,FALSE,1591072735
"Chiriquí Grande","Chiriqui Grande",,8.9500,-82.1200,Panama,PA,PAN,"Bocas del Toro","Bocas del Toro",PA-1,province,minor,45.8,1232,1232,3,America/Panama,FALSE,1591673384
"El Cortezo","El Cortezo",Cortezo,8.3500,-80.6000,Panama,PA,PAN,Coclé,Cocle,PA-2,province,,27.7,1230,1230,4,America/Panama,FALSE,1591219768
"Sioguí Arriba","Siogui Arriba",,8.5300,-82.6800,Panama,PA,PAN,Chiriquí,Chiriqui,PA-4,province,,107.6,1229,1229,4,America/Panama,FALSE,1591209722
"Nuevo Caimitillo","Nuevo Caimitillo",,9.1500,-79.5300,Panama,PA,PAN,Panamá,Panama,PA-8,province,,67.2,1227,1227,4,America/Panama,FALSE,1591772404
Chimán,Chiman,Chimón,8.7200,-78.6200,Panama,PA,PAN,Panamá,Panama,PA-8,province,minor,4.3,1205,1205,3,America/Panama,FALSE,1591257750
"Alto de La Estancia","Alto de La Estancia","Cabecera de Sofre",8.6000,-80.1700,Panama,PA,PAN,Coclé,Cocle,PA-2,province,,106.4,1204,1204,4,America/Panama,FALSE,1591302043
Coclecito,Coclecito,,8.8093,-80.5558,Panama,PA,PAN,Colón,Colon,PA-3,province,minor,19.3,1200,1200,3,America/Panama,FALSE,1591683922
Tucutí,Tucuti,,7.9606,-77.9329,Panama,PA,PAN,Darién,Darien,PA-5,province,minor,0.9,1200,1200,3,America/Panama,FALSE,1591309797
"El Real","El Real","El Real de Santa María|Real de Santa Maria",8.1300,-77.7100,Panama,PA,PAN,Darién,Darien,PA-5,province,minor,9.9,1183,1183,3,America/Panama,FALSE,1591824999
Tubualá,Tubuala,"Twala|Tubualá Número 1|Tubualá Número Uno|Tubualá Número Dos",8.9208,-77.7236,Panama,PA,PAN,"Guna Yala","Guna Yala",PA-KY,"indigenous region",minor,10.9,1183,1183,3,America/Panama,FALSE,1591161860
"Mata del Nance","Mata del Nance",,8.4500,-82.4000,Panama,PA,PAN,Chiriquí,Chiriqui,PA-4,province,,1331.7,1172,1172,3,America/Panama,FALSE,1591316467
"Espino de Santa Rosa","Espino de Santa Rosa","Espino|El Espino de Santa Rosa|El Espino",8.1000,-80.8200,Panama,PA,PAN,Veraguas,Veraguas,PA-9,province,,55.2,1168,1168,4,America/Panama,FALSE,1591350323
"Boca de Cupé","Boca de Cupe","Boca de Cupe",8.0500,-77.5833,Panama,PA,PAN,Darién,Darien,PA-5,province,minor,1.5,1167,1167,3,America/Panama,FALSE,1591872111
"Boca de Parita","Boca de Parita",,8.0200,-80.4500,Panama,PA,PAN,Herrera,Herrera,PA-6,province,,428.2,1167,1167,3,America/Panama,FALSE,1591097375
"Potrerillos Arriba","Potrerillos Arriba",,8.6800,-82.5000,Panama,PA,PAN,Chiriquí,Chiriqui,PA-4,province,minor,30.6,1165,1165,3,America/Panama,FALSE,1591295918
"Los Boquerones","Los Boquerones",Boquerones,8.0800,-80.8500,Panama,PA,PAN,Veraguas,Veraguas,PA-9,province,,171.6,1157,1157,4,America/Panama,FALSE,1591768660
Espavé,Espave,,8.9300,-79.8400,Panama,PA,PAN,"Panamá Oeste","Panama Oeste",PA-10,province,,36.4,1144,1144,4,America/Panama,FALSE,1591707847
"Nombre de Dios","Nombre de Dios",,9.5829,-79.4703,Panama,PA,PAN,Colón,Colon,PA-3,province,minor,7.9,1130,1130,3,America/Panama,FALSE,1591844686
Entradero,Entradero,"El Entradero|El Entradero Marica",8.5700,-80.2200,Panama,PA,PAN,Coclé,Cocle,PA-2,province,,106.4,1121,1121,4,America/Panama,FALSE,1591897946
"Finca Cuarenta y Uno","Finca Cuarenta y Uno","Finca 41",9.4800,-82.6900,Panama,PA,PAN,"Bocas del Toro","Bocas del Toro",PA-1,province,,76.2,1115,1115,4,America/Panama,FALSE,1591450989
"Puerto Piña","Puerto Pina","Santa Dorotea|Puerto Piñas",7.5833,-78.1833,Panama,PA,PAN,Darién,Darien,PA-5,province,minor,3.7,1113,1113,3,America/Panama,FALSE,1591869319
"El Silencio","El Silencio",,9.3800,-82.5300,Panama,PA,PAN,"Bocas del Toro","Bocas del Toro",PA-1,province,,76.3,1101,1101,4,America/Panama,FALSE,1591665789
"Santa Ana Arriba","Santa Ana Arriba",Tembladera,7.9300,-80.3700,Panama,PA,PAN,"Los Santos","Los Santos",PA-7,province,minor,56.9,1097,1097,3,America/Panama,FALSE,1591158977
"La Mata","La Mata",,8.0800,-80.8800,Panama,PA,PAN,Veraguas,Veraguas,PA-9,province,,154.0,1069,1069,4,America/Panama,FALSE,1591659843
Celmira,Celmira,,8.5300,-82.8000,Panama,PA,PAN,Chiriquí,Chiriqui,PA-4,province,,130.2,1058,1058,4,America/Panama,FALSE,1591167338
Berba,Berba,,8.3500,-82.7500,Panama,PA,PAN,Chiriquí,Chiriqui,PA-4,province,,117.9,1050,1050,4,America/Panama,FALSE,1591658390
Coetupo,Coetupo,Caledonia,8.9000,-77.7000,Panama,PA,PAN,"Guna Yala","Guna Yala",PA-KY,"indigenous region",,10.9,1037,1037,4,America/Panama,FALSE,1591316738
Bisira,Bisira,Bisiria|Arteda,8.9000,-81.8600,Panama,PA,PAN,Ngäbe-Buglé,Ngabe-Bugle,PA-NB,"indigenous region",minor,21.7,1019,1019,3,America/Panama,FALSE,1591638908
Gariché,Gariche,,8.4800,-82.7800,Panama,PA,PAN,Chiriquí,Chiriqui,PA-4,province,,130.1,1003,1003,4,America/Panama,FALSE,1591460952
Pocrí,Pocri,Porci,7.7300,-80.1500,Panama,PA,PAN,"Los Santos","Los Santos",PA-7,province,minor,17.4,1002,1002,3,America/Panama,FALSE,1591110471
"El Valle de la Unión","El Valle de la Union","Valle La Unión",9.2400,-79.6600,Panama,PA,PAN,Colón,Colon,PA-3,province,,454.4,990,990,3,America/Panama,FALSE,1591034671
Capetí,Capeti,,8.0800,-77.5800,Panama,PA,PAN,Emberá-Wounaan,Embera-Wounaan,PA-EM,"indigenous region",,0.7,957,957,4,America/Panama,FALSE,1591614863
Sambú,Sambu,,8.0250,-78.2083,Panama,PA,PAN,Darién,Darien,PA-5,province,minor,24.0,931,931,3,America/Panama,FALSE,1591302853
"Cartí Sugdup","Carti Sugdup","Cartí Suitupo|Cartí Sutupo|Suctupo",9.4706,-78.9611,Panama,PA,PAN,"Guna Yala","Guna Yala",PA-KY,"indigenous region",,12.7,927,927,4,America/Panama,FALSE,1591307397
"Río Sidra","Rio Sidra","Río Cidra-Urgandi|Río Cidra|Ciedras Village",9.4519,-78.8325,Panama,PA,PAN,"Guna Yala","Guna Yala",PA-KY,"indigenous region",,12.7,856,856,4,America/Panama,FALSE,1591444636
Kankintú,Kankintu,Canquintú,8.8500,-81.8200,Panama,PA,PAN,Ngäbe-Buglé,Ngabe-Bugle,PA-NB,"indigenous region",minor,33.9,787,787,3,America/Panama,FALSE,1591083121
Ipetí,Ipeti,,8.9700,-78.5100,Panama,PA,PAN,Panamá,Panama,PA-8,province,,10.8,727,727,4,America/Panama,FALSE,1591829331
Icantí,Icanti,"Aguas Claras",9.2100,-78.6800,Panama,PA,PAN,Panamá,Panama,PA-8,province,,2.5,718,718,4,America/Panama,FALSE,1591912158
Chepigana,Chepigana,,8.2842,-78.0414,Panama,PA,PAN,Darién,Darien,PA-5,province,minor,1.8,704,704,3,America/Panama,FALSE,1591780360
Brujas,Brujas,"Punta Bruja",8.5861,-78.5314,Panama,PA,PAN,Panamá,Panama,PA-8,province,minor,4.3,688,688,3,America/Panama,FALSE,1591131560
Mortí,Morti,"Mortí Arriba",8.8500,-77.9200,Panama,PA,PAN,Darién,Darien,PA-5,province,,2.5,589,589,4,America/Panama,TRUE,1591547932
Setegantí,Seteganti,,8.2317,-78.0775,Panama,PA,PAN,Darién,Darien,PA-5,province,minor,5.5,558,558,3,America/Panama,FALSE,1591777797
"Boca de Sábalo","Boca de Sabalo",Sabolo|Sábalo|Sáboli,8.0208,-78.2042,Panama,PA,PAN,Emberá-Wounaan,Embera-Wounaan,PA-EM,"indigenous region",minor,3.9,527,527,3,America/Panama,FALSE,1591452965
"Nuevo Chagres","Nuevo Chagres",,9.2361,-80.0861,Panama,PA,PAN,Colón,Colon,PA-3,province,minor,85.1,499,499,3,America/Panama,FALSE,1591249855
Cuango,Cuango,,9.5667,-79.3167,Panama,PA,PAN,Colón,Colon,PA-3,province,minor,11.7,442,442,3,America/Panama,FALSE,1591560574
Buabidi,Buabidi,"Llano Tugrí|Buäbti",8.4667,-81.7000,Panama,PA,PAN,Ngäbe-Buglé,Ngabe-Bugle,PA-NB,"indigenous region",admin,36.9,420,420,2,America/Panama,FALSE,1591495919
Palmira,Palmira,Culebra,9.5474,-79.2149,Panama,PA,PAN,Colón,Colon,PA-3,province,minor,1.8,319,319,3,America/Panama,FALSE,1591835103
"Santa Isabel","Santa Isabel",,9.5333,-79.1833,Panama,PA,PAN,Colón,Colon,PA-3,province,minor,2.2,284,284,3,America/Panama,FALSE,1591445033
Yape,Yape,,8.1006,-77.5964,Panama,PA,PAN,Emberá-Wounaan,Embera-Wounaan,PA-EM,"indigenous region",minor,0.3,187,187,3,America/Panama,FALSE,1591301922
"Playa Chiquita","Playa Chiquita",,9.5667,-79.2833,Panama,PA,PAN,Colón,Colon,PA-3,province,minor,1.4,169,169,3,America/Panama,FALSE,1591663107
"Gonzalo Vásquez","Gonzalo Vasquez",,8.4167,-78.4500,Panama,PA,PAN,Panamá,Panama,PA-8,province,minor,2.2,91,91,3,America/Panama,FALSE,1591684735
Gaigirgordub,Gaigirgordub,"El Porvenir",9.5586,-78.9484,Panama,PA,PAN,"Guna Yala","Guna Yala",PA-KY,"indigenous region",admin,12.7,10,10,2,America/Panama,FALSE,1591425685
"El Llano","El Llano",,8.2537,-81.5836,Panama,PA,PAN,Chiriquí,Chiriqui,PA-4,province,,85.2,,,4,America/Panama,FALSE,1591367628
Tucuecito,Tucuecito,,8.6907,-80.3421,Panama,PA,PAN,Coclé,Cocle,PA-2,province,,28.1,,,4,America/Panama,FALSE,1591199172
"El Llano","El Llano",,8.4000,-80.1500,Panama,PA,PAN,Coclé,Cocle,PA-2,province,,125.0,,,4,America/Panama,FALSE,1591547321
"El Llano","El Llano",,8.1154,-80.9712,Panama,PA,PAN,Veraguas,Veraguas,PA-9,province,,1036.4,,,3,America/Panama,FALSE,1591000953
"El Llano","El Llano",,9.2120,-78.9592,Panama,PA,PAN,Panamá,Panama,PA-8,province,minor,8.2,,,3,America/Panama,FALSE,1591863112
"El Gallo","El Gallo",,8.0632,-81.4286,Panama,PA,PAN,Veraguas,Veraguas,PA-9,province,,21.1,,,4,America/Panama,FALSE,1591001960
"El Gallo","El Gallo",,8.5060,-81.0346,Panama,PA,PAN,Veraguas,Veraguas,PA-9,province,,9.3,,,5,America/Panama,TRUE,1591001961
"El Gallo","El Gallo",,7.7200,-80.7116,Panama,PA,PAN,Herrera,Herrera,PA-6,province,,20.3,,,4,America/Panama,FALSE,1591332697
Cuirate,Cuirate,,8.7309,-81.6043,Panama,PA,PAN,Ngäbe-Buglé,Ngabe-Bugle,PA-NB,"indigenous region",,9.6,,,5,America/Panama,FALSE,1591002576
"El Gallo","El Gallo",,9.1940,-80.0420,Panama,PA,PAN,Colón,Colon,PA-3,province,,15.7,,,4,America/Panama,FALSE,1591001963
"Palo Alto","Palo Alto","Pala Alto|Los Muñoces",8.1175,-81.1295,Panama,PA,PAN,Veraguas,Veraguas,PA-9,province,,15.3,,,4,America/Panama,FALSE,1591399719
"Palo Alto","Palo Alto",,7.9951,-81.3634,Panama,PA,PAN,Veraguas,Veraguas,PA-9,province,,9.0,,,5,America/Panama,TRUE,1591859005
"Palo Alto","Palo Alto",,7.7134,-80.9155,Panama,PA,PAN,Veraguas,Veraguas,PA-9,province,,6.4,,,5,America/Panama,TRUE,1591003727
"Playa Colorada","Playa Colorada",,7.8325,-80.2358,Panama,PA,PAN,"Los Santos","Los Santos",PA-7,province,,66.7,,,4,America/Panama,FALSE,1591002750
"Llano de Los Osorios","Llano de Los Osorios",,7.6750,-80.5716,Panama,PA,PAN,"Los Santos","Los Santos",PA-7,province,,19.7,,,4,America/Panama,FALSE,1591001797
"Playa Colorada","Playa Colorada","Colorado Beach",9.5667,-79.0833,Panama,PA,PAN,Colón,Colon,PA-3,province,,10.7,,,4,America/Panama,FALSE,1591581233
"Clarita Centro","Clarita Centro",,8.9073,-78.1475,Panama,PA,PAN,Darién,Darien,PA-5,province,,12.5,,,4,America/Panama,FALSE,1591004615
"La Sardina","La Sardina",,8.9325,-80.1525,Panama,PA,PAN,Coclé,Cocle,PA-2,province,,19.0,,,4,America/Panama,FALSE,1591928765
"Palo Alto","Palo Alto",,8.8015,-82.4245,Panama,PA,PAN,Chiriquí,Chiriqui,PA-4,province,,37.9,,,4,America/Panama,FALSE,1591515973
"La Quisama","La Quisama",Cañazosa,7.9000,-80.9167,Panama,PA,PAN,Herrera,Herrera,PA-6,province,,12.8,,,4,America/Panama,FALSE,1591587293
Tulusón,Tuluson,,8.7766,-80.4462,Panama,PA,PAN,Coclé,Cocle,PA-2,province,,19.3,,,4,America/Panama,FALSE,1591002823
"Entrada de Jesús","Entrada de Jesus",,7.4499,-80.5027,Panama,PA,PAN,"Los Santos","Los Santos",PA-7,province,,12.3,,,4,America/Panama,FALSE,1591003582
"Matías Hernández","Matias Hernandez",,9.0333,-79.4833,Panama,PA,PAN,Panamá,Panama,PA-8,province,,4822.7,,,2,America/Panama,FALSE,1591419500
Gobrante,Gobrante,,8.8307,-81.8065,Panama,PA,PAN,Ngäbe-Buglé,Ngabe-Bugle,PA-NB,"indigenous region",,33.9,,,4,America/Panama,FALSE,1591278947
"Quebrada Llana","Quebrada Llana",,8.4687,-81.3266,Panama,PA,PAN,Veraguas,Veraguas,PA-9,province,,17.5,,,4,America/Panama,FALSE,1591319093
"Quebrada Llana","Quebrada Llana",,8.7424,-80.8876,Panama,PA,PAN,Veraguas,Veraguas,PA-9,province,,4.2,,,5,America/Panama,TRUE,1591003740
"El Hinojal Arriba","El Hinojal Arriba",,8.9552,-80.1241,Panama,PA,PAN,"Panamá Oeste","Panama Oeste",PA-10,province,,27.8,,,4,America/Panama,FALSE,1591004999
"Peñita de Los Uveros","Penita de Los Uveros",,8.5274,-80.3854,Panama,PA,PAN,Coclé,Cocle,PA-2,province,,98.6,,,4,America/Panama,FALSE,1591002219
"Quebrada Boca de Macho","Quebrada Boca de Macho",,8.7218,-81.9773,Panama,PA,PAN,Ngäbe-Buglé,Ngabe-Bugle,PA-NB,"indigenous region",,13.8,,,4,America/Panama,FALSE,1591003098
"Los Potreritos","Los Potreritos",,8.5766,-80.5829,Panama,PA,PAN,Coclé,Cocle,PA-2,province,,26.0,,,4,America/Panama,FALSE,1591003085
"El Suay","El Suay",,7.4232,-80.6139,Panama,PA,PAN,"Los Santos","Los Santos",PA-7,province,,8.4,,,5,America/Panama,FALSE,1591306079
"Los Árboles Panes","Los Arboles Panes",,8.4091,-82.7095,Panama,PA,PAN,Chiriquí,Chiriqui,PA-4,province,,44.9,,,4,America/Panama,FALSE,1591000173
"Finca Higuerón","Finca Higueron",Higuerón,8.4065,-82.8864,Panama,PA,PAN,Chiriquí,Chiriqui,PA-4,province,,96.1,,,4,America/Panama,FALSE,1591000082
"Los Uveros Arriba","Los Uveros Arriba",,8.9405,-80.1265,Panama,PA,PAN,"Panamá Oeste","Panama Oeste",PA-10,province,,27.8,,,4,America/Panama,FALSE,1591004940
Acuatupo,Acuatupo,"Acuatupo No. 1|Acuatupo Número Uno",9.4536,-79.0024,Panama,PA,PAN,"Guna Yala","Guna Yala",PA-KY,"indigenous region",,12.7,,,4,America/Panama,FALSE,1591596993
Tinajones,Tinajones,"El Cutarro|Nuevo Limón|Los Tinajones",9.0528,-79.8817,Panama,PA,PAN,"Panamá Oeste","Panama Oeste",PA-10,province,,26.0,,,4,America/Panama,FALSE,1591048392
"Majé Arriba","Maje Arriba",,8.8333,-78.5167,Panama,PA,PAN,Panamá,Panama,PA-8,province,,10.8,,,4,America/Panama,FALSE,1591367520
"Los Martínez Número Dos","Los Martinez Numero Dos","Los Martínez Número 2",8.0662,-81.1146,Panama,PA,PAN,Veraguas,Veraguas,PA-9,province,,24.6,,,4,America/Panama,FALSE,1591003461
"Las Cañazas","Las Canazas",,7.6978,-80.1904,Panama,PA,PAN,"Los Santos","Los Santos",PA-7,province,,105.7,,,4,America/Panama,FALSE,1591097550
Calobre,Calobre,,9.1500,-78.9500,Panama,PA,PAN,Panamá,Panama,PA-8,province,,8.2,,,5,America/Panama,FALSE,1591443818
"Cedro Abajo","Cedro Abajo",,7.7755,-80.4981,Panama,PA,PAN,"Los Santos","Los Santos",PA-7,province,,37.0,,,4,America/Panama,FALSE,1591275231
"Coquillo Arriba","Coquillo Arriba","El Coquillo Arriba",8.9011,-80.1819,Panama,PA,PAN,Coclé,Cocle,PA-2,province,,19.0,,,4,America/Panama,FALSE,1591943001
"Loma de Agua Fría","Loma de Agua Fria",,8.6227,-80.6185,Panama,PA,PAN,Coclé,Cocle,PA-2,province,,27.4,,,4,America/Panama,FALSE,1591002614
"Llano Afuera","Llano Afuera",,7.7430,-80.2718,Panama,PA,PAN,"Los Santos","Los Santos",PA-7,province,,322.9,,,3,America/Panama,FALSE,1591617301
"Las Cañazas","Las Canazas",,9.1584,-79.3528,Panama,PA,PAN,Panamá,Panama,PA-8,province,,163.4,,,4,America/Panama,FALSE,1591004436
"El Calabacito","El Calabacito","El Calabacitos",8.6000,-80.0167,Panama,PA,PAN,"Panamá Oeste","Panama Oeste",PA-10,province,,24.5,,,4,America/Panama,FALSE,1591613422
"San Agustín","San Agustin",,8.9500,-79.6667,Panama,PA,PAN,"Panamá Oeste","Panama Oeste",PA-10,province,,939.4,,,3,America/Panama,FALSE,1591622365
"Bernardino Arriba","Bernardino Arriba","Entrada Bernardino",8.9821,-79.7540,Panama,PA,PAN,"Panamá Oeste","Panama Oeste",PA-10,province,,42.2,,,4,America/Panama,FALSE,1591883409
"Quebrada Quenani","Quebrada Quenani",,9.0087,-81.7218,Panama,PA,PAN,Ngäbe-Buglé,Ngabe-Bugle,PA-NB,"indigenous region",,35.3,,,4,America/Panama,FALSE,1591000792
Candelaria,Candelaria,,8.7940,-81.1809,Panama,PA,PAN,Veraguas,Veraguas,PA-9,province,,4.2,,,5,America/Panama,FALSE,1591000607
"Hato Común","Hato Comun",,8.5512,-81.5577,Panama,PA,PAN,Ngäbe-Buglé,Ngabe-Bugle,PA-NB,"indigenous region",,18.5,,,4,America/Panama,FALSE,1591000322
"Entrada a Playa Lajas","Entrada a Playa Lajas",,8.1789,-81.8679,Panama,PA,PAN,Chiriquí,Chiriqui,PA-4,province,,28.7,,,4,America/Panama,FALSE,1591003721
Guameru,Guameru,,9.4847,-82.6205,Panama,PA,PAN,"Bocas del Toro","Bocas del Toro",PA-1,province,,76.2,,,4,America/Panama,FALSE,1591003674
"Punta Quemada","Punta Quemada",,8.4670,-78.2158,Panama,PA,PAN,Darién,Darien,PA-5,province,,9.5,,,5,America/Panama,FALSE,1591004352
"Alto de los Monos","Alto de los Monos",,7.9667,-81.4333,Panama,PA,PAN,Veraguas,Veraguas,PA-9,province,,10.2,,,4,America/Panama,FALSE,1591445746
"Llano Mirador","Llano Mirador",,8.4219,-80.2781,Panama,PA,PAN,Coclé,Cocle,PA-2,province,,42.0,,,4,America/Panama,FALSE,1591001318
"Bubí Abajo","Bubi Abajo",,7.9457,-81.4947,Panama,PA,PAN,Veraguas,Veraguas,PA-9,province,,5.4,,,5,America/Panama,FALSE,1591145489
"Jobo Dulce","Jobo Dulce",,8.6167,-80.0333,Panama,PA,PAN,"Panamá Oeste","Panama Oeste",PA-10,province,,24.5,,,4,America/Panama,FALSE,1591173712
"Isla Carenero","Isla Carenero",Carenero,9.3396,-82.2365,Panama,PA,PAN,"Bocas del Toro","Bocas del Toro",PA-1,province,,164.5,,,4,America/Panama,FALSE,1591641535
"Isla Pino","Isla Pino","Tupak|Pinos|Isla de Pino",9.0019,-77.7642,Panama,PA,PAN,"Guna Yala","Guna Yala",PA-KY,"indigenous region",,10.9,,,4,America/Panama,FALSE,1591311645
"Isla Cuba","Isla Cuba",Kuba|Cuba,8.9167,-77.7166,Panama,PA,PAN,"Guna Yala","Guna Yala",PA-KY,"indigenous region",,10.9,,,4,America/Panama,FALSE,1591827415
"Río Cañazas","Rio Canazas",,8.3471,-81.2395,Panama,PA,PAN,Veraguas,Veraguas,PA-9,province,,59.9,,,4,America/Panama,FALSE,1591950897
"Bajo Largo","Bajo Largo",,7.5616,-81.1865,Panama,PA,PAN,Veraguas,Veraguas,PA-9,province,,0.5,,,5,America/Panama,FALSE,1591001703
"El Palmarito","El Palmarito",,8.4923,-81.0153,Panama,PA,PAN,Veraguas,Veraguas,PA-9,province,,9.3,,,5,America/Panama,FALSE,1591889295
Capitana,Capitana,,7.8138,-77.8269,Panama,PA,PAN,Darién,Darien,PA-5,province,,1.0,,,5,America/Panama,FALSE,1591004861
"Bajo Largo","Bajo Largo",,8.6980,-82.2858,Panama,PA,PAN,Chiriquí,Chiriqui,PA-4,province,,8.8,,,5,America/Panama,FALSE,1591990344
"San Roque","San Roque",,8.2754,-80.9949,Panama,PA,PAN,Veraguas,Veraguas,PA-9,province,,45.7,,,4,America/Panama,FALSE,1591424383
"El Rincón de San Pablo","El Rincon de San Pablo","San Pablo|El Rincón San Pablo",8.1733,-81.2583,Panama,PA,PAN,Veraguas,Veraguas,PA-9,province,,26.3,,,4,America/Panama,FALSE,1591422652
"Hato Salud","Hato Salud",,8.5767,-82.0350,Panama,PA,PAN,Ngäbe-Buglé,Ngabe-Bugle,PA-NB,"indigenous region",,32.6,,,4,America/Panama,FALSE,1591000329
"Caño Quebrada Abajo","Cano Quebrada Abajo",,9.1122,-80.0505,Panama,PA,PAN,Colón,Colon,PA-3,province,,30.4,,,4,America/Panama,FALSE,1591005094
"El Zúñiga","El Zuniga",,8.6646,-80.0024,Panama,PA,PAN,"Panamá Oeste","Panama Oeste",PA-10,province,,26.5,,,4,America/Panama,FALSE,1591004566
"San Roque","San Roque",,9.0538,-80.6262,Panama,PA,PAN,Colón,Colon,PA-3,province,,5.0,,,5,America/Panama,FALSE,1591003393
Pedregalito,Pedregalito,,8.4678,-82.5928,Panama,PA,PAN,Chiriquí,Chiriqui,PA-4,province,,127.0,,,4,America/Panama,FALSE,1591211504
"Río Pedasí","Rio Pedasi",,8.7139,-78.4213,Panama,PA,PAN,Darién,Darien,PA-5,province,,7.2,,,5,America/Panama,FALSE,1591004184
"La Colonia de París","La Colonia de Paris","La Colonia",8.0552,-80.5714,Panama,PA,PAN,Herrera,Herrera,PA-6,province,,15.9,,,4,America/Panama,FALSE,1591990831
"Seis Reales","Seis Reales",,9.0790,-78.9895,Panama,PA,PAN,Panamá,Panama,PA-8,province,,52.9,,,4,America/Panama,FALSE,1591000017
"Boca de Monte","Boca de Monte","Boco de Monte",8.1188,-81.3037,Panama,PA,PAN,Veraguas,Veraguas,PA-9,province,,16.2,,,4,America/Panama,FALSE,1591773968
"Los Bajitos","Los Bajitos",,7.8993,-80.3884,Panama,PA,PAN,"Los Santos","Los Santos",PA-7,province,,53.0,,,4,America/Panama,FALSE,1591134250
"Los Bajitos","Los Bajitos",,7.6501,-80.4890,Panama,PA,PAN,"Los Santos","Los Santos",PA-7,province,,9.6,,,5,America/Panama,TRUE,1591313517
"El Desierto","El Desierto",,9.0936,-78.7161,Panama,PA,PAN,Panamá,Panama,PA-8,province,,10.8,,,4,America/Panama,FALSE,1591004883
"Los Bajitos","Los Bajitos",,9.0073,-80.2468,Panama,PA,PAN,Colón,Colon,PA-3,province,,11.9,,,4,America/Panama,FALSE,1591001398
"El Desierto","El Desierto",,9.1298,-82.3515,Panama,PA,PAN,"Bocas del Toro","Bocas del Toro",PA-1,province,,63.6,,,4,America/Panama,FALSE,1591002407
"Cañas Blancas","Canas Blancas",,8.7023,-82.7760,Panama,PA,PAN,Chiriquí,Chiriqui,PA-4,province,,13.2,,,4,America/Panama,FALSE,1591003111
"El Desierto","El Desierto",,8.8558,-82.6043,Panama,PA,PAN,Chiriquí,Chiriqui,PA-4,province,,71.4,,,4,America/Panama,FALSE,1591002408
"Alto Perico","Alto Perico",,7.8952,-80.9792,Panama,PA,PAN,Veraguas,Veraguas,PA-9,province,,9.2,,,5,America/Panama,FALSE,1591003990
"Quebrada del Medio","Quebrada del Medio",,8.8222,-80.4563,Panama,PA,PAN,Coclé,Cocle,PA-2,province,,19.3,,,4,America/Panama,FALSE,1591003817
"La Subidita","La Subidita","Las Subiditas|Subiditas|Las Uvitas",8.2041,-81.0685,Panama,PA,PAN,Veraguas,Veraguas,PA-9,province,,42.0,,,4,America/Panama,FALSE,1591682836
"Puerto Vidal","Puerto Vidal",,8.0493,-81.6045,Panama,PA,PAN,Veraguas,Veraguas,PA-9,province,minor,13.6,,,3,America/Panama,FALSE,1591641770
"Quebrada Arriba","Quebrada Arriba",,7.6833,-80.5167,Panama,PA,PAN,"Los Santos","Los Santos",PA-7,province,,9.9,,,5,America/Panama,FALSE,1591580698
"Playa Colorada","Playa Colorada",,8.6667,-78.6167,Panama,PA,PAN,Panamá,Panama,PA-8,province,,6.5,,,5,America/Panama,FALSE,1591821712
"Playa Colorada","Playa Colorada","Boca de Jesús",8.3859,-78.4378,Panama,PA,PAN,Panamá,Panama,PA-8,province,,2.8,,,5,America/Panama,TRUE,1591005293
"Rincón Caliente","Rincon Caliente",,9.2430,-79.6834,Panama,PA,PAN,Colón,Colon,PA-3,province,,141.0,,,4,America/Panama,FALSE,1591004603
"Quebrada Negra","Quebrada Negra",,8.6631,-81.7520,Panama,PA,PAN,Ngäbe-Buglé,Ngabe-Bugle,PA-NB,"indigenous region",,9.3,,,5,America/Panama,FALSE,1591002111
"Palo Alto","Palo Alto",,7.6419,-80.7429,Panama,PA,PAN,Herrera,Herrera,PA-6,province,,20.3,,,4,America/Panama,FALSE,1591003729
"La Placita","La Placita",,7.8087,-80.4856,Panama,PA,PAN,"Los Santos","Los Santos",PA-7,province,,31.1,,,4,America/Panama,FALSE,1591544774
"La Placita","La Placita",,7.3462,-80.5039,Panama,PA,PAN,"Los Santos","Los Santos",PA-7,province,,5.2,,,5,America/Panama,TRUE,1591852024
Guayacán,Guayacan,,7.9667,-80.8667,Panama,PA,PAN,Herrera,Herrera,PA-6,province,,16.0,,,4,America/Panama,FALSE,1591120468
Guayacán,Guayacan,,9.0841,-82.4801,Panama,PA,PAN,"Bocas del Toro","Bocas del Toro",PA-1,province,,5.0,,,5,America/Panama,FALSE,1591000665
"La Placita","La Placita",,8.3741,-80.8378,Panama,PA,PAN,Veraguas,Veraguas,PA-9,province,,16.2,,,4,America/Panama,FALSE,1591001608
"Cerro Tambor","Cerro Tambor",,8.0792,-81.4781,Panama,PA,PAN,Veraguas,Veraguas,PA-9,province,,11.8,,,4,America/Panama,FALSE,1591003088
Tula,Tula,,8.7356,-82.6088,Panama,PA,PAN,Chiriquí,Chiriqui,PA-4,province,,14.0,,,4,America/Panama,FALSE,1591002730
"La Huacas","La Huacas",,7.8960,-81.2712,Panama,PA,PAN,Veraguas,Veraguas,PA-9,province,,12.5,,,4,America/Panama,FALSE,1591187501
"Las Tetillas","Las Tetillas",,7.8092,-80.3230,Panama,PA,PAN,"Los Santos","Los Santos",PA-7,province,,51.5,,,4,America/Panama,FALSE,1591098226
"La Divisa","La Divisa",,8.5833,-79.9667,Panama,PA,PAN,"Panamá Oeste","Panama Oeste",PA-10,province,,50.5,,,4,America/Panama,FALSE,1591977040
"La Divisa","La Divisa",,8.9261,-79.9408,Panama,PA,PAN,"Panamá Oeste","Panama Oeste",PA-10,province,,18.8,,,4,America/Panama,TRUE,1591311687
"Alto de Las Palmas","Alto de Las Palmas",,8.2944,-80.8203,Panama,PA,PAN,Veraguas,Veraguas,PA-9,province,,29.5,,,4,America/Panama,FALSE,1591003311
"La Peana","La Peana",Peana,8.1465,-80.9232,Panama,PA,PAN,Veraguas,Veraguas,PA-9,province,,77.8,,,4,America/Panama,FALSE,1591859830
"La Pancha","La Pancha",,8.3552,-80.9363,Panama,PA,PAN,Veraguas,Veraguas,PA-9,province,,13.2,,,4,America/Panama,FALSE,1591003224
"Cañazas Número Uno","Canazas Numero Uno","Cañazas Número Dos|Cañazas Número 1",8.8895,-82.0243,Panama,PA,PAN,Ngäbe-Buglé,Ngabe-Bugle,PA-NB,"indigenous region",,27.0,,,4,America/Panama,FALSE,1591932793
"La Fabiana","La Fabiana",Fabiana,7.8517,-80.4655,Panama,PA,PAN,"Los Santos","Los Santos",PA-7,province,,105.5,,,4,America/Panama,FALSE,1591156873
Boquete,Boquete,,8.7357,-81.3525,Panama,PA,PAN,Ngäbe-Buglé,Ngabe-Bugle,PA-NB,"indigenous region",,16.0,,,4,America/Panama,FALSE,1591003507
"Bajo Caisán","Bajo Caisan",,8.7289,-82.7810,Panama,PA,PAN,Chiriquí,Chiriqui,PA-4,province,,19.5,,,4,America/Panama,FALSE,1591002476
Garicín,Garicin,,8.4363,-80.4576,Panama,PA,PAN,Coclé,Cocle,PA-2,province,,35.5,,,4,America/Panama,FALSE,1591964153
"Rodeo Viejo","Rodeo Viejo","Rodeo Viego",8.5333,-79.9500,Panama,PA,PAN,"Panamá Oeste","Panama Oeste",PA-10,province,,110.8,,,4,America/Panama,FALSE,1591139658
"El Carao","El Carao",,10.3154,-85.3675,Panama,PA,PAN,Coclé,Cocle,PA-2,province,,19.7,,,4,America/Costa_Rica,FALSE,1591004313
"Cerro Brujo","Cerro Brujo",,8.2667,-81.7667,Panama,PA,PAN,Ngäbe-Buglé,Ngabe-Bugle,PA-NB,"indigenous region",,103.2,,,4,America/Panama,FALSE,1591793431
"Las Nenas","Las Nenas",,8.2653,-80.8867,Panama,PA,PAN,Veraguas,Veraguas,PA-9,province,,7.5,,,5,America/Panama,FALSE,1591002161
"Los Cantiles","Los Cantiles",,8.0147,-81.0330,Panama,PA,PAN,Veraguas,Veraguas,PA-9,province,,40.9,,,4,America/Panama,FALSE,1591853303
"Quebrada El Potrero","Quebrada El Potrero",,7.6122,-80.1843,Panama,PA,PAN,"Los Santos","Los Santos",PA-7,province,,17.7,,,4,America/Panama,FALSE,1591001967
"La Piroza","La Piroza",,8.1587,-81.3511,Panama,PA,PAN,Veraguas,Veraguas,PA-9,province,,23.7,,,4,America/Panama,FALSE,1591001548
Palmita,Palmita,,8.5167,-80.0167,Panama,PA,PAN,"Panamá Oeste","Panama Oeste",PA-10,province,,61.7,,,4,America/Panama,FALSE,1591182355
Borbua,Borbua,,8.1846,-77.6808,Panama,PA,PAN,Darién,Darien,PA-5,province,,13.4,,,4,America/Panama,FALSE,1591004738
"El Astá","El Asta",,8.5413,-78.1151,Panama,PA,PAN,Darién,Darien,PA-5,province,,13.2,,,4,America/Panama,FALSE,1591833452
"Los Barreritos","Los Barreritos","Los Barreritos de Pesé",7.8342,-80.7005,Panama,PA,PAN,Herrera,Herrera,PA-6,province,,27.0,,,4,America/Panama,FALSE,1591182109
Pelagato,Pelagato,,7.6343,-81.2769,Panama,PA,PAN,Veraguas,Veraguas,PA-9,province,,16.1,,,4,America/Panama,FALSE,1591001800
Pintupo,Pintupo,,9.2191,-78.7201,Panama,PA,PAN,Panamá,Panama,PA-8,province,,2.5,,,5,America/Panama,FALSE,1591822330
"El Bale","El Bale",,8.3500,-81.3667,Panama,PA,PAN,Ngäbe-Buglé,Ngabe-Bugle,PA-NB,"indigenous region",minor,21.5,,,3,America/Panama,FALSE,1591103185
"El Cenizo","El Cenizo",,8.5597,-80.7132,Panama,PA,PAN,Coclé,Cocle,PA-2,province,,13.3,,,4,America/Panama,FALSE,1591369979
"Palo Diferente","Palo Diferente",,8.4618,-80.0232,Panama,PA,PAN,"Panamá Oeste","Panama Oeste",PA-10,province,,73.2,,,4,America/Panama,FALSE,1591366823
"Palo Diferente","Palo Diferente",,8.7795,-79.9139,Panama,PA,PAN,"Panamá Oeste","Panama Oeste",PA-10,province,,57.3,,,4,America/Panama,TRUE,1591005069
"Milla Once","Milla Once","Milla 11",9.3949,-82.4832,Panama,PA,PAN,"Bocas del Toro","Bocas del Toro",PA-1,province,,76.3,,,4,America/Panama,FALSE,1591478385
"Cangandí Número Dos","Cangandi Numero Dos","Cangandí Número 2",9.4366,-79.1149,Panama,PA,PAN,"Guna Yala","Guna Yala",PA-KY,"indigenous region",,12.7,,,4,America/Panama,FALSE,1591005036
"Alto de Divalá","Alto de Divala","Alto Divalá",8.4729,-82.6985,Panama,PA,PAN,Chiriquí,Chiriqui,PA-4,province,,113.5,,,4,America/Panama,FALSE,1591638481
"Los Furniales","Los Furniales",,7.4268,-80.8351,Panama,PA,PAN,Veraguas,Veraguas,PA-9,province,,3.7,,,5,America/Panama,FALSE,1591016281
"La Bodega","La Bodega",,7.9996,-80.7210,Panama,PA,PAN,Herrera,Herrera,PA-6,province,,41.4,,,4,America/Panama,FALSE,1591582930
"Los Llanos del Cuay","Los Llanos del Cuay",,8.4647,-81.1167,Panama,PA,PAN,Veraguas,Veraguas,PA-9,province,,32.5,,,4,America/Panama,FALSE,1591003467
"La Bodega","La Bodega",,8.3377,-81.1091,Panama,PA,PAN,Veraguas,Veraguas,PA-9,province,,17.3,,,4,America/Panama,FALSE,1591871873
"Los Carpachines","Los Carpachines",,8.4412,-80.7875,Panama,PA,PAN,Veraguas,Veraguas,PA-9,province,,17.0,,,4,America/Panama,FALSE,1591000308
"El Melonal","El Melonal",,7.6143,-80.1244,Panama,PA,PAN,"Los Santos","Los Santos",PA-7,province,,17.4,,,4,America/Panama,FALSE,1591000434
"Quebrada Maquenco","Quebrada Maquenco",,8.3456,-81.7334,Panama,PA,PAN,Ngäbe-Buglé,Ngabe-Bugle,PA-NB,"indigenous region",,195.2,,,4,America/Panama,FALSE,1591001044
"La Juliana","La Juliana",,8.2205,-80.8628,Panama,PA,PAN,Veraguas,Veraguas,PA-9,province,,7.5,,,5,America/Panama,FALSE,1591694904
"Ciricito Arriba","Ciricito Arriba",,8.9328,-80.1043,Panama,PA,PAN,"Panamá Oeste","Panama Oeste",PA-10,province,,27.8,,,4,America/Panama,FALSE,1591591355
Franco,Franco,,7.5588,-80.0507,Panama,PA,PAN,"Los Santos","Los Santos",PA-7,province,,7.4,,,5,America/Panama,FALSE,1591180233
"El Titi","El Titi",,8.2197,-80.8910,Panama,PA,PAN,Veraguas,Veraguas,PA-9,province,,9.8,,,5,America/Panama,FALSE,1591004062
"La Pintadita","La Pintadita",,7.4840,-80.6371,Panama,PA,PAN,"Los Santos","Los Santos",PA-7,province,,5.3,,,5,America/Panama,FALSE,1591001626
"El Creo","El Creo",,8.7333,-79.9333,Panama,PA,PAN,"Panamá Oeste","Panama Oeste",PA-10,province,,148.6,,,4,America/Panama,FALSE,1591169478
"El Creo","El Creo",,8.5167,-79.9333,Panama,PA,PAN,"Panamá Oeste","Panama Oeste",PA-10,province,,110.8,,,4,America/Panama,TRUE,1591809145
"Finca Caoba","Finca Caoba",,8.3985,-82.8712,Panama,PA,PAN,Chiriquí,Chiriqui,PA-4,province,,96.1,,,4,America/Panama,FALSE,1591858573
"Entrada a El Salto","Entrada a El Salto",,8.3083,-77.8194,Panama,PA,PAN,Darién,Darien,PA-5,province,,13.4,,,4,America/Panama,FALSE,1591004438
"Las Mercedes","Las Mercedes",,8.0182,-80.5327,Panama,PA,PAN,Herrera,Herrera,PA-6,province,,39.2,,,4,America/Panama,FALSE,1591356186
"Las Mercedes","Las Mercedes",,8.4445,-82.7146,Panama,PA,PAN,Chiriquí,Chiriqui,PA-4,province,,57.7,,,4,America/Panama,FALSE,1591738317
"Las Mercedes","Las Mercedes",,8.6542,-82.6718,Panama,PA,PAN,Chiriquí,Chiriqui,PA-4,province,,38.1,,,4,America/Panama,TRUE,1591315997
"Las Mercedes","Las Mercedes",Mercedes,8.4095,-82.3056,Panama,PA,PAN,Chiriquí,Chiriqui,PA-4,province,,24.7,,,4,America/Panama,TRUE,1591208614
"Las Mercedes","Las Mercedes",,8.9733,-80.2187,Panama,PA,PAN,Coclé,Cocle,PA-2,province,,26.5,,,4,America/Panama,FALSE,1591005083
"Las Mercedes","Las Mercedes",,9.4140,-79.7638,Panama,PA,PAN,Colón,Colon,PA-3,province,,31.1,,,4,America/Panama,FALSE,1591968557
"Quebrada Mojoso","Quebrada Mojoso",,8.3155,-81.7538,Panama,PA,PAN,Ngäbe-Buglé,Ngabe-Bugle,PA-NB,"indigenous region",,190.2,,,4,America/Panama,FALSE,1591792775
"Las Mercedes","Las Mercedes",,8.4560,-81.0950,Panama,PA,PAN,Veraguas,Veraguas,PA-9,province,,32.5,,,4,America/Panama,FALSE,1591002886
Aruza,Aruza,Arusa,8.0500,-77.6167,Panama,PA,PAN,Darién,Darien,PA-5,province,,1.9,,,5,America/Panama,FALSE,1591142110
"Quebrada Piscina","Quebrada Piscina",,9.1806,-82.1534,Panama,PA,PAN,"Bocas del Toro","Bocas del Toro",PA-1,province,,31.7,,,4,America/Panama,FALSE,1591001583
"La Divisa","La Divisa",,8.1977,-81.8744,Panama,PA,PAN,Chiriquí,Chiriqui,PA-4,province,,28.7,,,4,America/Panama,FALSE,1591002585
"La Divisa","La Divisa",,8.7285,-82.7589,Panama,PA,PAN,Chiriquí,Chiriqui,PA-4,province,,13.2,,,4,America/Panama,TRUE,1591002586
"Las Piñas","Las Pinas",,8.4500,-80.0833,Panama,PA,PAN,Coclé,Cocle,PA-2,province,,66.1,,,4,America/Panama,FALSE,1591432607
"Puerto Tebario","Puerto Tebario",,7.7177,-80.9942,Panama,PA,PAN,Veraguas,Veraguas,PA-9,province,,6.4,,,5,America/Panama,FALSE,1591413748
"La Divisa","La Divisa",,7.8929,-81.3663,Panama,PA,PAN,Veraguas,Veraguas,PA-9,province,,6.0,,,5,America/Panama,FALSE,1591787576
"Altos de Zapatero","Altos de Zapatero",,8.6087,-82.7971,Panama,PA,PAN,Chiriquí,Chiriqui,PA-4,province,,20.7,,,4,America/Panama,FALSE,1591000037
"Canta Gallo Arriba","Canta Gallo Arriba",,8.3951,-82.6077,Panama,PA,PAN,Chiriquí,Chiriqui,PA-4,province,,32.3,,,4,America/Panama,FALSE,1591388874
Boró,Boro,,8.1720,-81.3012,Panama,PA,PAN,Veraguas,Veraguas,PA-9,province,minor,26.4,,,3,America/Panama,FALSE,1591530200
"El Luvital","El Luvital",,8.6476,-78.1564,Panama,PA,PAN,Darién,Darien,PA-5,province,,13.2,,,4,America/Panama,FALSE,1591473375
"El Luvital","El Luvital",,8.8000,-78.1667,Panama,PA,PAN,Darién,Darien,PA-5,province,,12.5,,,4,America/Panama,TRUE,1591728877
"El Román","El Roman",,8.3342,-81.2747,Panama,PA,PAN,Veraguas,Veraguas,PA-9,province,,24.2,,,4,America/Panama,FALSE,1591266010
Manzanillo,Manzanillo,,9.6294,-79.5406,Panama,PA,PAN,Colón,Colon,PA-3,province,,53.1,,,4,America/Panama,FALSE,1591004168
Palmito,Palmito,,8.8454,-82.2067,Panama,PA,PAN,Ngäbe-Buglé,Ngabe-Bugle,PA-NB,"indigenous region",,17.9,,,4,America/Panama,FALSE,1591004047
"Mata Gorda","Mata Gorda",,8.4696,-82.5643,Panama,PA,PAN,Chiriquí,Chiriqui,PA-4,province,,159.2,,,4,America/Panama,FALSE,1591478278
Manzanillo,Manzanillo,,8.4980,-81.0788,Panama,PA,PAN,Veraguas,Veraguas,PA-9,province,,20.9,,,4,America/Panama,FALSE,1591001632
Manzanillo,Manzanillo,,8.1287,-81.3718,Panama,PA,PAN,Veraguas,Veraguas,PA-9,province,,18.3,,,4,America/Panama,TRUE,1591001631
Manzanillo,Manzanillo,,7.7384,-81.1459,Panama,PA,PAN,Veraguas,Veraguas,PA-9,province,,16.7,,,4,America/Panama,TRUE,1591212864
Manzanillo,Manzanillo,,7.5361,-81.1663,Panama,PA,PAN,Veraguas,Veraguas,PA-9,province,,5.0,,,5,America/Panama,TRUE,1591072665
"Río Iglesia","Rio Iglesia","Río Iglesias",8.3976,-78.0099,Panama,PA,PAN,Darién,Darien,PA-5,province,,4.0,,,5,America/Panama,FALSE,1591583876
Sibarco,Sibarco,,8.5196,-78.2038,Panama,PA,PAN,Darién,Darien,PA-5,province,,9.2,,,5,America/Panama,FALSE,1591764741
"Boca de Quebrada de Tigre","Boca de Quebrada de Tigre",,8.8213,-81.9835,Panama,PA,PAN,Ngäbe-Buglé,Ngabe-Bugle,PA-NB,"indigenous region",,13.8,,,4,America/Panama,FALSE,1591002318
"Cirí Arriba","Ciri Arriba",,9.1177,-80.4028,Panama,PA,PAN,Colón,Colon,PA-3,province,,8.7,,,5,America/Panama,FALSE,1591003079
"Llano Redondo","Llano Redondo",,8.4667,-80.0500,Panama,PA,PAN,"Panamá Oeste","Panama Oeste",PA-10,province,,76.6,,,4,America/Panama,FALSE,1591417262
"La Honda","La Honda",,9.0275,-79.9689,Panama,PA,PAN,Colón,Colon,PA-3,province,,26.2,,,4,America/Panama,FALSE,1591642027
"Rancho Caldera","Rancho Caldera",,8.6651,-82.3786,Panama,PA,PAN,Chiriquí,Chiriqui,PA-4,province,,8.8,,,5,America/Panama,FALSE,1591001360
"La Honda","La Honda","Quebrada Honda",8.0270,-78.3140,Panama,PA,PAN,Darién,Darien,PA-5,province,,10.3,,,4,America/Panama,FALSE,1591004931
"El Hatillito","El Hatillito",Hatillito,7.9088,-80.7043,Panama,PA,PAN,Herrera,Herrera,PA-6,province,,19.0,,,4,America/Panama,FALSE,1591337215
"La Honda","La Honda",,7.9007,-80.3214,Panama,PA,PAN,"Los Santos","Los Santos",PA-7,province,,54.7,,,4,America/Panama,FALSE,1591949536
"La Honda","La Honda",,8.2929,-80.9657,Panama,PA,PAN,Veraguas,Veraguas,PA-9,province,,48.5,,,4,America/Panama,FALSE,1591002516
"La Honda","La Honda",,8.3268,-81.0284,Panama,PA,PAN,Veraguas,Veraguas,PA-9,province,,21.4,,,4,America/Panama,TRUE,1591426797
"La Honda","La Honda",,7.5959,-80.8471,Panama,PA,PAN,Veraguas,Veraguas,PA-9,province,,9.5,,,5,America/Panama,TRUE,1591002515
"La Honda","La Honda","La Hondo",7.9316,-80.9445,Panama,PA,PAN,Veraguas,Veraguas,PA-9,province,,9.2,,,5,America/Panama,TRUE,1591620393
"La Honda","La Honda","Boca de La Honda",7.4430,-80.8586,Panama,PA,PAN,Veraguas,Veraguas,PA-9,province,,3.7,,,5,America/Panama,TRUE,1591001388
"La Honda","La Honda","La Ensenada Honda",8.4017,-79.0962,Panama,PA,PAN,Panamá,Panama,PA-8,province,,5.1,,,5,America/Panama,FALSE,1591244305
Portón,Porton,,8.5654,-82.7856,Panama,PA,PAN,Chiriquí,Chiriqui,PA-4,province,,73.2,,,4,America/Panama,FALSE,1591281155
"Alto de Los Gringos","Alto de Los Gringos",,7.8637,-80.8140,Panama,PA,PAN,Herrera,Herrera,PA-6,province,,25.7,,,4,America/Panama,FALSE,1591004073
"Los Toribios","Los Toribios",,8.3813,-81.1036,Panama,PA,PAN,Veraguas,Veraguas,PA-9,province,,22.1,,,4,America/Panama,FALSE,1591000851
"Río Tigre Arriba","Rio Tigre Arriba",,9.0222,-78.8421,Panama,PA,PAN,Panamá,Panama,PA-8,province,,8.2,,,5,America/Panama,FALSE,1591004159
Nidirbidup,Nidirbidup,"Manta Raya|Isla Manta Raya",9.5420,-78.9096,Panama,PA,PAN,"Guna Yala","Guna Yala",PA-KY,"indigenous region",,12.7,,,4,America/Panama,FALSE,1591004420
"La ”Y” Griega","La 'Y' Griega",,9.3582,-82.2530,Panama,PA,PAN,"Bocas del Toro","Bocas del Toro",PA-1,province,,164.5,,,4,America/Panama,FALSE,1591000131
"Las Latitas","Las Latitas","Las Lajitas",7.5810,-80.4694,Panama,PA,PAN,"Los Santos","Los Santos",PA-7,province,,5.3,,,5,America/Panama,FALSE,1591825592
"Cerro Palma","Cerro Palma",,9.0977,-82.3921,Panama,PA,PAN,"Bocas del Toro","Bocas del Toro",PA-1,province,,22.6,,,4,America/Panama,FALSE,1591002267
"Río Chelelé","Rio Chelele",,8.5693,-81.2492,Panama,PA,PAN,Ngäbe-Buglé,Ngabe-Bugle,PA-NB,"indigenous region",,13.8,,,4,America/Panama,FALSE,1591002569
"Bajo de la Mata","Bajo de la Mata",,8.6667,-79.9500,Panama,PA,PAN,"Panamá Oeste","Panama Oeste",PA-10,province,,49.0,,,4,America/Panama,FALSE,1591663567
"Cabecera de Río Chico","Cabecera de Rio Chico",,8.7825,-81.7322,Panama,PA,PAN,Ngäbe-Buglé,Ngabe-Bugle,PA-NB,"indigenous region",,9.3,,,5,America/Panama,FALSE,1591000323
Cabuya,Cabuya,Cabuyao,8.0310,-80.6311,Panama,PA,PAN,Herrera,Herrera,PA-6,province,minor,28.8,,,3,America/Panama,FALSE,1591036875
Cabuya,Cabuya,,7.7833,-80.7333,Panama,PA,PAN,Herrera,Herrera,PA-6,province,,34.7,,,4,America/Panama,TRUE,1591103953
Cabuya,Cabuya,,7.8849,-80.5873,Panama,PA,PAN,Herrera,Herrera,PA-6,province,,32.8,,,4,America/Panama,TRUE,1591000497
"El Piñal","El Pinal",,7.9828,-81.0744,Panama,PA,PAN,Veraguas,Veraguas,PA-9,province,,56.5,,,4,America/Panama,FALSE,1591003477
Cabuya,Cabuya,,8.5440,-80.1631,Panama,PA,PAN,Coclé,Cocle,PA-2,province,minor,54.6,,,3,America/Panama,FALSE,1591814000
Cabuya,Cabuya,"El Quirá",8.2737,-80.8319,Panama,PA,PAN,Veraguas,Veraguas,PA-9,province,,29.5,,,4,America/Panama,FALSE,1591218853
"El Piñal","El Pinal",,8.4960,-80.5550,Panama,PA,PAN,Coclé,Cocle,PA-2,province,,49.2,,,4,America/Panama,FALSE,1591947119
"Quebrada Grande del Tebujo","Quebrada Grande del Tebujo",,7.6166,-80.2788,Panama,PA,PAN,"Los Santos","Los Santos",PA-7,province,,8.5,,,5,America/Panama,FALSE,1591675027
"La Cauchera","La Cauchera",,9.0258,-80.0770,Panama,PA,PAN,Colón,Colon,PA-3,province,,43.6,,,4,America/Panama,FALSE,1591254859
"Los Estrechos","Los Estrechos","El Estrecho",8.2333,-81.3833,Panama,PA,PAN,Veraguas,Veraguas,PA-9,province,,26.4,,,4,America/Panama,FALSE,1591750516
"El Broquel","El Broquel",,8.8614,-79.9275,Panama,PA,PAN,"Panamá Oeste","Panama Oeste",PA-10,province,,47.3,,,4,America/Panama,FALSE,1591253646
"Riecito Arriba","Riecito Arriba",,8.8667,-80.1491,Panama,PA,PAN,"Panamá Oeste","Panama Oeste",PA-10,province,,22.9,,,4,America/Panama,FALSE,1591005147
"Caño Colorado Arriba","Cano Colorado Arriba",,8.8125,-81.5856,Panama,PA,PAN,Ngäbe-Buglé,Ngabe-Bugle,PA-NB,"indigenous region",,9.6,,,5,America/Panama,FALSE,1591003836
Chucunaque,Chucunaque,,8.7843,-78.0774,Panama,PA,PAN,Darién,Darien,PA-5,province,,13.2,,,4,America/Panama,FALSE,1591005199
"Alto Romero","Alto Romero",,8.9356,-82.3833,Panama,PA,PAN,"Bocas del Toro","Bocas del Toro",PA-1,province,,5.0,,,5,America/Panama,FALSE,1591003333
Sansón,Sanson,,8.4333,-77.8745,Panama,PA,PAN,Darién,Darien,PA-5,province,,10.3,,,4,America/Panama,FALSE,1591018456
Chucunaque,Chucunaque,"Chucunate|El Chucunate",8.3230,-78.9324,Panama,PA,PAN,Panamá,Panama,PA-8,province,,7.9,,,5,America/Panama,FALSE,1591433100
"Felipe Navarro","Felipe Navarro",,8.0379,-81.4857,Panama,PA,PAN,Veraguas,Veraguas,PA-9,province,,5.4,,,5,America/Panama,FALSE,1591000880
Barrasín,Barrasin,,7.8129,-81.0264,Panama,PA,PAN,Veraguas,Veraguas,PA-9,province,,9.2,,,5,America/Panama,FALSE,1591427548
"Piedra del Sol","Piedra del Sol","Piedra de Sol",8.0427,-81.0377,Panama,PA,PAN,Veraguas,Veraguas,PA-9,province,,27.0,,,4,America/Panama,FALSE,1591950983
"Loma de La Pava","Loma de La Pava",,8.6427,-81.1515,Panama,PA,PAN,Veraguas,Veraguas,PA-9,province,,7.7,,,5,America/Panama,FALSE,1591002163
Biroquera,Biroquera,,7.5214,-78.1071,Panama,PA,PAN,Darién,Darien,PA-5,province,,2.8,,,5,America/Panama,FALSE,1591543457
Zapotal,Zapotal,,8.0635,-80.9070,Panama,PA,PAN,Veraguas,Veraguas,PA-9,province,,114.4,,,4,America/Panama,FALSE,1591390752
Zapotal,Zapotal,,8.3546,-81.1777,Panama,PA,PAN,Veraguas,Veraguas,PA-9,province,,61.5,,,4,America/Panama,TRUE,1591001028
Zapotal,Zapotal,,7.7774,-81.0647,Panama,PA,PAN,Veraguas,Veraguas,PA-9,province,,9.2,,,5,America/Panama,TRUE,1591001026
Zapotal,Zapotal,,7.5374,-80.9077,Panama,PA,PAN,Veraguas,Veraguas,PA-9,province,,8.9,,,5,America/Panama,TRUE,1591001027
Zapotal,Zapotal,,7.9414,-81.5743,Panama,PA,PAN,Veraguas,Veraguas,PA-9,province,,5.4,,,5,America/Panama,TRUE,1591961597
"Las Mesitas","Las Mesitas","La Mesita Número Uno",8.3274,-81.3956,Panama,PA,PAN,Ngäbe-Buglé,Ngabe-Bugle,PA-NB,"indigenous region",,14.6,,,4,America/Panama,FALSE,1591788699
Bateal,Bateal,,8.9656,-80.3826,Panama,PA,PAN,Colón,Colon,PA-3,province,,6.4,,,5,America/Panama,FALSE,1591001410
"El Edén","El Eden",,8.5086,-78.1398,Panama,PA,PAN,Darién,Darien,PA-5,province,,9.5,,,5,America/Panama,FALSE,1591916862
"Cerro Majagua","Cerro Majagua",,8.4059,-81.8509,Panama,PA,PAN,Ngäbe-Buglé,Ngabe-Bugle,PA-NB,"indigenous region",,63.4,,,4,America/Panama,FALSE,1591003986
"Rincón Santo","Rincon Santo","Rincón Santos",7.9694,-80.8578,Panama,PA,PAN,Herrera,Herrera,PA-6,province,,16.0,,,4,America/Panama,FALSE,1591288358
"Bajo Venao","Bajo Venao",,8.5145,-81.0180,Panama,PA,PAN,Veraguas,Veraguas,PA-9,province,,9.3,,,5,America/Panama,FALSE,1591001191
"Sabana Grande","Sabana Grande",,7.8807,-80.6382,Panama,PA,PAN,Herrera,Herrera,PA-6,province,minor,34.4,,,3,America/Panama,FALSE,1591069778
"Sabana Grande","Sabana Grande",,7.8388,-80.3659,Panama,PA,PAN,"Los Santos","Los Santos",PA-7,province,minor,58.5,,,3,America/Panama,FALSE,1591581235
Idrebay,Idrebay,,8.7906,-81.7825,Panama,PA,PAN,Ngäbe-Buglé,Ngabe-Bugle,PA-NB,"indigenous region",,9.3,,,5,America/Panama,FALSE,1591003995
"Pedregosa de Bajo Hondo","Pedregosa de Bajo Hondo","Pedregosa de Bajo Honda",8.3660,-81.6389,Panama,PA,PAN,Ngäbe-Buglé,Ngabe-Bugle,PA-NB,"indigenous region",,96.1,,,4,America/Panama,FALSE,1591765951
"Cerro Punta","Cerro Punta",,8.8522,-82.5736,Panama,PA,PAN,Chiriquí,Chiriqui,PA-4,province,minor,71.4,,,3,America/Panama,FALSE,1591242861
"El Níspero","El Nispero",,8.6966,-82.2691,Panama,PA,PAN,Chiriquí,Chiriqui,PA-4,province,,8.8,,,5,America/Panama,FALSE,1591000422
Mompo,Mompo,"Bella Vista",8.0631,-78.3626,Panama,PA,PAN,Darién,Darien,PA-5,province,,10.3,,,4,America/Panama,FALSE,1591005535
"El Tigrero","El Tigrero",,8.7432,-80.4464,Panama,PA,PAN,Coclé,Cocle,PA-2,province,,19.3,,,4,America/Panama,FALSE,1591004138
"El Tigrero","El Tigrero",,8.6822,-80.4018,Panama,PA,PAN,Coclé,Cocle,PA-2,province,,19.3,,,4,America/Panama,TRUE,1591004139
"El Tigrero","El Tigrero",,8.5982,-80.6816,Panama,PA,PAN,Coclé,Cocle,PA-2,province,,13.9,,,4,America/Panama,TRUE,1591072539
"Eusebia Arriba","Eusebia Arriba",,8.6327,-78.2860,Panama,PA,PAN,Darién,Darien,PA-5,province,,7.5,,,5,America/Panama,FALSE,1591005404
"Río Viento","Rio Viento",,8.8569,-81.7499,Panama,PA,PAN,Ngäbe-Buglé,Ngabe-Bugle,PA-NB,"indigenous region",,35.3,,,4,America/Panama,FALSE,1591344041
"La Piquera","La Piquera",,8.4988,-81.1034,Panama,PA,PAN,Veraguas,Veraguas,PA-9,province,,23.1,,,4,America/Panama,FALSE,1591002327
"Quebrada Guabo","Quebrada Guabo",Guabo,9.2995,-82.5448,Panama,PA,PAN,"Bocas del Toro","Bocas del Toro",PA-1,province,,76.3,,,4,America/Panama,FALSE,1591706979
Calabacito,Calabacito,,8.5667,-80.0667,Panama,PA,PAN,"Panamá Oeste","Panama Oeste",PA-10,province,,64.8,,,4,America/Panama,FALSE,1591274709
Calabacito,Calabacito,,9.0220,-79.8226,Panama,PA,PAN,"Panamá Oeste","Panama Oeste",PA-10,province,,20.4,,,4,America/Panama,TRUE,1591461229
Wichubhualá,Wichubhuala,Wichubualá,9.5524,-78.9490,Panama,PA,PAN,"Guna Yala","Guna Yala",PA-KY,"indigenous region",,12.7,,,4,America/Panama,FALSE,1591576408
Puente,Puente,,8.0983,-77.5990,Panama,PA,PAN,Emberá-Wounaan,Embera-Wounaan,PA-EM,"indigenous region",,1.8,,,5,America/Panama,FALSE,1591460901
"Quebrada Candela","Quebrada Candela",,8.3004,-81.7821,Panama,PA,PAN,Ngäbe-Buglé,Ngabe-Bugle,PA-NB,"indigenous region",,178.4,,,4,America/Panama,FALSE,1591003419
Ñaño,Nano,,9.1247,-80.4530,Panama,PA,PAN,Colón,Colon,PA-3,province,,8.7,,,5,America/Panama,FALSE,1591230704
"El Poste","El Poste",,8.2980,-81.1707,Panama,PA,PAN,Veraguas,Veraguas,PA-9,province,,17.3,,,4,America/Panama,FALSE,1591876374
Arguea,Arguea,,8.5000,-82.3667,Panama,PA,PAN,Chiriquí,Chiriqui,PA-4,province,,77.4,,,4,America/Panama,FALSE,1591488447
"Llano Miranda","Llano Miranda","Bajo Miranda",8.4117,-81.6309,Panama,PA,PAN,Ngäbe-Buglé,Ngabe-Bugle,PA-NB,"indigenous region",,95.9,,,4,America/Panama,FALSE,1591216453
"Piedra Mano","Piedra Mano",,8.5679,-81.7519,Panama,PA,PAN,Ngäbe-Buglé,Ngabe-Bugle,PA-NB,"indigenous region",,27.0,,,4,America/Panama,FALSE,1591000974
"Las Cañazas","Las Canazas",,8.4308,-81.1308,Panama,PA,PAN,Veraguas,Veraguas,PA-9,province,,21.8,,,4,America/Panama,FALSE,1591001119
"Las Cañazas","Las Canazas",,7.8419,-81.4090,Panama,PA,PAN,Veraguas,Veraguas,PA-9,province,,6.0,,,5,America/Panama,TRUE,1591826389
"Los Pineda","Los Pineda","Los Pinedas",8.1621,-81.2822,Panama,PA,PAN,Veraguas,Veraguas,PA-9,province,,26.4,,,4,America/Panama,FALSE,1591080723
"Quebrada de Ureña","Quebrada de Urena",,8.4068,-77.9322,Panama,PA,PAN,Darién,Darien,PA-5,province,,4.0,,,5,America/Panama,FALSE,1591004776
"San Juan de Cativé","San Juan de Cative",,7.8961,-81.3272,Panama,PA,PAN,Veraguas,Veraguas,PA-9,province,,12.5,,,4,America/Panama,FALSE,1591257265
"Pueblo Nuevo Número Dos","Pueblo Nuevo Numero Dos",,8.1284,-80.9888,Panama,PA,PAN,Veraguas,Veraguas,PA-9,province,,87.9,,,4,America/Panama,FALSE,1591535745
"Las Zatras Abajo","Las Zatras Abajo",,7.8234,-80.3849,Panama,PA,PAN,"Los Santos","Los Santos",PA-7,province,,97.7,,,4,America/Panama,FALSE,1591698192
"Río Manga Indio","Rio Manga Indio",,9.3984,-79.7115,Panama,PA,PAN,Colón,Colon,PA-3,province,,31.1,,,4,America/Panama,FALSE,1591004766
"La Colonia","La Colonia","Colonia Constancia",8.3428,-80.2114,Panama,PA,PAN,Coclé,Cocle,PA-2,province,,44.5,,,4,America/Panama,FALSE,1591005468
"La Colonia","La Colonia",,8.7680,-80.4342,Panama,PA,PAN,Coclé,Cocle,PA-2,province,,19.3,,,4,America/Panama,TRUE,1591003934
"Quebrada Cucaracha","Quebrada Cucaracha",,8.5500,-82.0018,Panama,PA,PAN,Ngäbe-Buglé,Ngabe-Bugle,PA-NB,"indigenous region",,32.6,,,4,America/Panama,FALSE,1591001938
"San Cristóbal","San Cristobal",,9.2897,-79.4167,Panama,PA,PAN,Panamá,Panama,PA-8,province,,67.2,,,4,America/Panama,FALSE,1591120183
"San Cristóbal","San Cristobal",,8.0206,-81.0629,Panama,PA,PAN,Veraguas,Veraguas,PA-9,province,,27.2,,,4,America/Panama,FALSE,1591612170
"San Cristóbal","San Cristobal",Pescara,8.8542,-80.9542,Panama,PA,PAN,Veraguas,Veraguas,PA-9,province,,4.2,,,5,America/Panama,TRUE,1591119815
"La Colonia","La Colonia",,8.5661,-82.6540,Panama,PA,PAN,Chiriquí,Chiriqui,PA-4,province,,90.2,,,4,America/Panama,FALSE,1591022430
"La Colonia","La Colonia",,8.7730,-82.4725,Panama,PA,PAN,Chiriquí,Chiriqui,PA-4,province,,30.9,,,4,America/Panama,TRUE,1591003935
"La Venada","La Venada",,7.4333,-80.5167,Panama,PA,PAN,"Los Santos","Los Santos",PA-7,province,,12.3,,,4,America/Panama,FALSE,1591924286
"San Cristóbal","San Cristobal",,7.7577,-80.2592,Panama,PA,PAN,"Los Santos","Los Santos",PA-7,province,,948.1,,,3,America/Panama,FALSE,1591003929
"Cerro Burro","Cerro Burro",,8.4908,-81.9359,Panama,PA,PAN,Ngäbe-Buglé,Ngabe-Bugle,PA-NB,"indigenous region",,46.2,,,4,America/Panama,FALSE,1591003151
Chuletí,Chuleti,,7.9842,-77.9281,Panama,PA,PAN,Darién,Darien,PA-5,province,,1.0,,,5,America/Panama,FALSE,1591164702
"Hato Viejo","Hato Viejo",,8.1427,-81.3794,Panama,PA,PAN,Veraguas,Veraguas,PA-9,province,,26.4,,,4,America/Panama,FALSE,1591000960
"Hato Viejo","Hato Viejo",,8.1697,-80.9020,Panama,PA,PAN,Veraguas,Veraguas,PA-9,province,,22.8,,,4,America/Panama,TRUE,1591576387
Higueroncito,Higueroncito,,8.4742,-82.0099,Panama,PA,PAN,Ngäbe-Buglé,Ngabe-Bugle,PA-NB,"indigenous region",,51.0,,,4,America/Panama,FALSE,1591000182
"Loma de Amante","Loma de Amante",,9.1932,-82.2419,Panama,PA,PAN,"Bocas del Toro","Bocas del Toro",PA-1,province,,42.4,,,4,America/Panama,FALSE,1591268870
"Las Lomas","Las Lomas","Los Lomas Arriba|Las Lomas Arriba",7.7913,-80.7822,Panama,PA,PAN,Herrera,Herrera,PA-6,province,,29.7,,,4,America/Panama,FALSE,1591776441
"Las Lomas","Las Lomas",,7.7101,-80.5832,Panama,PA,PAN,Herrera,Herrera,PA-6,province,,22.5,,,4,America/Panama,TRUE,1591805065
"Hato Viejo","Hato Viejo",,8.4736,-80.6896,Panama,PA,PAN,Coclé,Cocle,PA-2,province,,20.7,,,4,America/Panama,FALSE,1591446458
"Las Matas","Las Matas",,8.3063,-81.8664,Panama,PA,PAN,Chiriquí,Chiriqui,PA-4,province,,65.2,,,4,America/Panama,FALSE,1591998504
"Villa Flor","Villa Flor",,8.6430,-78.3976,Panama,PA,PAN,Darién,Darien,PA-5,province,,3.4,,,5,America/Panama,FALSE,1591004657
"Los Cedeños","Los Cedenos",,8.9889,-82.2666,Panama,PA,PAN,"Bocas del Toro","Bocas del Toro",PA-1,province,,51.7,,,4,America/Panama,FALSE,1591000849
Papelillo,Papelillo,"El Papelillo",8.5246,-80.9272,Panama,PA,PAN,Veraguas,Veraguas,PA-9,province,,15.5,,,4,America/Panama,FALSE,1591369350
"Las Lomas","Las Lomas","Llano del Medio",8.4290,-82.3890,Panama,PA,PAN,Chiriquí,Chiriqui,PA-4,province,minor,298.0,,,3,America/Panama,FALSE,1591772774
"Peñas Prietas","Penas Prietas",,7.8603,-80.6336,Panama,PA,PAN,Herrera,Herrera,PA-6,province,,27.0,,,4,America/Panama,FALSE,1591593551
"La Conguita","La Conguita",,8.0529,-81.2785,Panama,PA,PAN,Veraguas,Veraguas,PA-9,province,,16.2,,,4,America/Panama,FALSE,1591000320
Papelillo,Papelillo,,8.6133,-80.5837,Panama,PA,PAN,Coclé,Cocle,PA-2,province,,27.4,,,4,America/Panama,FALSE,1591000268
"Las Lomas","Las Lomas","La Loma",8.4383,-80.0871,Panama,PA,PAN,Coclé,Cocle,PA-2,province,,152.0,,,4,America/Panama,FALSE,1591094197
"Las Lomas","Las Lomas","Loma Caballo|Loma de Caballo",8.6052,-80.6294,Panama,PA,PAN,Coclé,Cocle,PA-2,province,,27.3,,,4,America/Panama,TRUE,1591037557
"Llano Grande","Llano Grande",,8.3936,-82.5870,Panama,PA,PAN,Chiriquí,Chiriqui,PA-4,province,,119.8,,,4,America/Panama,FALSE,1591989496
"Llano Grande","Llano Grande",,8.3429,-82.0555,Panama,PA,PAN,Chiriquí,Chiriqui,PA-4,province,,17.7,,,4,America/Panama,TRUE,1591938258
"Cerro Bejuco","Cerro Bejuco",,8.8871,-80.5052,Panama,PA,PAN,Coclé,Cocle,PA-2,province,,19.3,,,4,America/Panama,FALSE,1591003164
"Maestro Víctor","Maestro Victor",,7.6570,-80.3822,Panama,PA,PAN,"Los Santos","Los Santos",PA-7,province,,6.4,,,5,America/Panama,FALSE,1591150969
"Mi Pueblito","Mi Pueblito",,7.9854,-77.6069,Panama,PA,PAN,Darién,Darien,PA-5,province,,2.1,,,5,America/Panama,FALSE,1591005294
"Llano Grande","Llano Grande","Llano Grade",8.0756,-81.1348,Panama,PA,PAN,Veraguas,Veraguas,PA-9,province,minor,24.6,,,3,America/Panama,FALSE,1591000011
"Llano Grande","Llano Grande",,8.2666,-81.0702,Panama,PA,PAN,Veraguas,Veraguas,PA-9,province,,34.6,,,4,America/Panama,TRUE,1591254425
"Llano Grande","Llano Grande",,8.1823,-81.3139,Panama,PA,PAN,Veraguas,Veraguas,PA-9,province,,26.4,,,4,America/Panama,TRUE,1591596256
"Llano Grande","Llano Grande",,8.2490,-81.1288,Panama,PA,PAN,Veraguas,Veraguas,PA-9,province,,19.1,,,4,America/Panama,TRUE,1591170974
"Llano Grande","Llano Grande",,8.3470,-80.8106,Panama,PA,PAN,Veraguas,Veraguas,PA-9,province,,14.6,,,4,America/Panama,TRUE,1591003677
"Llano Grande","Llano Grande",,8.3634,-80.7397,Panama,PA,PAN,Veraguas,Veraguas,PA-9,province,,7.6,,,5,America/Panama,TRUE,1591003678
Cogomudugue,Cogomudugue,,9.0887,-81.8889,Panama,PA,PAN,Ngäbe-Buglé,Ngabe-Bugle,PA-NB,"indigenous region",,55.9,,,4,America/Panama,FALSE,1591001742
"Las Canaletas","Las Canaletas",,8.3903,-80.7881,Panama,PA,PAN,Veraguas,Veraguas,PA-9,province,,14.5,,,4,America/Panama,FALSE,1591004132
Bambú,Bambu,,9.4010,-82.5047,Panama,PA,PAN,"Bocas del Toro","Bocas del Toro",PA-1,province,,76.3,,,4,America/Panama,FALSE,1591001810
"Herradura de Paraíso","Herradura de Paraiso",,8.6423,-82.5860,Panama,PA,PAN,Chiriquí,Chiriqui,PA-4,province,,38.9,,,4,America/Panama,FALSE,1591000090
Cantero,Cantero,,8.4048,-80.7499,Panama,PA,PAN,Veraguas,Veraguas,PA-9,province,,14.2,,,4,America/Panama,FALSE,1591082039
Bambú,Bambu,,8.6456,-81.2027,Panama,PA,PAN,Veraguas,Veraguas,PA-9,province,,7.7,,,5,America/Panama,FALSE,1591001661
Achutupo,Achutupo,Achutupu,9.1960,-77.9940,Panama,PA,PAN,"Guna Yala","Guna Yala",PA-KY,"indigenous region",,18.8,,,4,America/Panama,FALSE,1591360385
"Las Tres Bocas","Las Tres Bocas","Tres Bocas",9.0833,-80.2167,Panama,PA,PAN,Colón,Colon,PA-3,province,,19.5,,,4,America/Panama,FALSE,1591564231
"Las Tres Bocas","Las Tres Bocas",,8.3979,-82.1221,Panama,PA,PAN,Chiriquí,Chiriqui,PA-4,province,,10.5,,,4,America/Panama,FALSE,1591000029
"La Estancia Número Uno","La Estancia Numero Uno","La Estancia",8.5500,-80.2167,Panama,PA,PAN,Coclé,Cocle,PA-2,province,,106.2,,,4,America/Panama,FALSE,1591786109
"Norteño Arriba","Norteno Arriba",,8.9967,-82.3057,Panama,PA,PAN,Ngäbe-Buglé,Ngabe-Bugle,PA-NB,"indigenous region",,19.7,,,4,America/Panama,FALSE,1591002196
"San Juan de Pequení","San Juan de Pequeni",,9.3747,-79.5275,Panama,PA,PAN,Panamá,Panama,PA-8,province,,67.2,,,4,America/Panama,FALSE,1591438158
"Cabecera de Cogollo","Cabecera de Cogollo",,8.5814,-82.0172,Panama,PA,PAN,Ngäbe-Buglé,Ngabe-Bugle,PA-NB,"indigenous region",,32.6,,,4,America/Panama,FALSE,1591001844
"Sitio Prado","Sitio Prado","Sitio Praco",8.3667,-81.5833,Panama,PA,PAN,Ngäbe-Buglé,Ngabe-Bugle,PA-NB,"indigenous region",minor,57.2,,,3,America/Panama,FALSE,1591290559
"Sibube Adentro","Sibube Adentro",,9.5866,-82.8290,Panama,PA,PAN,"Bocas del Toro","Bocas del Toro",PA-1,province,,23.9,,,4,America/Panama,FALSE,1591003882
Damani,Damani,,8.9481,-81.7215,Panama,PA,PAN,Ngäbe-Buglé,Ngabe-Bugle,PA-NB,"indigenous region",,24.0,,,4,America/Panama,FALSE,1591002930
"El Higo","El Higo",,8.5333,-80.1500,Panama,PA,PAN,Coclé,Cocle,PA-2,province,,47.9,,,4,America/Panama,FALSE,1591364274
"El Higo","El Higo",,8.2944,-80.6425,Panama,PA,PAN,Coclé,Cocle,PA-2,province,,42.4,,,4,America/Panama,TRUE,1591662348
"Cabecera de Muay","Cabecera de Muay",,8.7928,-81.6331,Panama,PA,PAN,Ngäbe-Buglé,Ngabe-Bugle,PA-NB,"indigenous region",,9.6,,,5,America/Panama,FALSE,1591000952
"Cerro Zorra","Cerro Zorra",,8.5437,-81.7942,Panama,PA,PAN,Ngäbe-Buglé,Ngabe-Bugle,PA-NB,"indigenous region",,23.7,,,4,America/Panama,FALSE,1591003185
"Río Diablo","Rio Diablo",,9.0342,-81.7292,Panama,PA,PAN,Ngäbe-Buglé,Ngabe-Bugle,PA-NB,"indigenous region",,35.3,,,4,America/Panama,FALSE,1591003596
"El Higo","El Higo",,8.5784,-82.3875,Panama,PA,PAN,Chiriquí,Chiriqui,PA-4,province,,36.1,,,4,America/Panama,FALSE,1591366600
"El Higo","El Higo","Alto del Higo",8.4945,-82.2065,Panama,PA,PAN,Chiriquí,Chiriqui,PA-4,province,,10.3,,,4,America/Panama,TRUE,1591887272
"El Higo","El Higo",,8.2045,-81.4198,Panama,PA,PAN,Veraguas,Veraguas,PA-9,province,,37.4,,,4,America/Panama,FALSE,1591568735
"El Higo","El Higo",,8.1355,-80.7748,Panama,PA,PAN,Veraguas,Veraguas,PA-9,province,,33.5,,,4,America/Panama,TRUE,1591770826
"El Higo","El Higo",,8.2146,-81.3259,Panama,PA,PAN,Veraguas,Veraguas,PA-9,province,,26.4,,,4,America/Panama,TRUE,1591055034
"El Higo","El Higo",,8.3887,-81.4137,Panama,PA,PAN,Veraguas,Veraguas,PA-9,province,,13.5,,,4,America/Panama,TRUE,1591073143
"Los Papayales","Los Papayales",,8.5127,-82.3534,Panama,PA,PAN,Chiriquí,Chiriqui,PA-4,province,,36.1,,,4,America/Panama,FALSE,1591634276
"Los Callejones","Los Callejones","Callejones|Boca de Puerco",8.2796,-80.6883,Panama,PA,PAN,Coclé,Cocle,PA-2,province,,7.6,,,5,America/Panama,FALSE,1591723941
"Los Callejones","Los Callejones",,7.7458,-80.2891,Panama,PA,PAN,"Los Santos","Los Santos",PA-7,province,,482.7,,,3,America/Panama,FALSE,1591003365
Mosquito,Mosquito,,8.5412,-81.9307,Panama,PA,PAN,Ngäbe-Buglé,Ngabe-Bugle,PA-NB,"indigenous region",,32.9,,,4,America/Panama,FALSE,1591003597
"Santa Ana Abajo","Santa Ana Abajo","La Tembladera Abajo",7.9445,-80.3733,Panama,PA,PAN,"Los Santos","Los Santos",PA-7,province,,56.9,,,4,America/Panama,FALSE,1591378024
"La Bejucosa","La Bejucosa",,7.7599,-81.5655,Panama,PA,PAN,Veraguas,Veraguas,PA-9,province,,6.4,,,5,America/Panama,FALSE,1591337320
"El Cuaco","El Cuaco",,7.8259,-81.4388,Panama,PA,PAN,Veraguas,Veraguas,PA-9,province,,6.0,,,5,America/Panama,FALSE,1591913415
Galápago,Galapago,,8.1111,-81.5490,Panama,PA,PAN,Veraguas,Veraguas,PA-9,province,,27.5,,,4,America/Panama,FALSE,1591643935
"Quebrada Los Mendozo","Quebrada Los Mendozo",,9.0594,-78.8755,Panama,PA,PAN,Panamá,Panama,PA-8,province,,8.2,,,5,America/Panama,FALSE,1591005002
"Alto del Chirú","Alto del Chiru",,8.5702,-80.5167,Panama,PA,PAN,Coclé,Cocle,PA-2,province,,52.3,,,4,America/Panama,FALSE,1591001047
"Boca de Oria","Boca de Oria",,7.4333,-80.1333,Panama,PA,PAN,"Los Santos","Los Santos",PA-7,province,,3.8,,,5,America/Panama,FALSE,1591625830
"Bajo Gago","Bajo Gago",,8.4648,-81.6306,Panama,PA,PAN,Ngäbe-Buglé,Ngabe-Bugle,PA-NB,"indigenous region",,45.4,,,4,America/Panama,FALSE,1591000626
"Las Yescas Abajo","Las Yescas Abajo",,7.7333,-80.7000,Panama,PA,PAN,Herrera,Herrera,PA-6,province,,24.3,,,4,America/Panama,FALSE,1591938638
"El Corcovado","El Corcovado","El Corcorado",7.8993,-80.8877,Panama,PA,PAN,Herrera,Herrera,PA-6,province,,24.9,,,4,America/Panama,FALSE,1591659273
"La Trinidad","La Trinidad",,8.1818,-81.5103,Panama,PA,PAN,Ngäbe-Buglé,Ngabe-Bugle,PA-NB,"indigenous region",,95.8,,,4,America/Panama,FALSE,1591092822
Cornozuelo,Cornozuelo,,8.3662,-82.6073,Panama,PA,PAN,Chiriquí,Chiriqui,PA-4,province,,19.1,,,4,America/Panama,FALSE,1591278408
"Boca de Gatuncillo","Boca de Gatuncillo","Boco de Gatuncillo",9.2072,-79.6497,Panama,PA,PAN,Colón,Colon,PA-3,province,,80.7,,,4,America/Panama,FALSE,1591475483
"Los Muñoces","Los Munoces",,7.5576,-80.4122,Panama,PA,PAN,"Los Santos","Los Santos",PA-7,province,,6.4,,,5,America/Panama,FALSE,1591788970
Machoncito,Machoncito,,8.7616,-80.5332,Panama,PA,PAN,Coclé,Cocle,PA-2,province,,19.3,,,4,America/Panama,FALSE,1591533862
"Baitún Arriba","Baitun Arriba",Baitún,8.6531,-82.7798,Panama,PA,PAN,Chiriquí,Chiriqui,PA-4,province,,28.4,,,4,America/Panama,FALSE,1591176220
Tubusinica,Tubusinica,Tubasonica|Gunboato,9.4833,-78.8833,Panama,PA,PAN,"Guna Yala","Guna Yala",PA-KY,"indigenous region",,0,,,5,America/Panama,FALSE,1591943343
Dakles,Dakles,,9.5102,-82.8420,Panama,PA,PAN,"Bocas del Toro","Bocas del Toro",PA-1,province,,23.9,,,4,America/Panama,FALSE,1591003491
"Boca del Río Chorchita","Boca del Rio Chorchita",,8.4818,-82.1782,Panama,PA,PAN,Ngäbe-Buglé,Ngabe-Bugle,PA-NB,"indigenous region",,17.0,,,4,America/Panama,FALSE,1591000197
Ceiba,Ceiba,,9.0064,-82.4566,Panama,PA,PAN,"Bocas del Toro","Bocas del Toro",PA-1,province,,5.0,,,5,America/Panama,FALSE,1591002832
Ceiba,Ceiba,,8.8011,-80.5935,Panama,PA,PAN,Colón,Colon,PA-3,province,,14.1,,,4,America/Panama,FALSE,1591002833
Talanquera,Talanquera,,7.8833,-81.4833,Panama,PA,PAN,Veraguas,Veraguas,PA-9,province,,9.0,,,5,America/Panama,FALSE,1591345768
Picara,Picara,,8.8478,-81.7041,Panama,PA,PAN,Ngäbe-Buglé,Ngabe-Bugle,PA-NB,"indigenous region",,35.3,,,4,America/Panama,FALSE,1591004151
"Loma de La Cigarra","Loma de La Cigarra",,8.8904,-80.1840,Panama,PA,PAN,Coclé,Cocle,PA-2,province,,19.0,,,4,America/Panama,FALSE,1591004164
"El Yerbo","El Yerbo",,7.9007,-80.7369,Panama,PA,PAN,Herrera,Herrera,PA-6,province,,58.6,,,4,America/Panama,FALSE,1591576379
"Fish Creek","Fish Creek","Pescado|Fish Creek Village|Frish Creek",8.9980,-82.2315,Panama,PA,PAN,"Bocas del Toro","Bocas del Toro",PA-1,province,,52.1,,,4,America/Panama,FALSE,1591069462
"El Tigre de Los Amarillos","El Tigre de Los Amarillos","El Tigre",7.7029,-81.2517,Panama,PA,PAN,Veraguas,Veraguas,PA-9,province,,16.1,,,4,America/Panama,FALSE,1591332063
"Salto Tres Piedras","Salto Tres Piedras",,8.7002,-78.4043,Panama,PA,PAN,Darién,Darien,PA-5,province,,7.2,,,5,America/Panama,FALSE,1591004734
"Los Chiriquíes","Los Chiriquies",,8.3202,-82.5249,Panama,PA,PAN,Chiriquí,Chiriqui,PA-4,province,,35.2,,,4,America/Panama,FALSE,1591001338
"La Tronosa","La Tronosa",,9.0907,-82.2918,Panama,PA,PAN,"Bocas del Toro","Bocas del Toro",PA-1,province,,69.3,,,4,America/Panama,FALSE,1591055694
"La Tronosa","La Tronosa",,7.4362,-80.5897,Panama,PA,PAN,"Los Santos","Los Santos",PA-7,province,minor,8.4,,,3,America/Panama,FALSE,1591898405
Palmilla,Palmilla,,8.9065,-80.7945,Panama,PA,PAN,Colón,Colon,PA-3,province,,5.0,,,5,America/Panama,FALSE,1591469381
"La Tronosa","La Tronosa",,9.2592,-79.0393,Panama,PA,PAN,Panamá,Panama,PA-8,province,,22.0,,,4,America/Panama,FALSE,1591004201
Palmilla,Palmilla,"La Palmilla",8.1661,-81.5727,Panama,PA,PAN,Veraguas,Veraguas,PA-9,province,,81.3,,,4,America/Panama,FALSE,1591363621
Palmilla,Palmilla,,7.5898,-80.9599,Panama,PA,PAN,Veraguas,Veraguas,PA-9,province,,8.9,,,5,America/Panama,TRUE,1591368777
Baltazar,Baltazar,,8.4533,-80.8853,Panama,PA,PAN,Veraguas,Veraguas,PA-9,province,,13.2,,,4,America/Panama,FALSE,1591002037
"Río Muñoz","Rio Munoz",,7.6246,-80.1018,Panama,PA,PAN,"Los Santos","Los Santos",PA-7,province,,18.9,,,4,America/Panama,FALSE,1591996902
Madroñal,Madronal,,8.3901,-82.2045,Panama,PA,PAN,Chiriquí,Chiriqui,PA-4,province,,10.5,,,4,America/Panama,FALSE,1591567666
"Cabecera de Quebrada Lajas","Cabecera de Quebrada Lajas",,8.0770,-81.2156,Panama,PA,PAN,Veraguas,Veraguas,PA-9,province,,19.8,,,4,America/Panama,FALSE,1591001850
"Bahía Grande","Bahia Grande","Big Bight|Ensenada Grande|Puerto Laurel",9.2440,-82.2896,Panama,PA,PAN,"Bocas del Toro","Bocas del Toro",PA-1,province,,42.4,,,4,America/Panama,FALSE,1591175844
Tolote,Tolote,,8.5397,-81.7727,Panama,PA,PAN,Ngäbe-Buglé,Ngabe-Bugle,PA-NB,"indigenous region",,27.0,,,4,America/Panama,FALSE,1591860194
Tolote,Tolote,,8.5759,-81.7429,Panama,PA,PAN,Ngäbe-Buglé,Ngabe-Bugle,PA-NB,"indigenous region",,27.0,,,4,America/Panama,TRUE,1591000819
Tolote,Tolote,,8.8602,-82.2455,Panama,PA,PAN,Ngäbe-Buglé,Ngabe-Bugle,PA-NB,"indigenous region",,17.9,,,4,America/Panama,TRUE,1591000818
"Quebrada Marcelino","Quebrada Marcelino",,8.8603,-82.1101,Panama,PA,PAN,Ngäbe-Buglé,Ngabe-Bugle,PA-NB,"indigenous region",,28.6,,,4,America/Panama,FALSE,1591002877
"Santos Ortiz","Santos Ortiz",,8.6000,-80.4167,Panama,PA,PAN,Coclé,Cocle,PA-2,province,,49.0,,,4,America/Panama,FALSE,1591934684
"Puerto Mariato","Puerto Mariato",,7.6714,-81.0383,Panama,PA,PAN,Veraguas,Veraguas,PA-9,province,,8.9,,,5,America/Panama,FALSE,1591590734
"Los Coquitos","Los Coquitos","El Coquito",8.0174,-81.4381,Panama,PA,PAN,Veraguas,Veraguas,PA-9,province,,10.7,,,4,America/Panama,FALSE,1591492656
Ñuri,Nuri,Ñurí,8.9278,-81.8187,Panama,PA,PAN,Ngäbe-Buglé,Ngabe-Bugle,PA-NB,"indigenous region",,21.7,,,4,America/Panama,FALSE,1591843382
Carmona,Carmona,,8.8189,-80.9587,Panama,PA,PAN,Veraguas,Veraguas,PA-9,province,,4.2,,,5,America/Panama,FALSE,1591002137
"Puerto de Trinidad","Puerto de Trinidad","Puerto Trinidad",8.9808,-79.9828,Panama,PA,PAN,"Panamá Oeste","Panama Oeste",PA-10,province,,17.8,,,4,America/Panama,FALSE,1591909640
"El Faro","El Faro",,7.9957,-80.3933,Panama,PA,PAN,Herrera,Herrera,PA-6,province,,1064.4,,,3,America/Panama,FALSE,1591004127
"Bajos de Iglesia","Bajos de Iglesia",,8.5333,-78.0667,Panama,PA,PAN,Darién,Darien,PA-5,province,,4.0,,,5,America/Panama,FALSE,1591091547
"Superación Campesina","Superacion Campesina",,9.1601,-79.1508,Panama,PA,PAN,Panamá,Panama,PA-8,province,,52.9,,,4,America/Panama,FALSE,1591717326
Huile,Huile,,9.0344,-79.7369,Panama,PA,PAN,"Panamá Oeste","Panama Oeste",PA-10,province,,50.7,,,4,America/Panama,FALSE,1591117170
"Las Margaritas","Las Margaritas","La Margarita",9.2262,-80.0945,Panama,PA,PAN,Colón,Colon,PA-3,province,,48.7,,,4,America/Panama,FALSE,1591012875
"Las Margaritas","Las Margaritas",,9.5763,-79.4811,Panama,PA,PAN,Colón,Colon,PA-3,province,,9.3,,,5,America/Panama,TRUE,1591004796
Ají,Aji,,8.4040,-81.9321,Panama,PA,PAN,Ngäbe-Buglé,Ngabe-Bugle,PA-NB,"indigenous region",,47.3,,,4,America/Panama,FALSE,1591003418
"Las Palmitas","Las Palmitas",,7.7670,-80.2903,Panama,PA,PAN,"Los Santos","Los Santos",PA-7,province,minor,404.1,,,3,America/Panama,FALSE,1591432916
"Las Palmitas","Las Palmitas","El Rompío",7.3333,-80.5000,Panama,PA,PAN,"Los Santos","Los Santos",PA-7,province,,5.2,,,5,America/Panama,TRUE,1591082183
"Las Palmitas","Las Palmitas",,9.5205,-82.7062,Panama,PA,PAN,"Bocas del Toro","Bocas del Toro",PA-1,province,,25.0,,,4,America/Panama,FALSE,1591002962
Dolega,Dolega,,8.5651,-82.4134,Panama,PA,PAN,Chiriquí,Chiriqui,PA-4,province,minor,121.2,,,3,America/Panama,FALSE,1591500105
"Las Palmitas","Las Palmitas",,9.2117,-80.0922,Panama,PA,PAN,Colón,Colon,PA-3,province,,42.1,,,4,America/Panama,FALSE,1591093878
"Güerita del Platanal","Guerita del Platanal",Güerita,7.6000,-80.5500,Panama,PA,PAN,"Los Santos","Los Santos",PA-7,province,,17.1,,,4,America/Panama,FALSE,1591769627
"Las Palmitas","Las Palmitas",,8.3816,-80.8516,Panama,PA,PAN,Veraguas,Veraguas,PA-9,province,,16.2,,,4,America/Panama,FALSE,1591002964
"Las Palmitas","Las Palmitas","La Palmita",7.6916,-80.9529,Panama,PA,PAN,Veraguas,Veraguas,PA-9,province,,6.4,,,5,America/Panama,TRUE,1591147004
"Majagua Civil Número Dos","Majagua Civil Numero Dos","Majagua Civil",8.3429,-82.9308,Panama,PA,PAN,Chiriquí,Chiriqui,PA-4,province,,108.5,,,4,America/Panama,FALSE,1591747876
"El Pepino","El Pepino",,9.0836,-80.0967,Panama,PA,PAN,Colón,Colon,PA-3,province,,30.8,,,4,America/Panama,FALSE,1591004362
"Nuevo Paraíso","Nuevo Paraiso",,8.7833,-79.8167,Panama,PA,PAN,"Panamá Oeste","Panama Oeste",PA-10,province,,136.6,,,4,America/Panama,FALSE,1591885664
"Nuevo Paraíso","Nuevo Paraiso",,8.9192,-80.0797,Panama,PA,PAN,"Panamá Oeste","Panama Oeste",PA-10,province,,27.8,,,4,America/Panama,TRUE,1591164943
"Agua Salud","Agua Salud",,9.5110,-82.8060,Panama,PA,PAN,"Bocas del Toro","Bocas del Toro",PA-1,province,,23.9,,,4,America/Panama,FALSE,1591004150
"El Ciruelito","El Ciruelito",,7.8537,-80.5656,Panama,PA,PAN,Herrera,Herrera,PA-6,province,,32.8,,,4,America/Panama,FALSE,1591922716
"El Ciruelito","El Ciruelito","El Ciruelo",7.9953,-80.6295,Panama,PA,PAN,Herrera,Herrera,PA-6,province,,22.3,,,4,America/Panama,TRUE,1591058538
Bailamonos,Bailamonos,,9.1492,-80.1253,Panama,PA,PAN,Colón,Colon,PA-3,province,,23.1,,,4,America/Panama,FALSE,1591004830
"Entrada a Punta Chame","Entrada a Punta Chame",,8.6396,-79.7167,Panama,PA,PAN,"Panamá Oeste","Panama Oeste",PA-10,province,,34.0,,,4,America/Panama,FALSE,1591004685
"Las Margaritas","Las Margaritas",,8.5624,-80.0676,Panama,PA,PAN,"Panamá Oeste","Panama Oeste",PA-10,province,,64.8,,,4,America/Panama,FALSE,1591083758
"San Rafael","San Rafael",,7.8322,-81.4724,Panama,PA,PAN,Veraguas,Veraguas,PA-9,province,,9.0,,,5,America/Panama,FALSE,1591423837
"San Rafael","San Rafael",,9.1000,-79.2833,Panama,PA,PAN,Panamá,Panama,PA-8,province,,163.4,,,4,America/Panama,FALSE,1591957913
Oajaca,Oajaca,Oaxaca,8.6340,-80.2053,Panama,PA,PAN,Coclé,Cocle,PA-2,province,,68.2,,,4,America/Panama,FALSE,1591025007
Rodeo,Rodeo,,8.3410,-80.9294,Panama,PA,PAN,Veraguas,Veraguas,PA-9,province,,13.2,,,4,America/Panama,FALSE,1591001537
Mula,Mula,"La Mula|Las Mulas",8.6462,-80.4642,Panama,PA,PAN,Coclé,Cocle,PA-2,province,,19.3,,,4,America/Panama,FALSE,1591138908
"La Montañuela Abajo","La Montanuela Abajo",,8.0810,-81.0667,Panama,PA,PAN,Veraguas,Veraguas,PA-9,province,,35.7,,,4,America/Panama,FALSE,1591000672
"Piñal Número Uno","Pinal Numero Uno","Piñal Número 1|Piñal",8.1361,-81.3176,Panama,PA,PAN,Veraguas,Veraguas,PA-9,province,,16.2,,,4,America/Panama,FALSE,1591039383
"Sabana de Huso","Sabana de Huso",,8.5725,-82.0586,Panama,PA,PAN,Ngäbe-Buglé,Ngabe-Bugle,PA-NB,"indigenous region",,32.6,,,4,America/Panama,FALSE,1591296484
"Los Alveos","Los Alveos",,8.5333,-80.1667,Panama,PA,PAN,Coclé,Cocle,PA-2,province,,49.4,,,4,America/Panama,FALSE,1591488790
Corari,Corari,,8.7927,-81.8117,Panama,PA,PAN,Ngäbe-Buglé,Ngabe-Bugle,PA-NB,"indigenous region",,33.9,,,4,America/Panama,FALSE,1591001946
"Chorcha Abajo","Chorcha Abajo",Chorcha,8.3692,-82.2798,Panama,PA,PAN,Chiriquí,Chiriqui,PA-4,province,,24.7,,,4,America/Panama,FALSE,1591827726
"La Zahumería","La Zahumeria",,7.4422,-80.5020,Panama,PA,PAN,"Los Santos","Los Santos",PA-7,province,,12.3,,,4,America/Panama,FALSE,1591090473
"Alto Ortiga","Alto Ortiga",,8.6100,-81.2111,Panama,PA,PAN,Veraguas,Veraguas,PA-9,province,,7.7,,,5,America/Panama,FALSE,1591229813
"Quebrada Balso","Quebrada Balso","Los Balsas|Los Balsos",9.1257,-82.3455,Panama,PA,PAN,Ngäbe-Buglé,Ngabe-Bugle,PA-NB,"indigenous region",,52.3,,,4,America/Panama,FALSE,1591427510
"El Guineo","El Guineo",,7.7562,-81.3016,Panama,PA,PAN,Veraguas,Veraguas,PA-9,province,,16.1,,,4,America/Panama,FALSE,1591080153
"El Silencio","El Silencio",,8.5200,-80.4029,Panama,PA,PAN,Coclé,Cocle,PA-2,province,,131.6,,,4,America/Panama,FALSE,1591615900
"El Silencio","El Silencio","El Silencio Número Dos|El Silencio Grande de las Marías",8.8903,-80.1981,Panama,PA,PAN,Coclé,Cocle,PA-2,province,,19.0,,,4,America/Panama,TRUE,1591566655
"El Silencio","El Silencio",,8.5987,-80.6226,Panama,PA,PAN,Coclé,Cocle,PA-2,province,,17.5,,,4,America/Panama,TRUE,1591002329
Gatún,Gatun,"Río Gatún",9.2667,-79.9167,Panama,PA,PAN,Colón,Colon,PA-3,province,,63.1,,,4,America/Panama,FALSE,1591039947
Perequé,Pereque,Pereque,8.2727,-80.7419,Panama,PA,PAN,Veraguas,Veraguas,PA-9,province,,17.5,,,4,America/Panama,FALSE,1591256756
"El Zoológico","El Zoologico",,8.5287,-81.0888,Panama,PA,PAN,Veraguas,Veraguas,PA-9,province,,20.9,,,4,America/Panama,FALSE,1591001184
"Isleta Rinconcito","Isleta Rinconcito",,8.9835,-80.6780,Panama,PA,PAN,Colón,Colon,PA-3,province,,5.0,,,5,America/Panama,FALSE,1591000609
"La Victoria","La Victoria",,8.3988,-82.9512,Panama,PA,PAN,Chiriquí,Chiriqui,PA-4,province,,93.9,,,4,America/Panama,FALSE,1591643119
"La Victoria","La Victoria",,8.4546,-82.2502,Panama,PA,PAN,Chiriquí,Chiriqui,PA-4,province,,26.2,,,4,America/Panama,TRUE,1591945798
"El Faldar","El Faldar",,8.6759,-79.9676,Panama,PA,PAN,"Panamá Oeste","Panama Oeste",PA-10,province,,61.7,,,4,America/Panama,FALSE,1591005244
Calabazo,Calabazo,,8.1799,-78.0694,Panama,PA,PAN,Darién,Darien,PA-5,province,,5.3,,,5,America/Panama,FALSE,1591005424
"Santa Fe","Santa Fe",,7.5704,-80.6663,Panama,PA,PAN,"Los Santos","Los Santos",PA-7,province,,13.3,,,4,America/Panama,FALSE,1591729769
"El Ranchito","El Ranchito",,7.5268,-81.1978,Panama,PA,PAN,Veraguas,Veraguas,PA-9,province,,5.0,,,5,America/Panama,FALSE,1591003903
"Nueva Italia","Nueva Italia",,9.3073,-79.8057,Panama,PA,PAN,Colón,Colon,PA-3,province,,413.6,,,3,America/Panama,FALSE,1591220624
"Río Parita Arriba","Rio Parita Arriba",,7.8176,-80.8037,Panama,PA,PAN,Herrera,Herrera,PA-6,province,,15.8,,,4,America/Panama,FALSE,1591002840
"Agua de Salud","Agua de Salud",,8.5105,-81.4742,Panama,PA,PAN,Ngäbe-Buglé,Ngabe-Bugle,PA-NB,"indigenous region",minor,29.9,,,3,America/Panama,FALSE,1591980550
"Boquerón Viejo","Boqueron Viejo",,8.5190,-82.5871,Panama,PA,PAN,Chiriquí,Chiriqui,PA-4,province,,111.6,,,4,America/Panama,FALSE,1591169351
"El Peñón","El Penon",,8.4979,-81.4229,Panama,PA,PAN,Ngäbe-Buglé,Ngabe-Bugle,PA-NB,"indigenous region",,14.2,,,4,America/Panama,FALSE,1591501314
"Loma de Ño Eulogio","Loma de No Eulogio","Loma de Ña Eulogia",7.9042,-81.3700,Panama,PA,PAN,Veraguas,Veraguas,PA-9,province,,6.0,,,5,America/Panama,FALSE,1591518027
"Pirre Número Dos","Pirre Numero Dos","Pirre Número 2",8.0703,-77.7470,Panama,PA,PAN,Darién,Darien,PA-5,province,,10.5,,,4,America/Panama,FALSE,1591004283
"Valle de Las Minas","Valle de Las Minas","Valle de La Mina",8.6640,-82.2220,Panama,PA,PAN,Chiriquí,Chiriqui,PA-4,province,minor,9.8,,,3,America/Panama,FALSE,1591170997
"Los Potrerillos","Los Potrerillos",,8.6441,-80.4462,Panama,PA,PAN,Coclé,Cocle,PA-2,province,,19.3,,,4,America/Panama,FALSE,1591001312
Castillito,Castillito,,9.0833,-80.2000,Panama,PA,PAN,Colón,Colon,PA-3,province,,23.0,,,4,America/Panama,FALSE,1591578847
"Palo Blanco","Palo Blanco",,8.3113,-82.8382,Panama,PA,PAN,Chiriquí,Chiriqui,PA-4,province,,110.8,,,4,America/Panama,FALSE,1591000208
"Villa Nueva","Villa Nueva",,8.2181,-77.5472,Panama,PA,PAN,Emberá-Wounaan,Embera-Wounaan,PA-EM,"indigenous region",,6.6,,,5,America/Panama,FALSE,1591957042
Chichica,Chichica,,8.7462,-80.6117,Panama,PA,PAN,Coclé,Cocle,PA-2,province,,25.6,,,4,America/Panama,FALSE,1591002313
"La Floral","La Floral","Floral|El Floral",8.0521,-80.8651,Panama,PA,PAN,Herrera,Herrera,PA-6,province,,46.7,,,4,America/Panama,FALSE,1591137001
"El Palmar","El Palmar","Palmas Bellas",8.7667,-79.8500,Panama,PA,PAN,"Panamá Oeste","Panama Oeste",PA-10,province,,136.6,,,4,America/Panama,FALSE,1591377007
"La Lima Arriba","La Lima Arriba",,8.3054,-81.2456,Panama,PA,PAN,Veraguas,Veraguas,PA-9,province,,61.1,,,4,America/Panama,FALSE,1591003202
"Los Manantiales","Los Manantiales",Manantiales,7.7167,-80.6833,Panama,PA,PAN,Herrera,Herrera,PA-6,province,,24.5,,,4,America/Panama,FALSE,1591849161
Ventana,Ventana,,7.2265,-80.7933,Panama,PA,PAN,Veraguas,Veraguas,PA-9,province,,1.5,,,5,America/Panama,FALSE,1591003622
"Pleasant View","Pleasant View",,9.2900,-82.2603,Panama,PA,PAN,"Bocas del Toro","Bocas del Toro",PA-1,province,,42.4,,,4,America/Panama,FALSE,1591686224
"Río Uyama","Rio Uyama",,9.1397,-82.2977,Panama,PA,PAN,"Bocas del Toro","Bocas del Toro",PA-1,province,,22.6,,,4,America/Panama,FALSE,1591004028
"El Pernal","El Pernal",Pernal,8.7613,-80.3199,Panama,PA,PAN,Coclé,Cocle,PA-2,province,,28.1,,,4,America/Panama,FALSE,1591363148
"Santa Rosa Número Uno","Santa Rosa Numero Uno","Santa Rosa",8.8646,-80.0992,Panama,PA,PAN,"Panamá Oeste","Panama Oeste",PA-10,province,minor,23.4,,,3,America/Panama,FALSE,1591036738
Guarumal,Guarumal,"El Guarumal",7.8366,-80.7729,Panama,PA,PAN,Herrera,Herrera,PA-6,province,,24.3,,,4,America/Panama,FALSE,1591270449
Lajero,Lajero,"Lajero Arriba",8.2900,-81.7701,Panama,PA,PAN,Ngäbe-Buglé,Ngabe-Bugle,PA-NB,"indigenous region",minor,286.9,,,3,America/Panama,FALSE,1591645075
Lajero,Lajero,"San Juan|Lajal",8.3735,-81.9726,Panama,PA,PAN,Ngäbe-Buglé,Ngabe-Bugle,PA-NB,"indigenous region",,93.7,,,4,America/Panama,TRUE,1591523038
Guarumal,Guarumal,,8.3479,-82.5298,Panama,PA,PAN,Chiriquí,Chiriqui,PA-4,province,minor,35.2,,,3,America/Panama,FALSE,1591685005
Guarumal,Guarumal,,8.5795,-80.4893,Panama,PA,PAN,Coclé,Cocle,PA-2,province,,49.0,,,4,America/Panama,FALSE,1591712619
"Las Zatras","Las Zatras","Las Zatras Arriba",7.8197,-80.3965,Panama,PA,PAN,"Los Santos","Los Santos",PA-7,province,,113.3,,,4,America/Panama,FALSE,1591681737
"Quebrada La Conga","Quebrada La Conga",,8.9475,-80.1870,Panama,PA,PAN,Coclé,Cocle,PA-2,province,,19.0,,,4,America/Panama,FALSE,1591004471
"Arritupo Número Dos","Arritupo Numero Dos",Arritupo,9.4833,-78.9000,Panama,PA,PAN,"Guna Yala","Guna Yala",PA-KY,"indigenous region",,0,,,5,America/Panama,FALSE,1591344871
Espavecito,Espavecito,,8.5396,-80.0237,Panama,PA,PAN,"Panamá Oeste","Panama Oeste",PA-10,province,,40.4,,,4,America/Panama,FALSE,1591005481
Guarumal,Guarumal,,9.1473,-78.9771,Panama,PA,PAN,Panamá,Panama,PA-8,province,,52.9,,,4,America/Panama,FALSE,1591005054
Guarumal,Guarumal,,7.7989,-81.2585,Panama,PA,PAN,Veraguas,Veraguas,PA-9,province,minor,11.1,,,3,America/Panama,FALSE,1591279538
Guarumal,Guarumal,,8.1288,-81.1143,Panama,PA,PAN,Veraguas,Veraguas,PA-9,province,,15.3,,,4,America/Panama,TRUE,1591474774
Entregadero,Entregadero,,8.2827,-81.3993,Panama,PA,PAN,Veraguas,Veraguas,PA-9,province,,37.2,,,4,America/Panama,FALSE,1591000712
"El Limón","El Limon",Limón,8.4769,-80.2383,Panama,PA,PAN,Coclé,Cocle,PA-2,province,,107.6,,,4,America/Panama,FALSE,1591171657
"El Limón","El Limon",,8.4880,-80.0982,Panama,PA,PAN,Coclé,Cocle,PA-2,province,,71.0,,,4,America/Panama,TRUE,1591424111
"El Limón","El Limon",Limón,8.2828,-80.5383,Panama,PA,PAN,Coclé,Cocle,PA-2,province,,58.2,,,4,America/Panama,TRUE,1591445104
"El Limón","El Limon",,8.6943,-80.1110,Panama,PA,PAN,Coclé,Cocle,PA-2,province,,37.3,,,4,America/Panama,TRUE,1591005104
"El Limón","El Limon",,8.6176,-80.3773,Panama,PA,PAN,Coclé,Cocle,PA-2,province,,24.6,,,4,America/Panama,TRUE,1591000013
"El Limón","El Limon",,8.4333,-80.6500,Panama,PA,PAN,Coclé,Cocle,PA-2,province,,20.4,,,4,America/Panama,TRUE,1591107099
"La Revoltosa","La Revoltosa",,7.8652,-81.4035,Panama,PA,PAN,Veraguas,Veraguas,PA-9,province,,6.0,,,5,America/Panama,FALSE,1591253863
"Finca Aguacate","Finca Aguacate",,8.4130,-82.8925,Panama,PA,PAN,Chiriquí,Chiriqui,PA-4,province,,96.1,,,4,America/Panama,FALSE,1591000083
"El Salitre Número Uno","El Salitre Numero Uno","El Salitre Número 1",8.3487,-80.9006,Panama,PA,PAN,Veraguas,Veraguas,PA-9,province,,12.7,,,4,America/Panama,FALSE,1591000413
Ullama,Ullama,,8.4159,-81.9728,Panama,PA,PAN,Ngäbe-Buglé,Ngabe-Bugle,PA-NB,"indigenous region",,85.9,,,4,America/Panama,FALSE,1591003476
"Boca de Corita","Boca de Corita",,8.2685,-81.1063,Panama,PA,PAN,Veraguas,Veraguas,PA-9,province,,21.3,,,4,America/Panama,FALSE,1591931561
"Boca de Yorkín","Boca de Yorkin",,9.5716,-82.8803,Panama,PA,PAN,"Bocas del Toro","Bocas del Toro",PA-1,province,,25.2,,,4,America/Panama,FALSE,1591001949
"La Junta","La Junta",,8.7364,-80.6070,Panama,PA,PAN,Coclé,Cocle,PA-2,province,,25.6,,,4,America/Panama,FALSE,1591003408
"Boca de Río Santiaguito","Boca de Rio Santiaguito",,8.7750,-80.9486,Panama,PA,PAN,Veraguas,Veraguas,PA-9,province,,4.2,,,5,America/Panama,FALSE,1591003010
"Caño Quebrado Abajo","Cano Quebrado Abajo","Caño Quebrado Abajo Número Dos",9.0061,-79.8360,Panama,PA,PAN,"Panamá Oeste","Panama Oeste",PA-10,province,,25.5,,,4,America/Panama,FALSE,1591149579
"La Chunga","La Chunga",,8.0811,-78.2091,Panama,PA,PAN,Emberá-Wounaan,Embera-Wounaan,PA-EM,"indigenous region",,4.6,,,5,America/Panama,FALSE,1591573517
"El Barreto","El Barreto","El Barrero",8.0068,-81.2800,Panama,PA,PAN,Veraguas,Veraguas,PA-9,province,,155.6,,,4,America/Panama,FALSE,1591340797
"Pan de Azúcar","Pan de Azucar",,8.3825,-80.4310,Panama,PA,PAN,Coclé,Cocle,PA-2,province,,37.9,,,4,America/Panama,FALSE,1591417750
"Pan de Azúcar","Pan de Azucar",,8.6178,-82.3103,Panama,PA,PAN,Chiriquí,Chiriqui,PA-4,province,,10.9,,,4,America/Panama,FALSE,1591000722
"Pan de Azúcar","Pan de Azucar",,7.7322,-80.6890,Panama,PA,PAN,Herrera,Herrera,PA-6,province,,25.0,,,4,America/Panama,FALSE,1591211906
"Pan de Azúcar","Pan de Azucar",,8.3894,-81.3494,Panama,PA,PAN,Veraguas,Veraguas,PA-9,province,,17.5,,,4,America/Panama,FALSE,1591377715
"Pan de Azúcar","Pan de Azucar",,8.3209,-80.9008,Panama,PA,PAN,Veraguas,Veraguas,PA-9,province,,13.2,,,4,America/Panama,TRUE,1591858434
"Alto Meregilda","Alto Meregilda",,8.3008,-81.6362,Panama,PA,PAN,Ngäbe-Buglé,Ngabe-Bugle,PA-NB,"indigenous region",,95.1,,,4,America/Panama,FALSE,1591817569
"Brazo de Gariché","Brazo de Gariche","Brazos de Gariché",8.6968,-82.6718,Panama,PA,PAN,Chiriquí,Chiriqui,PA-4,province,,67.9,,,4,America/Panama,FALSE,1591628976
"Río Jesucito","Rio Jesucito",,7.9933,-78.2815,Panama,PA,PAN,Darién,Darien,PA-5,province,,10.3,,,4,America/Panama,FALSE,1591005259
"Boca Quebrada La Gaita","Boca Quebrada La Gaita",,8.8500,-80.0500,Panama,PA,PAN,"Panamá Oeste","Panama Oeste",PA-10,province,,29.8,,,4,America/Panama,FALSE,1591697797
Ventorrillo,Ventorrillo,,8.3987,-81.1402,Panama,PA,PAN,Veraguas,Veraguas,PA-9,province,,21.7,,,4,America/Panama,FALSE,1591000949
"El Pino","El Pino",,8.2191,-81.3884,Panama,PA,PAN,Veraguas,Veraguas,PA-9,province,,37.4,,,4,America/Panama,FALSE,1591011252
"El Pino","El Pino",,8.5841,-81.2100,Panama,PA,PAN,Veraguas,Veraguas,PA-9,province,,7.7,,,5,America/Panama,TRUE,1591001877
"El Roso","El Roso",,8.1013,-81.3575,Panama,PA,PAN,Veraguas,Veraguas,PA-9,province,,16.2,,,4,America/Panama,FALSE,1591762747
Ventorrillo,Ventorrillo,Ventorillo,8.6205,-80.5896,Panama,PA,PAN,Coclé,Cocle,PA-2,province,,26.8,,,4,America/Panama,FALSE,1591019927
"Los Uveros","Los Uveros",,8.5336,-80.3942,Panama,PA,PAN,Coclé,Cocle,PA-2,province,,125.3,,,4,America/Panama,FALSE,1591458142
"Quebrada El Jenjibre","Quebrada El Jenjibre",,8.7452,-80.7076,Panama,PA,PAN,Colón,Colon,PA-3,province,,5.0,,,5,America/Panama,FALSE,1591002796
"El Espaveral","El Espaveral",,8.9167,-80.2333,Panama,PA,PAN,Coclé,Cocle,PA-2,province,,19.0,,,4,America/Panama,FALSE,1591111358
"Caña Blanca","Cana Blanca",,8.0913,-81.3757,Panama,PA,PAN,Veraguas,Veraguas,PA-9,province,,20.7,,,4,America/Panama,FALSE,1591897237
"Caña Blanca","Cana Blanca",,8.3328,-80.8727,Panama,PA,PAN,Veraguas,Veraguas,PA-9,province,,14.6,,,4,America/Panama,TRUE,1591001203
"Caña Blanca","Cana Blanca",,8.4006,-81.3706,Panama,PA,PAN,Veraguas,Veraguas,PA-9,province,,13.5,,,4,America/Panama,TRUE,1591604808
"Caña Blanca","Cana Blanca",,7.8355,-81.4487,Panama,PA,PAN,Veraguas,Veraguas,PA-9,province,,6.1,,,5,America/Panama,TRUE,1591001204
"Caña Blanca","Cana Blanca",,9.2000,-79.2333,Panama,PA,PAN,Panamá,Panama,PA-8,province,,52.9,,,4,America/Panama,FALSE,1591261270
"San Diego","San Diego",,9.0937,-79.2528,Panama,PA,PAN,Panamá,Panama,PA-8,province,,163.4,,,4,America/Panama,FALSE,1591774885
"Canglón Número Dos","Canglon Numero Dos",Canglón,8.3343,-77.8246,Panama,PA,PAN,Darién,Darien,PA-5,province,,10.3,,,4,America/Panama,FALSE,1591462462
"Caña Blanca","Cana Blanca",,9.1325,-80.0627,Panama,PA,PAN,Colón,Colon,PA-3,province,,30.8,,,4,America/Panama,FALSE,1591004469
"Caña Blanca","Cana Blanca",,9.0041,-80.3677,Panama,PA,PAN,Colón,Colon,PA-3,province,,11.9,,,4,America/Panama,TRUE,1591002724
"Caña Blanca","Cana Blanca",,8.6101,-80.6037,Panama,PA,PAN,Coclé,Cocle,PA-2,province,,27.4,,,4,America/Panama,FALSE,1591001205
"Caña Blanca","Cana Blanca",,9.0904,-82.6058,Panama,PA,PAN,"Bocas del Toro","Bocas del Toro",PA-1,province,,5.0,,,5,America/Panama,FALSE,1591001207
"Caña Blanca","Cana Blanca","El Caña Blancal",7.3438,-80.5089,Panama,PA,PAN,"Los Santos","Los Santos",PA-7,province,,5.2,,,5,America/Panama,FALSE,1591036776
"Caña Blanca","Cana Blanca",,8.5285,-78.3462,Panama,PA,PAN,Darién,Darien,PA-5,province,,3.4,,,5,America/Panama,FALSE,1591004470
"Caña Blanca","Cana Blanca",,8.6090,-82.4750,Panama,PA,PAN,Chiriquí,Chiriqui,PA-4,province,,94.9,,,4,America/Panama,FALSE,1591528724
"Caña Blanca","Cana Blanca","Cañas Blancas",8.4114,-82.5033,Panama,PA,PAN,Chiriquí,Chiriqui,PA-4,province,,28.0,,,4,America/Panama,TRUE,1591815861
"Caña Blanca","Cana Blanca",,8.1508,-82.8780,Panama,PA,PAN,Chiriquí,Chiriqui,PA-4,province,,20.7,,,4,America/Panama,TRUE,1591588613
"Caña Blanca","Cana Blanca",,8.5501,-82.2193,Panama,PA,PAN,Chiriquí,Chiriqui,PA-4,province,,16.8,,,4,America/Panama,TRUE,1591001208
"Caña Blanca","Cana Blanca",,8.0801,-81.7006,Panama,PA,PAN,Chiriquí,Chiriqui,PA-4,province,,9.9,,,5,America/Panama,TRUE,1591816443
"Los Ranchos","Los Ranchos",,7.4570,-80.1968,Panama,PA,PAN,"Los Santos","Los Santos",PA-7,province,,3.1,,,5,America/Panama,FALSE,1591001973
Dobori,Dobori,,8.8071,-81.7273,Panama,PA,PAN,Ngäbe-Buglé,Ngabe-Bugle,PA-NB,"indigenous region",,35.3,,,4,America/Panama,FALSE,1591002001
"Nueva Concepción","Nueva Concepcion",,9.0213,-80.3688,Panama,PA,PAN,Colón,Colon,PA-3,province,,11.9,,,4,America/Panama,FALSE,1591001966
"Planta Cinco","Planta Cinco","Planta 5",9.5449,-82.5709,Panama,PA,PAN,"Bocas del Toro","Bocas del Toro",PA-1,province,,63.1,,,4,America/Panama,FALSE,1591004106
"Playa Verde","Playa Verde",,9.1348,-81.9395,Panama,PA,PAN,Ngäbe-Buglé,Ngabe-Bugle,PA-NB,"indigenous region",,55.9,,,4,America/Panama,FALSE,1591777854
"El Pixvae Número Dos","El Pixvae Numero Dos","El Pixvae Número 2",8.8208,-80.4935,Panama,PA,PAN,Coclé,Cocle,PA-2,province,,19.3,,,4,America/Panama,FALSE,1591002158
"Puerto Piña","Puerto Pina","El Puerto de Piña|Punta Tonosí|Puerto Tonosí|Puerto",7.3858,-80.4104,Panama,PA,PAN,"Los Santos","Los Santos",PA-7,province,,27.6,,,4,America/Panama,FALSE,1591440508
Viguí,Vigui,,8.3399,-81.4975,Panama,PA,PAN,Veraguas,Veraguas,PA-9,province,minor,14.0,,,3,America/Panama,FALSE,1591670424
"Hondo del Nigüito","Hondo del Niguito","El Nigüito",7.6413,-80.6343,Panama,PA,PAN,Herrera,Herrera,PA-6,province,,12.5,,,4,America/Panama,FALSE,1591394383
"La Empalizada Número Dos","La Empalizada Numero Dos","La Empalizada Número 2",8.7427,-81.2195,Panama,PA,PAN,Veraguas,Veraguas,PA-9,province,,6.4,,,5,America/Panama,FALSE,1591002162
"Alto Bonito","Alto Bonito",,8.4783,-82.0580,Panama,PA,PAN,Ngäbe-Buglé,Ngabe-Bugle,PA-NB,"indigenous region",,51.0,,,4,America/Panama,FALSE,1591457711
Tranquilla,Tranquilla,,8.5167,-79.9833,Panama,PA,PAN,"Panamá Oeste","Panama Oeste",PA-10,province,,16.8,,,4,America/Panama,FALSE,1591721524
"Brazos de Playita","Brazos de Playita",,9.2782,-78.7517,Panama,PA,PAN,Panamá,Panama,PA-8,province,,8.4,,,5,America/Panama,FALSE,1591004334
"Los Sabinos","Los Sabinos",,8.4939,-80.2249,Panama,PA,PAN,Coclé,Cocle,PA-2,province,,107.3,,,4,America/Panama,FALSE,1591005045
Jingurudó,Jingurudo,Jungurudó,7.8796,-78.0769,Panama,PA,PAN,Emberá-Wounaan,Embera-Wounaan,PA-EM,"indigenous region",minor,0.8,,,3,America/Panama,FALSE,1591226735
"El Bongo","El Bongo",,7.7284,-80.6016,Panama,PA,PAN,Herrera,Herrera,PA-6,province,,24.2,,,4,America/Panama,FALSE,1591349191
Tijera,Tijera,Tijeras|Tijaras,7.8454,-80.9031,Panama,PA,PAN,Herrera,Herrera,PA-6,province,,9.3,,,5,America/Panama,FALSE,1591922121
"Nuevo Farallón","Nuevo Farallon",,8.3827,-80.1346,Panama,PA,PAN,Coclé,Cocle,PA-2,province,,152.0,,,4,America/Panama,FALSE,1591005286
Barrigón,Barrigon,"El Barrigón",8.3757,-81.5073,Panama,PA,PAN,Veraguas,Veraguas,PA-9,province,,14.0,,,4,America/Panama,FALSE,1591820478
"Unión Santeña Arriba","Union Santena Arriba",,8.8742,-78.6197,Panama,PA,PAN,Panamá,Panama,PA-8,province,,3.3,,,5,America/Panama,FALSE,1591004166
Barrigón,Barrigon,,8.6127,-82.2785,Panama,PA,PAN,Chiriquí,Chiriqui,PA-4,province,,28.7,,,4,America/Panama,FALSE,1591644175
"Alto Aguacate","Alto Aguacate",,7.6820,-80.8743,Panama,PA,PAN,Herrera,Herrera,PA-6,province,,10.5,,,4,America/Panama,FALSE,1591000356
Pagua,Pagua,,8.6419,-80.4670,Panama,PA,PAN,Coclé,Cocle,PA-2,province,,19.3,,,4,America/Panama,FALSE,1591585160
"San Pablo","San Pablo",,9.0529,-80.5072,Panama,PA,PAN,Colón,Colon,PA-3,province,,5.0,,,5,America/Panama,FALSE,1591003523
"San Pablo","San Pablo",,8.7278,-80.2597,Panama,PA,PAN,Coclé,Cocle,PA-2,province,,28.1,,,4,America/Panama,FALSE,1591190289
"San Pablo","San Pablo",,8.8245,-80.3856,Panama,PA,PAN,Coclé,Cocle,PA-2,province,,24.7,,,4,America/Panama,TRUE,1591003524
