city,city_ascii,city_alt,lat,lng,country,iso2,iso3,admin_name,admin_name_ascii,admin_code,admin_type,capital,density,population,population_proper,ranking,timezone,same_name,id
"Port Moresby","Port Moresby",,-9.4789,147.1494,"Papua New Guinea",PG,PNG,"National Capital","National Capital",PG-NCD,district,primary,1322.4,700000,317374,1,Pacific/Port_Moresby,FALSE,1598685395
Lae,Lae,,-6.7303,147.0008,"Papua New Guinea",PG,PNG,Morobe,Morobe,PG-MPL,province,admin,897.5,193000,100677,2,Pacific/Port_Moresby,FALSE,1598466091
Popondetta,Popondetta,Popendetta,-8.7656,148.2347,"Papua New Guinea",PG,PNG,Northern,Northern,PG-NPP,province,admin,8.9,65000,49244,2,Pacific/Port_Moresby,FALSE,1598887925
Mendi,Mendi,,-6.1478,143.6572,"Papua New Guinea",PG,PNG,"Southern Highlands","Southern Highlands",PG-SHM,province,admin,189.9,56055,56055,2,Pacific/Port_Moresby,FALSE,1598467297
Arawa,Arawa,,-6.2250,155.5667,"Papua New Guinea",PG,PNG,Bougainville,Bougainville,PG-NSB,"autonomous region",,27.1,36443,36443,3,Pacific/Bougainville,FALSE,1598413091
"Mount Hagen","Mount Hagen",Hagen,-5.8600,144.2400,"Papua New Guinea",PG,PNG,"Western Highlands","Western Highlands",PG-WHM,province,admin,494.3,29765,29765,2,Pacific/Port_Moresby,FALSE,1598400611
Madang,Madang,"Friedrich-Wilhelmshafen|Friedrich Wilhelms Harbour",-5.2167,145.8000,"Papua New Guinea",PG,PNG,Madang,Madang,PG-MPM,province,admin,51.5,29339,29339,2,Pacific/Port_Moresby,FALSE,1598116558
Kimbe,Kimbe,,-5.5575,150.1550,"Papua New Guinea",PG,PNG,"West New Britain","West New Britain",PG-WBK,province,admin,31.4,27191,27191,2,Pacific/Port_Moresby,FALSE,1598372456
Wewak,Wewak,,-3.5500,143.6333,"Papua New Guinea",PG,PNG,"East Sepik","East Sepik",PG-ESW,province,admin,42.2,25143,25143,2,Pacific/Port_Moresby,FALSE,1598405100
Goroka,Goroka,"New Garoka|Garoka",-6.0833,145.3833,"Papua New Guinea",PG,PNG,"Eastern Highlands","Eastern Highlands",PG-EHG,province,admin,363.2,21507,21507,2,Pacific/Port_Moresby,FALSE,1598928169
Kokopo,Kokopo,,-4.3500,152.2736,"Papua New Guinea",PG,PNG,"East New Britain","East New Britain",PG-EBR,province,admin,217.5,20262,20262,2,Pacific/Port_Moresby,FALSE,1598823962
Bulolo,Bulolo,Bubolo,-7.2000,146.6467,"Papua New Guinea",PG,PNG,Morobe,Morobe,PG-MPL,province,,14.0,20000,20000,3,Pacific/Port_Moresby,FALSE,1598883682
Kavieng,Kavieng,Kaewieng|Kawieng,-2.5667,150.8000,"Papua New Guinea",PG,PNG,"New Ireland","New Ireland",PG-NIK,province,admin,27.6,19849,19849,2,Pacific/Port_Moresby,FALSE,1598946326
Alotau,Alotau,Alotoa,-10.3167,150.4333,"Papua New Guinea",PG,PNG,"Milne Bay","Milne Bay",PG-MBA,province,admin,14.2,15939,15939,2,Pacific/Port_Moresby,FALSE,1598284215
Tari,Tari,Tauri,-5.8489,142.9506,"Papua New Guinea",PG,PNG,Hela,Hela,PG-HLA,province,admin,116.3,15413,15413,2,Pacific/Port_Moresby,FALSE,1598669271
Daru,Daru,"Daru Government Station",-9.0833,143.2000,"Papua New Guinea",PG,PNG,Western,Western,PG-WPD,province,admin,2.1,12879,12879,2,Pacific/Port_Moresby,FALSE,1598923764
Vanimo,Vanimo,"Wanimo|Angriffs-Hafen|Attack Bay|Vanimo Government Station",-2.6667,141.2833,"Papua New Guinea",PG,PNG,"West Sepik","West Sepik",PG-SAN,province,admin,5.8,11863,11863,2,Pacific/Port_Moresby,FALSE,1598892363
Kundiawa,Kundiawa,,-6.0167,144.9667,"Papua New Guinea",PG,PNG,Chimbu,Chimbu,PG-CPK,province,admin,235.3,11553,11553,2,Pacific/Port_Moresby,FALSE,1598730976
Tabubil,Tabubil,,-5.2750,141.2264,"Papua New Guinea",PG,PNG,Western,Western,PG-WPD,province,,4.7,10270,10270,3,Pacific/Port_Moresby,FALSE,1598326031
Wau,Wau,,-7.3389,146.7167,"Papua New Guinea",PG,PNG,Morobe,Morobe,PG-MPL,province,,14.0,9442,9442,3,Pacific/Port_Moresby,FALSE,1598739902
Kiunga,Kiunga,,-6.1167,141.3000,"Papua New Guinea",PG,PNG,Western,Western,PG-WPD,province,,4.7,8265,8265,3,Pacific/Port_Moresby,FALSE,1598534040
Rabaul,Rabaul,"Simpson Harbour|Exung|Nankai Shi|Simpson-Hafen",-4.2000,152.1833,"Papua New Guinea",PG,PNG,"East New Britain","East New Britain",PG-EBR,province,,328.0,7024,7024,3,Pacific/Port_Moresby,FALSE,1598973225
Kieta,Kieta,,-6.2158,155.6328,"Papua New Guinea",PG,PNG,Bougainville,Bougainville,PG-NSB,"autonomous region",,27.1,6958,6958,3,Pacific/Bougainville,FALSE,1598490894
Aitape,Aitape,"Eitape|Bodinhafen|Berlin Reede|Berlin Harbour",-3.1333,142.3500,"Papua New Guinea",PG,PNG,"West Sepik","West Sepik",PG-SAN,province,,13.5,6931,6931,3,Pacific/Port_Moresby,FALSE,1598288579
Kainantu,Kainantu,,-6.2917,145.8611,"Papua New Guinea",PG,PNG,"Eastern Highlands","Eastern Highlands",PG-EHG,province,,88.7,6723,6723,4,Pacific/Port_Moresby,FALSE,1598153124
Kerema,Kerema,,-7.9667,145.7667,"Papua New Guinea",PG,PNG,Gulf,Gulf,PG-GPK,province,admin,13.0,6551,6551,2,Pacific/Port_Moresby,FALSE,1598925932
Lorengau,Lorengau,Rorengau|Lorungau|Leronguan|Lorangau|Losa,-2.0306,147.2722,"Papua New Guinea",PG,PNG,Manus,Manus,PG-MRL,province,admin,25.2,6313,6313,2,Pacific/Port_Moresby,FALSE,1598571197
Ningerum,Ningerum,,-5.6667,141.1333,"Papua New Guinea",PG,PNG,Western,Western,PG-WPD,province,,4.7,5000,5000,4,Pacific/Port_Moresby,FALSE,1598015282
Wabag,Wabag,,-5.4919,143.7217,"Papua New Guinea",PG,PNG,Enga,Enga,PG-EPW,province,admin,85.6,4072,4072,2,Pacific/Port_Moresby,FALSE,1598428400
Sohano,Sohano,,-5.4297,154.6711,"Papua New Guinea",PG,PNG,Bougainville,Bougainville,PG-NSB,"autonomous region",,44.9,2338,2338,4,Pacific/Bougainville,FALSE,1598474458
Gabensis,Gabensis,,-6.7167,146.7667,"Papua New Guinea",PG,PNG,Morobe,Morobe,PG-MPL,province,,20.0,1700,1700,4,Pacific/Port_Moresby,FALSE,1598378998
Namatanai,Namatanai,Namatenei|Namatano|Namatania|Namatani|Namatami,-3.6667,152.4333,"Papua New Guinea",PG,PNG,"New Ireland","New Ireland",PG-NIK,province,,18.5,1542,1542,3,Pacific/Port_Moresby,FALSE,1598133462
Keravat,Keravat,"Keravat Plantation",-4.3500,152.0333,"Papua New Guinea",PG,PNG,"East New Britain","East New Britain",PG-EBR,province,,36.9,1000,1000,4,Pacific/Port_Moresby,FALSE,1598143589
Olsobip,Olsobip,,-5.3833,141.5000,"Papua New Guinea",PG,PNG,Western,Western,PG-WPD,province,,4.7,1000,1000,4,Pacific/Port_Moresby,FALSE,1598328823
Hoskins,Hoskins,,-5.4746,150.4100,"Papua New Guinea",PG,PNG,"West New Britain","West New Britain",PG-WBK,province,,31.4,871,871,4,Pacific/Port_Moresby,FALSE,1598684520
Buin,Buin,,-6.7460,155.6850,"Papua New Guinea",PG,PNG,Bougainville,Bougainville,PG-NSB,"autonomous region",,24.8,750,750,3,Pacific/Bougainville,FALSE,1598258343
Krisa,Krisa,Krisi,-2.8500,141.2833,"Papua New Guinea",PG,PNG,"West Sepik","West Sepik",PG-SAN,province,,5.8,700,700,4,Pacific/Port_Moresby,FALSE,1598113492
Kokoda,Kokoda,Kodoka,-8.8778,147.7375,"Papua New Guinea",PG,PNG,Northern,Northern,PG-NPP,province,,10.8,658,658,4,Pacific/Port_Moresby,FALSE,1598710103
Samarai,Samarai,Samaria|Samarar,-10.6125,150.6647,"Papua New Guinea",PG,PNG,"Milne Bay","Milne Bay",PG-MBA,province,,22.7,460,460,4,Pacific/Port_Moresby,FALSE,1598412704
Amau,Amau,,-10.0426,148.5650,"Papua New Guinea",PG,PNG,Central,Central,PG-CPM,province,,7.8,230,230,4,Pacific/Port_Moresby,FALSE,1598610032
Aheri,Aheri,,-3.5672,141.1892,"Papua New Guinea",PG,PNG,"West Sepik","West Sepik",PG-SAN,province,,5.8,122,122,4,Pacific/Port_Moresby,FALSE,1598582579
Rapa,Rapa,,-8.7227,146.5654,"Papua New Guinea",PG,PNG,Central,Central,PG-CPM,province,,14.9,,,4,Pacific/Port_Moresby,FALSE,1598924452
"Bogala Baubau","Bogala Baubau",,-10.3333,150.3500,"Papua New Guinea",PG,PNG,"Milne Bay","Milne Bay",PG-MBA,province,,14.2,,,4,Pacific/Port_Moresby,FALSE,1598861048
Bankim,Bankim,Bankin,-5.4667,141.1000,"Papua New Guinea",PG,PNG,Western,Western,PG-WPD,province,,4.7,,,5,Pacific/Port_Moresby,FALSE,1598959031
Yabet,Yabet,Jabit|Yabit|Jabis,-4.6300,144.5291,"Papua New Guinea",PG,PNG,Madang,Madang,PG-MPM,province,,12.6,,,4,Pacific/Port_Moresby,FALSE,1598874295
"Vailala East","Vailala East",,-7.9446,145.4267,"Papua New Guinea",PG,PNG,Gulf,Gulf,PG-GPK,province,,1.5,,,5,Pacific/Port_Moresby,FALSE,1598466990
Nagokimbi,Nagokimbi,Nagotimbi,-3.9220,143.1587,"Papua New Guinea",PG,PNG,"East Sepik","East Sepik",PG-ESW,province,,27.0,,,4,Pacific/Port_Moresby,FALSE,1598836075
Wala,Wala,,-6.7636,146.0978,"Papua New Guinea",PG,PNG,Morobe,Morobe,PG-MPL,province,,18.5,,,4,Pacific/Port_Moresby,FALSE,1598293842
Poponovuam,Poponovuam,,-2.6000,151.9667,"Papua New Guinea",PG,PNG,"New Ireland","New Ireland",PG-NIK,province,,18.5,,,4,Pacific/Port_Moresby,FALSE,1598535145
Butemu,Butemu,Budemu,-5.9423,146.0659,"Papua New Guinea",PG,PNG,Madang,Madang,PG-MPM,province,,15.9,,,4,Pacific/Port_Moresby,FALSE,1598263204
Halai,Halai,,-7.5333,145.9000,"Papua New Guinea",PG,PNG,Gulf,Gulf,PG-GPK,province,,13.0,,,4,Pacific/Port_Moresby,FALSE,1598552949
Kalampun,Kalampun,,-5.3000,152.1000,"Papua New Guinea",PG,PNG,"East New Britain","East New Britain",PG-EBR,province,,6.2,,,5,Pacific/Port_Moresby,FALSE,1598375884
Gogosi,Gogosi,,-5.5500,150.9500,"Papua New Guinea",PG,PNG,"West New Britain","West New Britain",PG-WBK,province,,31.4,,,4,Pacific/Port_Moresby,FALSE,1598433918
Bambiti,Bambiti,,-9.0167,149.1000,"Papua New Guinea",PG,PNG,Northern,Northern,PG-NPP,province,,8.9,,,5,Pacific/Port_Moresby,FALSE,1598084158
Pelai,Pelai,Peiai,-8.9479,147.7516,"Papua New Guinea",PG,PNG,Northern,Northern,PG-NPP,province,,10.8,,,4,Pacific/Port_Moresby,FALSE,1598414353
Numuga,Numuga,,-6.3656,145.5163,"Papua New Guinea",PG,PNG,"Eastern Highlands","Eastern Highlands",PG-EHG,province,,68.1,,,4,Pacific/Port_Moresby,FALSE,1598369841
Ginibi,Ginibi,,-6.0916,145.5503,"Papua New Guinea",PG,PNG,"Eastern Highlands","Eastern Highlands",PG-EHG,province,,105.6,,,4,Pacific/Port_Moresby,FALSE,1598012627
Tahama,Tahama,,-9.1565,148.2934,"Papua New Guinea",PG,PNG,Northern,Northern,PG-NPP,province,,8.9,,,5,Pacific/Port_Moresby,FALSE,1598558461
Tua,Tua,,-6.5608,144.6932,"Papua New Guinea",PG,PNG,Chimbu,Chimbu,PG-CPK,province,,21.9,,,4,Pacific/Port_Moresby,FALSE,1598092173
Vunapalandig,Vunapalandig,Vunapaladig|Vunapaldig,-4.3547,151.9358,"Papua New Guinea",PG,PNG,"East New Britain","East New Britain",PG-EBR,province,,36.9,,,4,Pacific/Port_Moresby,FALSE,1598867133
Kraimbit,Kraimbit,,-4.5290,143.3907,"Papua New Guinea",PG,PNG,"East Sepik","East Sepik",PG-ESW,province,,5.8,,,5,Pacific/Port_Moresby,FALSE,1598103015
"Gwalip 2","Gwalip 2","Gwalip Number 2|Gwalip",-3.6790,143.1685,"Papua New Guinea",PG,PNG,"East Sepik","East Sepik",PG-ESW,province,,99.9,,,4,Pacific/Port_Moresby,FALSE,1598173902
Suondo,Suondo,,-3.7333,143.3833,"Papua New Guinea",PG,PNG,"East Sepik","East Sepik",PG-ESW,province,,25.6,,,4,Pacific/Port_Moresby,FALSE,1598122548
Ibulai,Ibulai,,-10.2437,150.8326,"Papua New Guinea",PG,PNG,"Milne Bay","Milne Bay",PG-MBA,province,,14.2,,,4,Pacific/Port_Moresby,FALSE,1598388315
Ibulai,Ibulai,,-10.4167,150.4333,"Papua New Guinea",PG,PNG,"Milne Bay","Milne Bay",PG-MBA,province,,14.2,,,4,Pacific/Port_Moresby,TRUE,1598462455
Tunakau,Tunakau,,-6.5833,145.3833,"Papua New Guinea",PG,PNG,"Eastern Highlands","Eastern Highlands",PG-EHG,province,,40.4,,,4,Pacific/Port_Moresby,FALSE,1598548485
Ajase,Ajase,,-8.7167,148.1000,"Papua New Guinea",PG,PNG,Northern,Northern,PG-NPP,province,,10.8,,,4,Pacific/Port_Moresby,FALSE,1598468298
Aruruhu,Aruruhu,,-7.9207,145.5071,"Papua New Guinea",PG,PNG,Gulf,Gulf,PG-GPK,province,,1.5,,,5,Pacific/Port_Moresby,FALSE,1598826506
Yase,Yase,,-3.5321,142.6852,"Papua New Guinea",PG,PNG,"East Sepik","East Sepik",PG-ESW,province,,5.7,,,5,Pacific/Port_Moresby,FALSE,1598981059
Malangata,Malangata,,-7.1362,146.5905,"Papua New Guinea",PG,PNG,Morobe,Morobe,PG-MPL,province,,14.0,,,4,Pacific/Port_Moresby,FALSE,1598939940
Iwame,Iwame,Iwami,-10.4500,150.3333,"Papua New Guinea",PG,PNG,"Milne Bay","Milne Bay",PG-MBA,province,,14.2,,,4,Pacific/Port_Moresby,FALSE,1598102371
Kelkel,Kelkel,,-7.1333,147.0500,"Papua New Guinea",PG,PNG,Morobe,Morobe,PG-MPL,province,,20.0,,,4,Pacific/Port_Moresby,FALSE,1598109876
Mesiyufa,Mesiyufa,,-5.9667,145.3667,"Papua New Guinea",PG,PNG,"Eastern Highlands","Eastern Highlands",PG-EHG,province,,363.2,,,3,Pacific/Port_Moresby,FALSE,1598249597
"Arimin Number 1","Arimin Number 1","Arimin 1",-4.8756,141.1512,"Papua New Guinea",PG,PNG,"West Sepik","West Sepik",PG-SAN,province,,3.3,,,5,Pacific/Port_Moresby,FALSE,1598458152
Iwambe,Iwambe,,-7.5333,145.9167,"Papua New Guinea",PG,PNG,Gulf,Gulf,PG-GPK,province,,13.0,,,4,Pacific/Port_Moresby,FALSE,1598970791
Urai,Urai,,-6.7179,145.4904,"Papua New Guinea",PG,PNG,"Eastern Highlands","Eastern Highlands",PG-EHG,province,,40.4,,,4,Pacific/Port_Moresby,FALSE,1598415543
Mamerain,Mamerain,,-6.2822,146.0456,"Papua New Guinea",PG,PNG,"Eastern Highlands","Eastern Highlands",PG-EHG,province,,88.7,,,4,Pacific/Port_Moresby,FALSE,1598165943
Lampu,Lampu,,-3.1102,142.2600,"Papua New Guinea",PG,PNG,"West Sepik","West Sepik",PG-SAN,province,,13.5,,,4,Pacific/Port_Moresby,FALSE,1598322184
Minoi,Minoi,,-6.3500,145.1333,"Papua New Guinea",PG,PNG,Chimbu,Chimbu,PG-CPK,province,,21.9,,,4,Pacific/Port_Moresby,FALSE,1598377587
Hareke,Hareke,,-5.5236,142.5305,"Papua New Guinea",PG,PNG,"Southern Highlands","Southern Highlands",PG-SHM,province,,43.3,,,4,Pacific/Port_Moresby,FALSE,1598797043
Kaviak,Kaviak,,-4.5620,145.9340,"Papua New Guinea",PG,PNG,Madang,Madang,PG-MPM,province,,51.9,,,4,Pacific/Port_Moresby,FALSE,1598554557
Abisan,Abisan,,-4.6833,146.0500,"Papua New Guinea",PG,PNG,Madang,Madang,PG-MPM,province,,51.9,,,4,Pacific/Port_Moresby,FALSE,1598687373
Nauknani,Nauknani,,-9.2167,148.2500,"Papua New Guinea",PG,PNG,Northern,Northern,PG-NPP,province,,8.9,,,5,Pacific/Port_Moresby,FALSE,1598653109
Oraratu,Oraratu,,-6.5333,145.4167,"Papua New Guinea",PG,PNG,"Eastern Highlands","Eastern Highlands",PG-EHG,province,,40.4,,,4,Pacific/Port_Moresby,FALSE,1598328849
Homenomu,Homenomu,Homenom,-9.6563,148.0304,"Papua New Guinea",PG,PNG,Central,Central,PG-CPM,province,,12.2,,,4,Pacific/Port_Moresby,FALSE,1598320753
Gurunkor,Gurunkor,,-6.5547,147.7860,"Papua New Guinea",PG,PNG,Morobe,Morobe,PG-MPL,province,,22.7,,,4,Pacific/Port_Moresby,FALSE,1598888140
Boimbi,Boimbi,,-5.5718,145.7584,"Papua New Guinea",PG,PNG,Madang,Madang,PG-MPM,province,,15.9,,,4,Pacific/Port_Moresby,FALSE,1598598139
Mokoruwa,Mokoruwa,,-9.6667,149.5000,"Papua New Guinea",PG,PNG,"Milne Bay","Milne Bay",PG-MBA,province,,14.2,,,4,Pacific/Port_Moresby,FALSE,1598438827
Hobuk,Hobuk,,-11.1920,153.0880,"Papua New Guinea",PG,PNG,"Milne Bay","Milne Bay",PG-MBA,province,,22.7,,,4,Pacific/Port_Moresby,FALSE,1598236768
Isapeape,Isapeape,,-8.1908,146.1291,"Papua New Guinea",PG,PNG,Gulf,Gulf,PG-GPK,province,,13.0,,,4,Pacific/Port_Moresby,FALSE,1598696691
Kuruwagu,Kuruwagu,Koruwagu,-6.1000,145.2000,"Papua New Guinea",PG,PNG,"Eastern Highlands","Eastern Highlands",PG-EHG,province,,109.6,,,4,Pacific/Port_Moresby,FALSE,1598532966
Kerevin,Kerevin,,-5.2164,144.5796,"Papua New Guinea",PG,PNG,Madang,Madang,PG-MPM,province,,12.9,,,4,Pacific/Port_Moresby,FALSE,1598563400
Kapuri,Kapuri,,-8.2333,146.2000,"Papua New Guinea",PG,PNG,Gulf,Gulf,PG-GPK,province,,13.0,,,4,Pacific/Port_Moresby,FALSE,1598299854
Yarapi,Yarapi,,-6.2500,143.9333,"Papua New Guinea",PG,PNG,"Southern Highlands","Southern Highlands",PG-SHM,province,,31.4,,,4,Pacific/Port_Moresby,FALSE,1598383403
Poriwon,Poriwon,,-4.4668,154.2021,"Papua New Guinea",PG,PNG,Bougainville,Bougainville,PG-NSB,"autonomous region",,44.9,,,4,Pacific/Bougainville,FALSE,1598435024
Bimin,Bimin,,-5.3667,142.1167,"Papua New Guinea",PG,PNG,"West Sepik","West Sepik",PG-SAN,province,,4.9,,,5,Pacific/Port_Moresby,FALSE,1598310923
Toglkane,Toglkane,,-6.0091,144.9418,"Papua New Guinea",PG,PNG,Chimbu,Chimbu,PG-CPK,province,,235.3,,,3,Pacific/Port_Moresby,FALSE,1598719253
"Bibira Number 1","Bibira Number 1",Bibira,-9.5638,148.6339,"Papua New Guinea",PG,PNG,Northern,Northern,PG-NPP,province,,8.9,,,5,Pacific/Port_Moresby,FALSE,1598302676
Piperes,Piperes,,-5.3984,143.8266,"Papua New Guinea",PG,PNG,Enga,Enga,PG-EPW,province,,21.4,,,4,Pacific/Port_Moresby,FALSE,1598735654
Kwim,Kwim,Huim,-6.2000,143.5167,"Papua New Guinea",PG,PNG,"Southern Highlands","Southern Highlands",PG-SHM,province,,28.5,,,4,Pacific/Port_Moresby,FALSE,1598084000
Yonapa,Yonapa,Yanipa,-5.7000,145.4333,"Papua New Guinea",PG,PNG,Madang,Madang,PG-MPM,province,,12.1,,,4,Pacific/Port_Moresby,FALSE,1598927461
Suwami,Suwami,,-8.3667,142.8667,"Papua New Guinea",PG,PNG,Western,Western,PG-WPD,province,,1.4,,,5,Pacific/Port_Moresby,FALSE,1598240137
Ivara,Ivara,,-8.7833,146.5167,"Papua New Guinea",PG,PNG,Central,Central,PG-CPM,province,,14.9,,,4,Pacific/Port_Moresby,FALSE,1598241586
Leapwaapwa,Leapwaapwa,,-10.0500,151.1167,"Papua New Guinea",PG,PNG,"Milne Bay","Milne Bay",PG-MBA,province,,29.8,,,4,Pacific/Port_Moresby,FALSE,1598566183
Butei,Butei,,-2.6500,150.6509,"Papua New Guinea",PG,PNG,"New Ireland","New Ireland",PG-NIK,province,,27.6,,,4,Pacific/Port_Moresby,FALSE,1598885753
Korumba,Korumba,,-6.3985,147.4022,"Papua New Guinea",PG,PNG,Morobe,Morobe,PG-MPL,province,,22.7,,,4,Pacific/Port_Moresby,FALSE,1598139409
Ihu,Ihu,,-7.9126,145.3966,"Papua New Guinea",PG,PNG,Gulf,Gulf,PG-GPK,province,,1.5,,,5,Pacific/Port_Moresby,FALSE,1598397660
"Dead Chinaman","Dead Chinaman",,-7.6833,146.5333,"Papua New Guinea",PG,PNG,Gulf,Gulf,PG-GPK,province,,14.0,,,4,Pacific/Port_Moresby,FALSE,1598653741
Nukakau,Nukakau,Nugakau,-5.5129,149.4535,"Papua New Guinea",PG,PNG,"West New Britain","West New Britain",PG-WBK,province,,6.2,,,5,Pacific/Port_Moresby,FALSE,1598738499
Iakao,Iakao,,-10.4167,150.4500,"Papua New Guinea",PG,PNG,"Milne Bay","Milne Bay",PG-MBA,province,,14.2,,,4,Pacific/Port_Moresby,FALSE,1598059349
Humane,Humane,,-6.6821,143.5665,"Papua New Guinea",PG,PNG,Western,Western,PG-WPD,province,,28.5,,,4,Pacific/Port_Moresby,FALSE,1598583859
Raburua,Raburua,,-4.3000,152.1667,"Papua New Guinea",PG,PNG,"East New Britain","East New Britain",PG-EBR,province,,217.5,,,3,Pacific/Port_Moresby,FALSE,1598074050
Ponam,Ponam,,-1.9091,146.8822,"Papua New Guinea",PG,PNG,Manus,Manus,PG-MRL,province,,25.2,,,4,Pacific/Port_Moresby,FALSE,1598750137
Ungubi,Ungubi,,-6.1826,143.3670,"Papua New Guinea",PG,PNG,"Southern Highlands","Southern Highlands",PG-SHM,province,,28.5,,,4,Pacific/Port_Moresby,FALSE,1598991431
Arisili,Arisili,,-3.5222,142.8458,"Papua New Guinea",PG,PNG,"East Sepik","East Sepik",PG-ESW,province,,5.7,,,5,Pacific/Port_Moresby,FALSE,1598413807
Genera,Genera,Genara,-8.5445,147.5512,"Papua New Guinea",PG,PNG,Central,Central,PG-CPM,province,,4.3,,,5,Pacific/Port_Moresby,FALSE,1598867338
Bolobip,Bolobip,Bolvil|Bolowip|Bolivip,-5.3543,141.6690,"Papua New Guinea",PG,PNG,Western,Western,PG-WPD,province,,4.7,,,4,Pacific/Port_Moresby,FALSE,1598597131
Ulahato,Ulahato,,-3.8167,152.5667,"Papua New Guinea",PG,PNG,"New Ireland","New Ireland",PG-NIK,province,,18.5,,,4,Pacific/Port_Moresby,FALSE,1598100237
Goromaugo,Goromaugo,,-5.9500,145.0667,"Papua New Guinea",PG,PNG,Chimbu,Chimbu,PG-CPK,province,,235.3,,,3,Pacific/Port_Moresby,FALSE,1598014525
Mondrabet,Mondrabet,,-4.7264,151.7528,"Papua New Guinea",PG,PNG,"East New Britain","East New Britain",PG-EBR,province,,36.9,,,4,Pacific/Port_Moresby,FALSE,1598289321
"Emeregam Number 1","Emeregam Number 1","Emeregam 1",-6.1991,145.0627,"Papua New Guinea",PG,PNG,Chimbu,Chimbu,PG-CPK,province,,70.2,,,4,Pacific/Port_Moresby,FALSE,1598230242
Babata,Babata,,-5.6555,150.8663,"Papua New Guinea",PG,PNG,"West New Britain","West New Britain",PG-WBK,province,,31.4,,,4,Pacific/Port_Moresby,FALSE,1598421329
Kopaga,Kopaga,,-7.5500,141.2167,"Papua New Guinea",PG,PNG,Western,Western,PG-WPD,province,,1.4,,,5,Pacific/Port_Moresby,FALSE,1598453793
Eweiwa,Eweiwa,,-5.4746,145.4435,"Papua New Guinea",PG,PNG,Madang,Madang,PG-MPM,province,,12.1,,,4,Pacific/Port_Moresby,FALSE,1598898973
Metarala,Metarala,,-5.7000,149.1333,"Papua New Guinea",PG,PNG,"West New Britain","West New Britain",PG-WBK,province,,6.2,,,5,Pacific/Port_Moresby,FALSE,1598398207
Himarata,Himarata,,-6.6167,145.9500,"Papua New Guinea",PG,PNG,"Eastern Highlands","Eastern Highlands",PG-EHG,province,,18.3,,,4,Pacific/Port_Moresby,FALSE,1598301361
Amongabi,Amongabi,,-4.6176,143.4444,"Papua New Guinea",PG,PNG,"East Sepik","East Sepik",PG-ESW,province,,5.8,,,5,Pacific/Port_Moresby,FALSE,1598186546
Tomorovanua,Tomorovanua,,-9.6167,147.9167,"Papua New Guinea",PG,PNG,Central,Central,PG-CPM,province,,12.2,,,4,Pacific/Port_Moresby,FALSE,1598786208
Kwaioa,Kwaioa,Kwai-o,-10.3167,149.9667,"Papua New Guinea",PG,PNG,"Milne Bay","Milne Bay",PG-MBA,province,,14.2,,,4,Pacific/Port_Moresby,FALSE,1598151028
Salimbua,Salimbua,,-3.5240,143.4160,"Papua New Guinea",PG,PNG,"East Sepik","East Sepik",PG-ESW,province,,42.2,,,4,Pacific/Port_Moresby,FALSE,1598625287
Oboro,Oboro,,-7.2667,144.2167,"Papua New Guinea",PG,PNG,Gulf,Gulf,PG-GPK,province,,1.5,,,5,Pacific/Port_Moresby,FALSE,1598666626
Nimbihu,Nimbihu,,-3.6646,143.2023,"Papua New Guinea",PG,PNG,"East Sepik","East Sepik",PG-ESW,province,,25.6,,,4,Pacific/Port_Moresby,FALSE,1598631878
Uruforu,Uruforu,,-8.0667,147.3167,"Papua New Guinea",PG,PNG,Northern,Northern,PG-NPP,province,,10.8,,,4,Pacific/Port_Moresby,FALSE,1598404077
Kukihe,Kukihe,,-7.5584,146.2089,"Papua New Guinea",PG,PNG,Morobe,Morobe,PG-MPL,province,,25.8,,,4,Pacific/Port_Moresby,FALSE,1598029710
Koialahu,Koialahu,,-7.9436,145.4702,"Papua New Guinea",PG,PNG,Gulf,Gulf,PG-GPK,province,,1.5,,,5,Pacific/Port_Moresby,FALSE,1598998443
Tanipai,Tanipai,,-8.4333,147.4000,"Papua New Guinea",PG,PNG,Central,Central,PG-CPM,province,,4.3,,,5,Pacific/Port_Moresby,FALSE,1598589495
Morehead,Morehead,,-8.7107,141.6367,"Papua New Guinea",PG,PNG,Western,Western,PG-WPD,province,,2.1,,,5,Pacific/Port_Moresby,FALSE,1598703730
Eikil,Eikil,,-3.5079,142.1677,"Papua New Guinea",PG,PNG,"West Sepik","West Sepik",PG-SAN,province,,20.3,,,4,Pacific/Port_Moresby,FALSE,1598189447
"Mangar Number 2","Mangar Number 2",,-4.6691,145.8800,"Papua New Guinea",PG,PNG,Madang,Madang,PG-MPM,province,,51.9,,,4,Pacific/Port_Moresby,FALSE,1598974273
Bouleia,Bouleia,,-9.4667,150.3500,"Papua New Guinea",PG,PNG,"Milne Bay","Milne Bay",PG-MBA,province,,72.2,,,4,Pacific/Port_Moresby,FALSE,1598303253
Takakel,Takakel,,-4.3167,152.1167,"Papua New Guinea",PG,PNG,"East New Britain","East New Britain",PG-EBR,province,,36.9,,,4,Pacific/Port_Moresby,FALSE,1598905658
Torura,Torura,Tauwera,-8.0167,146.9000,"Papua New Guinea",PG,PNG,Central,Central,PG-CPM,province,,4.3,,,5,Pacific/Port_Moresby,FALSE,1598286283
Toromambuna,Toromambuna,Toromamoanau,-5.8333,145.1000,"Papua New Guinea",PG,PNG,Chimbu,Chimbu,PG-CPK,province,,235.3,,,3,Pacific/Port_Moresby,FALSE,1598173836
Kabari,Kabari,,-6.3333,145.1333,"Papua New Guinea",PG,PNG,Chimbu,Chimbu,PG-CPK,province,,21.9,,,4,Pacific/Port_Moresby,FALSE,1598933251
Korap,Korap,,-4.8000,144.7167,"Papua New Guinea",PG,PNG,Madang,Madang,PG-MPM,province,,12.9,,,4,Pacific/Port_Moresby,FALSE,1598791117
Nau’ali,Nau'ali,,-4.0795,142.5858,"Papua New Guinea",PG,PNG,"West Sepik","West Sepik",PG-SAN,province,,5.7,,,5,Pacific/Port_Moresby,FALSE,1598323986
Cherpmel,Cherpmel,Chermpel,-3.4852,142.6772,"Papua New Guinea",PG,PNG,"East Sepik","East Sepik",PG-ESW,province,,5.7,,,5,Pacific/Port_Moresby,FALSE,1598864462
"Japaraka 2","Japaraka 2",,-3.7496,143.6041,"Papua New Guinea",PG,PNG,"East Sepik","East Sepik",PG-ESW,province,,25.6,,,4,Pacific/Port_Moresby,FALSE,1598716258
Gurukor,Gurukor,Gurakor,-6.8354,146.6279,"Papua New Guinea",PG,PNG,Morobe,Morobe,PG-MPL,province,,14.0,,,4,Pacific/Port_Moresby,FALSE,1598760203
Kengramei,Kengramei,,-4.2333,143.7167,"Papua New Guinea",PG,PNG,"East Sepik","East Sepik",PG-ESW,province,,5.8,,,5,Pacific/Port_Moresby,FALSE,1598865364
Kuburne,Kuburne,,-4.6333,145.9000,"Papua New Guinea",PG,PNG,Madang,Madang,PG-MPM,province,,51.9,,,4,Pacific/Port_Moresby,FALSE,1598324521
Dogingo,Dogingo,,-5.6271,146.1326,"Papua New Guinea",PG,PNG,Madang,Madang,PG-MPM,province,,15.9,,,4,Pacific/Port_Moresby,FALSE,1598940871
Menemsore,Menemsore,Menimsore,-5.9011,141.2495,"Papua New Guinea",PG,PNG,Western,Western,PG-WPD,province,,4.7,,,5,Pacific/Port_Moresby,FALSE,1598559511
Matsialavava,Matsialavava,Matialavava,-8.2667,146.9686,"Papua New Guinea",PG,PNG,Central,Central,PG-CPM,province,,4.3,,,5,Pacific/Port_Moresby,FALSE,1598706350
Obakigolo,Obakigolo,Baligoro|Obakigoro,-9.7791,147.8917,"Papua New Guinea",PG,PNG,Central,Central,PG-CPM,province,,12.2,,,4,Pacific/Port_Moresby,FALSE,1598675285
Iauibari,Iauibari,,-7.2000,143.7667,"Papua New Guinea",PG,PNG,Gulf,Gulf,PG-GPK,province,,1.5,,,5,Pacific/Port_Moresby,FALSE,1598711166
Egele,Egele,,-5.8197,142.7341,"Papua New Guinea",PG,PNG,"Southern Highlands","Southern Highlands",PG-SHM,province,,43.3,,,4,Pacific/Port_Moresby,FALSE,1598718239
Duanggauwom,Duanggauwom,,-6.1667,145.1333,"Papua New Guinea",PG,PNG,Chimbu,Chimbu,PG-CPK,province,,70.2,,,4,Pacific/Port_Moresby,FALSE,1598810187
Insinsibi,Insinsibi,Isinsibi,-4.7638,145.1507,"Papua New Guinea",PG,PNG,Madang,Madang,PG-MPM,province,,12.9,,,4,Pacific/Port_Moresby,FALSE,1598268804
Goma,Goma,,-6.1333,145.1500,"Papua New Guinea",PG,PNG,"Eastern Highlands","Eastern Highlands",PG-EHG,province,,70.2,,,4,Pacific/Port_Moresby,FALSE,1598974229
Gali,Gali,"Gali 2",-5.8000,146.7333,"Papua New Guinea",PG,PNG,Madang,Madang,PG-MPM,province,,15.9,,,4,Pacific/Port_Moresby,FALSE,1598688647
Reburebusiwasiwa,Reburebusiwasiwa,,-9.7833,149.8000,"Papua New Guinea",PG,PNG,"Milne Bay","Milne Bay",PG-MBA,province,,14.2,,,4,Pacific/Port_Moresby,FALSE,1598468978
Sindawon,Sindawon,,-6.1166,146.7527,"Papua New Guinea",PG,PNG,Morobe,Morobe,PG-MPL,province,,11.6,,,4,Pacific/Port_Moresby,FALSE,1598152063
Miwa,Miwa,,-7.1813,141.5636,"Papua New Guinea",PG,PNG,Western,Western,PG-WPD,province,,1.4,,,5,Pacific/Port_Moresby,FALSE,1598609434
"Marapka 1","Marapka 1",Marapka,-5.8500,141.0833,"Papua New Guinea",PG,PNG,Western,Western,PG-WPD,province,,4.7,,,5,Pacific/Port_Moresby,FALSE,1598600345
Gwarumemase,Gwarumemase,,-9.5236,147.2952,"Papua New Guinea",PG,PNG,Central,Central,PG-CPM,province,,14.9,,,4,Pacific/Port_Moresby,FALSE,1598539425
Suaeabina,Suaeabina,Suaibina|Suabina|Saubina,-10.4066,149.8608,"Papua New Guinea",PG,PNG,"Milne Bay","Milne Bay",PG-MBA,province,,14.2,,,4,Pacific/Port_Moresby,FALSE,1598658264
"Maiwara Number 2","Maiwara Number 2",,-10.3500,150.3500,"Papua New Guinea",PG,PNG,"Milne Bay","Milne Bay",PG-MBA,province,,14.2,,,4,Pacific/Port_Moresby,FALSE,1598607789
Konobin,Konobin,Panakondo,-3.1418,151.7465,"Papua New Guinea",PG,PNG,"New Ireland","New Ireland",PG-NIK,province,,18.5,,,4,Pacific/Port_Moresby,FALSE,1598519366
Bagaram,Bagaram,,-3.3667,143.5500,"Papua New Guinea",PG,PNG,"East Sepik","East Sepik",PG-ESW,province,,42.2,,,4,Pacific/Port_Moresby,FALSE,1598595047
Temarnmin,Temarnmin,,-5.0833,141.5833,"Papua New Guinea",PG,PNG,"West Sepik","West Sepik",PG-SAN,province,,3.3,,,5,Pacific/Port_Moresby,FALSE,1598733565
"Kun Number 1","Kun Number 1","Kun 1",-6.2911,144.9265,"Papua New Guinea",PG,PNG,Chimbu,Chimbu,PG-CPK,province,,21.9,,,4,Pacific/Port_Moresby,FALSE,1598031554
Kogiki,Kogiki,,-7.6667,145.0667,"Papua New Guinea",PG,PNG,Gulf,Gulf,PG-GPK,province,,1.5,,,5,Pacific/Port_Moresby,FALSE,1598278613
Kawaliap,Kawaliap,Kawailiap,-2.1000,147.0667,"Papua New Guinea",PG,PNG,Manus,Manus,PG-MRL,province,,25.2,,,4,Pacific/Port_Moresby,FALSE,1598904609
Kawaliap,Kawaliap,,-2.2024,146.9276,"Papua New Guinea",PG,PNG,Manus,Manus,PG-MRL,province,,25.2,,,4,Pacific/Port_Moresby,TRUE,1598311123
Pinir,Pinir,,-5.9667,149.3500,"Papua New Guinea",PG,PNG,"West New Britain","West New Britain",PG-WBK,province,,6.2,,,5,Pacific/Port_Moresby,FALSE,1598515780
Daburaik,Daburaik,Duburika|Daburika,-9.6000,147.4333,"Papua New Guinea",PG,PNG,Central,Central,PG-CPM,province,,14.9,,,4,Pacific/Port_Moresby,FALSE,1598753825
Yiriwand,Yiriwand,Yiriwandi,-3.6745,142.5812,"Papua New Guinea",PG,PNG,"West Sepik","West Sepik",PG-SAN,province,,20.3,,,4,Pacific/Port_Moresby,FALSE,1598735523
Aiambi,Aiambi,,-5.6167,145.4667,"Papua New Guinea",PG,PNG,Madang,Madang,PG-MPM,province,,12.1,,,4,Pacific/Port_Moresby,FALSE,1598140088
Seure,Seure,,-5.7190,146.5735,"Papua New Guinea",PG,PNG,Madang,Madang,PG-MPM,province,,15.9,,,4,Pacific/Port_Moresby,FALSE,1598217234
Bambiran,Bambiran,,-5.7833,141.0500,"Papua New Guinea",PG,PNG,Western,Western,PG-WPD,province,,4.7,,,5,Pacific/Port_Moresby,FALSE,1598986348
Mapoi’a,Mapoi'a,,-7.9000,143.9167,"Papua New Guinea",PG,PNG,Gulf,Gulf,PG-GPK,province,,1.5,,,5,Pacific/Port_Moresby,FALSE,1598606245
Tibirubegi,Tibirubegi,,-6.6667,144.0500,"Papua New Guinea",PG,PNG,"Southern Highlands","Southern Highlands",PG-SHM,province,,32.8,,,4,Pacific/Port_Moresby,FALSE,1598283956
Abouia,Abouia,Abau,-3.9333,141.1667,"Papua New Guinea",PG,PNG,"West Sepik","West Sepik",PG-SAN,province,,5.8,,,5,Pacific/Port_Moresby,FALSE,1598980727
Valia-u,Valia-u,,-3.9000,143.9333,"Papua New Guinea",PG,PNG,"East Sepik","East Sepik",PG-ESW,province,,42.2,,,4,Pacific/Port_Moresby,FALSE,1598139787
Maiaki,Maiaki,,-7.6002,144.5998,"Papua New Guinea",PG,PNG,Gulf,Gulf,PG-GPK,province,,1.5,,,5,Pacific/Port_Moresby,FALSE,1598174814
Namamoke,Namamoke,,-6.2376,145.3383,"Papua New Guinea",PG,PNG,"Eastern Highlands","Eastern Highlands",PG-EHG,province,,105.6,,,4,Pacific/Port_Moresby,FALSE,1598818341
Ioma,Ioma,,-8.3627,147.8314,"Papua New Guinea",PG,PNG,Northern,Northern,PG-NPP,province,,10.8,,,4,Pacific/Port_Moresby,FALSE,1598258120
Tjephethak,Tjephethak,,-8.7013,141.5977,"Papua New Guinea",PG,PNG,Western,Western,PG-WPD,province,,2.1,,,5,Pacific/Port_Moresby,FALSE,1598613723
Tarangepaga,Tarangepaga,Uwaren,-4.5000,144.9500,"Papua New Guinea",PG,PNG,Madang,Madang,PG-MPM,province,,27.2,,,4,Pacific/Port_Moresby,FALSE,1598546608
Urugan,Urugan,Urigan,-4.5667,145.9833,"Papua New Guinea",PG,PNG,Madang,Madang,PG-MPM,province,,51.9,,,4,Pacific/Port_Moresby,FALSE,1598428759
Urugan,Urugan,,-5.2219,145.6913,"Papua New Guinea",PG,PNG,Madang,Madang,PG-MPM,province,,51.5,,,4,Pacific/Port_Moresby,TRUE,1598216396
Honpato,Honpato,,-6.0833,147.2333,"Papua New Guinea",PG,PNG,Morobe,Morobe,PG-MPL,province,,23.8,,,4,Pacific/Port_Moresby,FALSE,1598359784
Mai,Mai,,-6.0058,145.0275,"Papua New Guinea",PG,PNG,Chimbu,Chimbu,PG-CPK,province,,289.5,,,3,Pacific/Port_Moresby,FALSE,1598640777
Barengigl,Barengigl,Barenggigl,-5.9500,145.0167,"Papua New Guinea",PG,PNG,Chimbu,Chimbu,PG-CPK,province,,235.3,,,3,Pacific/Port_Moresby,FALSE,1598359486
Anminik,Anminik,Animinik,-5.4333,145.4667,"Papua New Guinea",PG,PNG,Madang,Madang,PG-MPM,province,,12.1,,,4,Pacific/Port_Moresby,FALSE,1598381342
Diman,Diman,,-5.6493,146.0305,"Papua New Guinea",PG,PNG,Madang,Madang,PG-MPM,province,,15.9,,,4,Pacific/Port_Moresby,FALSE,1598484524
Muliama,Muliama,,-4.0540,152.9691,"Papua New Guinea",PG,PNG,"New Ireland","New Ireland",PG-NIK,province,,18.5,,,4,Pacific/Port_Moresby,FALSE,1598039318
Melilup,Melilup,,-5.6954,154.9352,"Papua New Guinea",PG,PNG,Bougainville,Bougainville,PG-NSB,"autonomous region",,44.9,,,4,Pacific/Bougainville,FALSE,1598936172
Vokau,Vokau,Koruko|Makao|Korako|Koroko,-3.1787,142.4251,"Papua New Guinea",PG,PNG,"West Sepik","West Sepik",PG-SAN,province,,13.5,,,4,Pacific/Port_Moresby,FALSE,1598224945
Ngunaguna,Ngunaguna,,-4.3500,152.2000,"Papua New Guinea",PG,PNG,"East New Britain","East New Britain",PG-EBR,province,,217.5,,,3,Pacific/Port_Moresby,FALSE,1598980302
Bolubolu,Bolubolu,,-9.3735,150.3629,"Papua New Guinea",PG,PNG,"Milne Bay","Milne Bay",PG-MBA,province,,72.2,,,4,Pacific/Port_Moresby,FALSE,1598699099
Papi,Papi,,-10.4833,150.4833,"Papua New Guinea",PG,PNG,"Milne Bay","Milne Bay",PG-MBA,province,,14.2,,,4,Pacific/Port_Moresby,FALSE,1598757355
Mesekor,Mesekor,,-4.7000,145.2667,"Papua New Guinea",PG,PNG,Madang,Madang,PG-MPM,province,,51.9,,,4,Pacific/Port_Moresby,FALSE,1598146920
Bokuku,Bokuku,,-9.9413,148.1339,"Papua New Guinea",PG,PNG,Central,Central,PG-CPM,province,,7.8,,,5,Pacific/Port_Moresby,FALSE,1598415159
Wasera,Wasera,Wosera,-3.7500,141.2000,"Papua New Guinea",PG,PNG,"West Sepik","West Sepik",PG-SAN,province,,5.8,,,5,Pacific/Port_Moresby,FALSE,1598741023
Pinikindu,Pinikindu,,-3.1383,151.7737,"Papua New Guinea",PG,PNG,"New Ireland","New Ireland",PG-NIK,province,,18.5,,,4,Pacific/Port_Moresby,FALSE,1598963178
Piambit,Piambit,,-4.1184,143.6919,"Papua New Guinea",PG,PNG,"East Sepik","East Sepik",PG-ESW,province,,5.8,,,5,Pacific/Port_Moresby,FALSE,1598659058
Kandep,Kandep,,-5.8422,143.5106,"Papua New Guinea",PG,PNG,Enga,Enga,PG-EPW,province,,50.8,,,4,Pacific/Port_Moresby,FALSE,1598906894
Apangai,Apangai,,-3.7334,142.8848,"Papua New Guinea",PG,PNG,"East Sepik","East Sepik",PG-ESW,province,,7.2,,,5,Pacific/Port_Moresby,FALSE,1598809747
Kwanje,Kwanje,Amuson,-5.6685,145.7664,"Papua New Guinea",PG,PNG,Madang,Madang,PG-MPM,province,,15.9,,,4,Pacific/Port_Moresby,FALSE,1598519756
Asipuia,Asipuia,Asapoia|Asupuia|Asapula,-6.2012,145.9049,"Papua New Guinea",PG,PNG,"Eastern Highlands","Eastern Highlands",PG-EHG,province,,88.7,,,4,Pacific/Port_Moresby,FALSE,1598000059
Kuande,Kuande,,-6.0133,144.8615,"Papua New Guinea",PG,PNG,Chimbu,Chimbu,PG-CPK,province,,235.4,,,3,Pacific/Port_Moresby,FALSE,1598080032
Selmitu,Selmitu,,-3.9667,142.9833,"Papua New Guinea",PG,PNG,"East Sepik","East Sepik",PG-ESW,province,,27.0,,,4,Pacific/Port_Moresby,FALSE,1598682645
Tavana,Tavana,,-4.2667,152.1500,"Papua New Guinea",PG,PNG,"East New Britain","East New Britain",PG-EBR,province,,328.0,,,3,Pacific/Port_Moresby,FALSE,1598578096
Lowo,Lowo,,-5.2167,145.5833,"Papua New Guinea",PG,PNG,Madang,Madang,PG-MPM,province,,51.5,,,4,Pacific/Port_Moresby,FALSE,1598221292
Sirinimbu,Sirinimbu,"Sirinibu Government Station",-5.0333,144.6667,"Papua New Guinea",PG,PNG,Madang,Madang,PG-MPM,province,,12.9,,,4,Pacific/Port_Moresby,FALSE,1598226746
Kimaku,Kimaku,,-6.6386,155.3373,"Papua New Guinea",PG,PNG,Bougainville,Bougainville,PG-NSB,"autonomous region",,24.8,,,4,Pacific/Bougainville,FALSE,1598539627
Anilabip,Anilabip,Yakmanovip,-4.9500,141.3167,"Papua New Guinea",PG,PNG,"West Sepik","West Sepik",PG-SAN,province,,3.3,,,5,Pacific/Port_Moresby,FALSE,1598625975
Wurtol,Wurtol,,-3.1833,152.5833,"Papua New Guinea",PG,PNG,"New Ireland","New Ireland",PG-NIK,province,,18.5,,,4,Pacific/Port_Moresby,FALSE,1598187708
Gueretmin,Gueretmin,Guretmin,-6.0500,141.4167,"Papua New Guinea",PG,PNG,Western,Western,PG-WPD,province,,4.7,,,5,Pacific/Port_Moresby,FALSE,1598757371
Lajeasa,Lajeasa,,-5.7077,143.8520,"Papua New Guinea",PG,PNG,Enga,Enga,PG-EPW,province,,115.0,,,4,Pacific/Port_Moresby,FALSE,1598475974
Ugana,Ugana,,-3.3164,151.7755,"Papua New Guinea",PG,PNG,"New Ireland","New Ireland",PG-NIK,province,,18.5,,,4,Pacific/Port_Moresby,FALSE,1598498999
Woimbo,Woimbo,,-7.0833,145.9667,"Papua New Guinea",PG,PNG,Morobe,Morobe,PG-MPL,province,,25.8,,,4,Pacific/Port_Moresby,FALSE,1598595158
Asikouei,Asikouei,,-9.7167,150.7667,"Papua New Guinea",PG,PNG,"Milne Bay","Milne Bay",PG-MBA,province,,29.8,,,4,Pacific/Port_Moresby,FALSE,1598246178
Haruape,Haruape,,-7.9320,145.4063,"Papua New Guinea",PG,PNG,Gulf,Gulf,PG-GPK,province,,1.5,,,5,Pacific/Port_Moresby,FALSE,1598261957
Ben,Ben,,-3.5377,142.7117,"Papua New Guinea",PG,PNG,"East Sepik","East Sepik",PG-ESW,province,,5.7,,,5,Pacific/Port_Moresby,FALSE,1598308310
Padua,Padua,,-6.1000,142.8500,"Papua New Guinea",PG,PNG,"Southern Highlands","Southern Highlands",PG-SHM,province,,72.8,,,4,Pacific/Port_Moresby,FALSE,1598151780
Mombuke,Mombuke,,-6.1500,141.8000,"Papua New Guinea",PG,PNG,Western,Western,PG-WPD,province,,4.7,,,5,Pacific/Port_Moresby,FALSE,1598851044
Tufi,Tufi,,-9.0833,149.3167,"Papua New Guinea",PG,PNG,Northern,Northern,PG-NPP,province,,8.9,,,5,Pacific/Port_Moresby,FALSE,1598327802
Rainuk,Rainuk,,-2.9687,141.9232,"Papua New Guinea",PG,PNG,"West Sepik","West Sepik",PG-SAN,province,,13.5,,,4,Pacific/Port_Moresby,FALSE,1598283320
Inebu,Inebu,,-3.3833,141.9333,"Papua New Guinea",PG,PNG,"West Sepik","West Sepik",PG-SAN,province,,13.5,,,4,Pacific/Port_Moresby,FALSE,1598525473
Ita,Ita,,-8.3630,147.1211,"Papua New Guinea",PG,PNG,Central,Central,PG-CPM,province,,4.3,,,5,Pacific/Port_Moresby,FALSE,1598681627
Yogei,Yogei,,-4.1333,143.7333,"Papua New Guinea",PG,PNG,"East Sepik","East Sepik",PG-ESW,province,,5.8,,,5,Pacific/Port_Moresby,FALSE,1598358159
Barea,Barea,Varia,-7.7912,144.9347,"Papua New Guinea",PG,PNG,Gulf,Gulf,PG-GPK,province,,1.5,,,5,Pacific/Port_Moresby,FALSE,1598035746
Mokukli,Mokukli,,-5.7833,149.3333,"Papua New Guinea",PG,PNG,"West New Britain","West New Britain",PG-WBK,province,,6.2,,,5,Pacific/Port_Moresby,FALSE,1598295459
Meiwhak,Meiwhak,"Miwhak Villages|Mihak|Miwhak",-3.6000,142.7333,"Papua New Guinea",PG,PNG,"East Sepik","East Sepik",PG-ESW,province,,5.7,,,4,Pacific/Port_Moresby,FALSE,1598340276
Kangarangate,Kangarangate,Kangarengate,-4.6700,145.1466,"Papua New Guinea",PG,PNG,Madang,Madang,PG-MPM,province,,12.9,,,4,Pacific/Port_Moresby,FALSE,1598887509
Karisoa,Karisoa,,-9.0533,148.9478,"Papua New Guinea",PG,PNG,Northern,Northern,PG-NPP,province,,8.9,,,5,Pacific/Port_Moresby,FALSE,1598308516
"Kanobaba 1","Kanobaba 1","Kanobaba’a 1",-9.1000,147.1500,"Papua New Guinea",PG,PNG,Central,Central,PG-CPM,province,,14.9,,,4,Pacific/Port_Moresby,FALSE,1598619201
Ainsi,Ainsi,,-8.1558,147.8685,"Papua New Guinea",PG,PNG,Northern,Northern,PG-NPP,province,,10.8,,,4,Pacific/Port_Moresby,FALSE,1598401114
Pauna,Pauna,,-4.0667,153.6500,"Papua New Guinea",PG,PNG,"New Ireland","New Ireland",PG-NIK,province,,18.5,,,4,Pacific/Port_Moresby,FALSE,1598415598
Pingirip,Pingirip,,-6.0000,143.6000,"Papua New Guinea",PG,PNG,"Southern Highlands","Southern Highlands",PG-SHM,province,,189.9,,,4,Pacific/Port_Moresby,FALSE,1598639477
Marva,Marva,,-4.1000,142.5500,"Papua New Guinea",PG,PNG,"East Sepik","East Sepik",PG-ESW,province,,5.7,,,5,Pacific/Port_Moresby,FALSE,1598773008
Gorangauma,Gorangauma,Goranggauma,-6.3500,145.1667,"Papua New Guinea",PG,PNG,Chimbu,Chimbu,PG-CPK,province,,29.9,,,4,Pacific/Port_Moresby,FALSE,1598371846
Dogora,Dogora,Dagora|Gagora,-7.7833,143.2167,"Papua New Guinea",PG,PNG,Western,Western,PG-WPD,province,,1.4,,,5,Pacific/Port_Moresby,FALSE,1598482475
Arat,Arat,,-6.2333,149.6500,"Papua New Guinea",PG,PNG,"West New Britain","West New Britain",PG-WBK,province,,6.2,,,5,Pacific/Port_Moresby,FALSE,1598145471
Giwaretore,Giwaretore,,-7.9489,143.8322,"Papua New Guinea",PG,PNG,Western,Western,PG-WPD,province,,1.4,,,5,Pacific/Port_Moresby,FALSE,1598548797
Lungzim,Lungzim,,-7.2500,141.7500,"Papua New Guinea",PG,PNG,Western,Western,PG-WPD,province,,1.4,,,5,Pacific/Port_Moresby,FALSE,1598468480
Riwalirubu,Riwalirubu,Riwalirupu,-9.9475,147.6709,"Papua New Guinea",PG,PNG,Central,Central,PG-CPM,province,,12.2,,,4,Pacific/Port_Moresby,FALSE,1598291238
Rainu,Rainu,,-9.3462,149.1618,"Papua New Guinea",PG,PNG,Northern,Northern,PG-NPP,province,,8.9,,,5,Pacific/Port_Moresby,FALSE,1598228971
Tinboli,Tinboli,,-4.0929,143.3802,"Papua New Guinea",PG,PNG,"East Sepik","East Sepik",PG-ESW,province,,5.8,,,5,Pacific/Port_Moresby,FALSE,1598220578
Nagum,Nagum,,-4.1167,141.2667,"Papua New Guinea",PG,PNG,"West Sepik","West Sepik",PG-SAN,province,,5.8,,,5,Pacific/Port_Moresby,FALSE,1598225071
Tabueni,Tabueni,,-9.0604,148.3409,"Papua New Guinea",PG,PNG,Northern,Northern,PG-NPP,province,,8.9,,,5,Pacific/Port_Moresby,FALSE,1598253854
Pulpaleis,Pulpaleis,,-5.7667,150.2833,"Papua New Guinea",PG,PNG,"West New Britain","West New Britain",PG-WBK,province,,31.4,,,4,Pacific/Port_Moresby,FALSE,1598636243
Malal,Malal,,-2.9600,152.6696,"Papua New Guinea",PG,PNG,"New Ireland","New Ireland",PG-NIK,province,,18.5,,,4,Pacific/Port_Moresby,FALSE,1598307748
Kundiman,Kundiman,,-4.6027,143.5182,"Papua New Guinea",PG,PNG,Enga,Enga,PG-EPW,province,,5.8,,,5,Pacific/Port_Moresby,FALSE,1598573892
Mwahui,Mwahui,,-10.6333,151.0500,"Papua New Guinea",PG,PNG,"Milne Bay","Milne Bay",PG-MBA,province,,22.7,,,4,Pacific/Port_Moresby,FALSE,1598481549
Hereng,Hereng,Hering,-3.7356,143.7800,"Papua New Guinea",PG,PNG,"East Sepik","East Sepik",PG-ESW,province,,42.2,,,4,Pacific/Port_Moresby,FALSE,1598012356
Kolt,Kolt,,-5.7167,144.9167,"Papua New Guinea",PG,PNG,"Western Highlands","Western Highlands",PG-WHM,province,,55.3,,,4,Pacific/Port_Moresby,FALSE,1598075657
Iualbit,Iualbit,,-4.8667,141.2167,"Papua New Guinea",PG,PNG,"West Sepik","West Sepik",PG-SAN,province,,3.3,,,5,Pacific/Port_Moresby,FALSE,1598665103
Sangamali,Sangamali,,-5.3500,151.3833,"Papua New Guinea",PG,PNG,"East New Britain","East New Britain",PG-EBR,province,,6.2,,,5,Pacific/Port_Moresby,FALSE,1598615287
Dueiya,Dueiya,,-6.6667,142.7000,"Papua New Guinea",PG,PNG,"Southern Highlands","Southern Highlands",PG-SHM,province,,28.5,,,4,Pacific/Port_Moresby,FALSE,1598326686
Teta,Teta,,-6.1167,143.6833,"Papua New Guinea",PG,PNG,"Southern Highlands","Southern Highlands",PG-SHM,province,,58.9,,,4,Pacific/Port_Moresby,FALSE,1598649202
Nabare,Nabare,,-6.1139,144.9610,"Papua New Guinea",PG,PNG,Chimbu,Chimbu,PG-CPK,province,,289.5,,,3,Pacific/Port_Moresby,FALSE,1598819056
Bata,Bata,,-6.3667,143.7000,"Papua New Guinea",PG,PNG,"Southern Highlands","Southern Highlands",PG-SHM,province,,32.8,,,4,Pacific/Port_Moresby,FALSE,1598230809
Teminggu,Teminggu,,-5.9667,144.7833,"Papua New Guinea",PG,PNG,"Western Highlands","Western Highlands",PG-WHM,province,,236.8,,,3,Pacific/Port_Moresby,FALSE,1598912767
Amoa,Amoa,,-7.7092,147.5174,"Papua New Guinea",PG,PNG,Morobe,Morobe,PG-MPL,province,,20.0,,,4,Pacific/Port_Moresby,FALSE,1598284349
Kuare,Kuare,,-6.4861,144.0032,"Papua New Guinea",PG,PNG,"Southern Highlands","Southern Highlands",PG-SHM,province,,32.8,,,4,Pacific/Port_Moresby,FALSE,1598742272
Veia,Veia,,-9.0777,147.0561,"Papua New Guinea",PG,PNG,Central,Central,PG-CPM,province,,14.9,,,4,Pacific/Port_Moresby,FALSE,1598536081
Aria,Aria,,-6.3420,144.2118,"Papua New Guinea",PG,PNG,"Southern Highlands","Southern Highlands",PG-SHM,province,,31.4,,,4,Pacific/Port_Moresby,FALSE,1598312366
Mok,Mok,Mouk,-2.5333,147.3000,"Papua New Guinea",PG,PNG,Manus,Manus,PG-MRL,province,,25.2,,,4,Pacific/Port_Moresby,FALSE,1598596963
Silimate,Silimate,Silimati,-5.5333,148.5500,"Papua New Guinea",PG,PNG,"West New Britain","West New Britain",PG-WBK,province,,6.2,,,5,Pacific/Port_Moresby,FALSE,1598309373
Beipa,Beipa,Veifa|Beipa’a,-8.5394,146.5614,"Papua New Guinea",PG,PNG,Central,Central,PG-CPM,province,,14.9,,,4,Pacific/Port_Moresby,FALSE,1598888813
Muritawa,Muritawa,,-9.9000,149.3167,"Papua New Guinea",PG,PNG,"Milne Bay","Milne Bay",PG-MBA,province,,11.2,,,4,Pacific/Port_Moresby,FALSE,1598480480
Balum,Balum,Bulam,-4.0177,153.6863,"Papua New Guinea",PG,PNG,"New Ireland","New Ireland",PG-NIK,province,,18.5,,,4,Pacific/Port_Moresby,FALSE,1598987110
"Sogo Number 2","Sogo Number 2","Sogo 2",-6.5121,144.9172,"Papua New Guinea",PG,PNG,Chimbu,Chimbu,PG-CPK,province,,21.9,,,4,Pacific/Port_Moresby,FALSE,1598650844
Koparaka,Koparaka,,-7.7258,146.9273,"Papua New Guinea",PG,PNG,Morobe,Morobe,PG-MPL,province,,14.0,,,4,Pacific/Port_Moresby,FALSE,1598967843
Siaken,Siaken,,-4.4713,154.2243,"Papua New Guinea",PG,PNG,Bougainville,Bougainville,PG-NSB,"autonomous region",,44.9,,,4,Pacific/Bougainville,FALSE,1598878784
Sewataitai,Sewataitai,,-9.9561,151.0088,"Papua New Guinea",PG,PNG,"Milne Bay","Milne Bay",PG-MBA,province,,29.8,,,4,Pacific/Port_Moresby,FALSE,1598420902
Buaroro,Buaroro,Buarore,-9.1592,148.4523,"Papua New Guinea",PG,PNG,Northern,Northern,PG-NPP,province,,8.9,,,5,Pacific/Port_Moresby,FALSE,1598166889
Sabiri,Sabiri,,-6.0500,145.6333,"Papua New Guinea",PG,PNG,"Eastern Highlands","Eastern Highlands",PG-EHG,province,,105.6,,,4,Pacific/Port_Moresby,FALSE,1598990341
"Miai Miai Number 2","Miai Miai Number 2",,-7.9000,145.3833,"Papua New Guinea",PG,PNG,Gulf,Gulf,PG-GPK,province,,1.5,,,5,Pacific/Port_Moresby,FALSE,1598577762
Tauhundon,Tauhundon,Tauhundor,-3.6633,142.7183,"Papua New Guinea",PG,PNG,"East Sepik","East Sepik",PG-ESW,province,,5.7,,,5,Pacific/Port_Moresby,FALSE,1598948393
Jambitanga,Jambitanga,,-3.7833,142.9333,"Papua New Guinea",PG,PNG,"East Sepik","East Sepik",PG-ESW,province,,27.0,,,4,Pacific/Port_Moresby,FALSE,1598373816
"Silo Silo","Silo Silo",,-10.5500,149.9500,"Papua New Guinea",PG,PNG,"Milne Bay","Milne Bay",PG-MBA,province,,14.2,,,4,Pacific/Port_Moresby,FALSE,1598092172
Rhunagi,Rhunagi,,-4.4667,152.0667,"Papua New Guinea",PG,PNG,"East New Britain","East New Britain",PG-EBR,province,,36.9,,,4,Pacific/Port_Moresby,FALSE,1598614146
Ranaw,Ranaw,,-5.8167,144.7333,"Papua New Guinea",PG,PNG,"Western Highlands","Western Highlands",PG-WHM,province,,234.0,,,3,Pacific/Port_Moresby,FALSE,1598788293
Gangamba,Gangamba,,-4.5667,143.8500,"Papua New Guinea",PG,PNG,"East Sepik","East Sepik",PG-ESW,province,,5.8,,,5,Pacific/Port_Moresby,FALSE,1598537593
Saga’aho,Saga'aho,,-10.6380,150.0869,"Papua New Guinea",PG,PNG,"Milne Bay","Milne Bay",PG-MBA,province,,14.2,,,4,Pacific/Port_Moresby,FALSE,1598826973
Atembip,Atembip,,-5.0833,141.2000,"Papua New Guinea",PG,PNG,Western,Western,PG-WPD,province,,4.7,,,5,Pacific/Port_Moresby,FALSE,1598381509
Kilden,Kilden,,-4.6637,145.9018,"Papua New Guinea",PG,PNG,Madang,Madang,PG-MPM,province,,51.9,,,4,Pacific/Port_Moresby,FALSE,1598817625
Uria,Uria,,-6.3667,143.6333,"Papua New Guinea",PG,PNG,"Southern Highlands","Southern Highlands",PG-SHM,province,,32.8,,,4,Pacific/Port_Moresby,FALSE,1598602550
Meagio,Meagio,,-7.5181,143.6840,"Papua New Guinea",PG,PNG,Gulf,Gulf,PG-GPK,province,,1.5,,,5,Pacific/Port_Moresby,FALSE,1598974496
Yamikum,Yamikum,,-3.6153,143.0785,"Papua New Guinea",PG,PNG,"East Sepik","East Sepik",PG-ESW,province,,99.9,,,4,Pacific/Port_Moresby,FALSE,1598221411
Moloi,Moloi,Molot,-4.1228,152.4543,"Papua New Guinea",PG,PNG,"East New Britain","East New Britain",PG-EBR,province,,217.5,,,3,Pacific/Port_Moresby,FALSE,1598346654
Totavi,Totavi,,-6.5917,155.1972,"Papua New Guinea",PG,PNG,Bougainville,Bougainville,PG-NSB,"autonomous region",,24.8,,,4,Pacific/Bougainville,FALSE,1598372557
Wagroni,Wagroni,Yagroner,-3.6088,141.4564,"Papua New Guinea",PG,PNG,"West Sepik","West Sepik",PG-SAN,province,,5.8,,,5,Pacific/Port_Moresby,FALSE,1598393514
Tamaro,Tamaro,,-5.7063,141.1378,"Papua New Guinea",PG,PNG,Western,Western,PG-WPD,province,,4.7,,,5,Pacific/Port_Moresby,FALSE,1598069700
Umuim,Umuim,Umum,-5.3021,145.7420,"Papua New Guinea",PG,PNG,Madang,Madang,PG-MPM,province,,51.5,,,4,Pacific/Port_Moresby,FALSE,1598295966
Pasusu,Pasusu,,-5.4500,150.8000,"Papua New Guinea",PG,PNG,"West New Britain","West New Britain",PG-WBK,province,,31.4,,,4,Pacific/Port_Moresby,FALSE,1598779296
Karu,Karu,,-4.4167,152.3667,"Papua New Guinea",PG,PNG,"East New Britain","East New Britain",PG-EBR,province,,217.5,,,3,Pacific/Port_Moresby,FALSE,1598063943
Minagoiravi,Minagoiravi,Koiravi|Koirava,-7.3833,144.5724,"Papua New Guinea",PG,PNG,Gulf,Gulf,PG-GPK,province,,1.5,,,5,Pacific/Port_Moresby,FALSE,1598038207
Akrani,Akrani,,-3.7398,141.2262,"Papua New Guinea",PG,PNG,"West Sepik","West Sepik",PG-SAN,province,,5.8,,,5,Pacific/Port_Moresby,FALSE,1598735188
Waisime,Waisime,,-6.3835,145.1224,"Papua New Guinea",PG,PNG,Chimbu,Chimbu,PG-CPK,province,,21.9,,,4,Pacific/Port_Moresby,FALSE,1598616034
Wagoitei,Wagoitei,,-3.4248,142.0821,"Papua New Guinea",PG,PNG,"West Sepik","West Sepik",PG-SAN,province,,13.5,,,4,Pacific/Port_Moresby,FALSE,1598736445
Pingamunga,Pingamunga,Pinamanga,-7.2947,146.3159,"Papua New Guinea",PG,PNG,Morobe,Morobe,PG-MPL,province,,25.8,,,4,Pacific/Port_Moresby,FALSE,1598870124
Rasirik,Rasirik,Rasarik,-3.7167,152.3667,"Papua New Guinea",PG,PNG,"New Ireland","New Ireland",PG-NIK,province,,18.5,,,4,Pacific/Port_Moresby,FALSE,1598104505
Meriani,Meriani,,-9.4500,147.4167,"Papua New Guinea",PG,PNG,Central,Central,PG-CPM,province,,14.9,,,4,Pacific/Port_Moresby,FALSE,1598381341
Wingei,Wingei,,-3.6500,142.9833,"Papua New Guinea",PG,PNG,"East Sepik","East Sepik",PG-ESW,province,,99.9,,,4,Pacific/Port_Moresby,FALSE,1598228958
Yamok,Yamok,"Wanike|Yamok 3",-4.0833,143.2167,"Papua New Guinea",PG,PNG,"East Sepik","East Sepik",PG-ESW,province,,27.0,,,4,Pacific/Port_Moresby,FALSE,1598309303
Binamarien,Binamarien,,-6.2885,146.0873,"Papua New Guinea",PG,PNG,"Eastern Highlands","Eastern Highlands",PG-EHG,province,,88.7,,,4,Pacific/Port_Moresby,FALSE,1598725625
Fore,Fore,,-6.7972,145.2559,"Papua New Guinea",PG,PNG,Chimbu,Chimbu,PG-CPK,province,,21.9,,,4,Pacific/Port_Moresby,FALSE,1598179282
Mindivi,Mindivi,,-4.6781,144.9831,"Papua New Guinea",PG,PNG,Madang,Madang,PG-MPM,province,,12.9,,,4,Pacific/Port_Moresby,FALSE,1598760371
Jegarata,Jegarata,,-8.8000,148.2333,"Papua New Guinea",PG,PNG,Northern,Northern,PG-NPP,province,,8.9,,,5,Pacific/Port_Moresby,FALSE,1598683991
Gawaruk,Gawaruk,,-6.5393,146.4217,"Papua New Guinea",PG,PNG,Morobe,Morobe,PG-MPL,province,,18.5,,,4,Pacific/Port_Moresby,FALSE,1598056380
Masi,Masi,,-5.6135,146.2225,"Papua New Guinea",PG,PNG,Madang,Madang,PG-MPM,province,,15.9,,,4,Pacific/Port_Moresby,FALSE,1598893223
Naura,Naura,,-10.3116,150.2226,"Papua New Guinea",PG,PNG,"Milne Bay","Milne Bay",PG-MBA,province,,14.2,,,4,Pacific/Port_Moresby,FALSE,1598473927
Mang,Mang,,-5.9333,149.4333,"Papua New Guinea",PG,PNG,"West New Britain","West New Britain",PG-WBK,province,,6.2,,,5,Pacific/Port_Moresby,FALSE,1598566145
Duwar,Duwar,,-4.2288,144.4089,"Papua New Guinea",PG,PNG,"East Sepik","East Sepik",PG-ESW,province,,5.8,,,5,Pacific/Port_Moresby,FALSE,1598643589
Avatip,Avatip,Awatip|Awatib,-4.1222,142.9189,"Papua New Guinea",PG,PNG,"East Sepik","East Sepik",PG-ESW,province,,5.7,,,5,Pacific/Port_Moresby,FALSE,1598897671
Siaga,Siaga,,-6.6313,146.0871,"Papua New Guinea",PG,PNG,Morobe,Morobe,PG-MPL,province,,18.5,,,4,Pacific/Port_Moresby,FALSE,1598619458
Laite,Laite,,-6.0080,142.8026,"Papua New Guinea",PG,PNG,"Southern Highlands","Southern Highlands",PG-SHM,province,,72.8,,,4,Pacific/Port_Moresby,FALSE,1598881642
Kwato,Kwato,"Kwato Mission",-10.6167,150.6333,"Papua New Guinea",PG,PNG,"Milne Bay","Milne Bay",PG-MBA,province,,22.7,,,4,Pacific/Port_Moresby,FALSE,1598356620
Varakanomu,Varakanomu,,-9.6667,147.8333,"Papua New Guinea",PG,PNG,Central,Central,PG-CPM,province,,12.2,,,4,Pacific/Port_Moresby,FALSE,1598590393
Kasanmin,Kasanmin,,-5.4216,141.9482,"Papua New Guinea",PG,PNG,Western,Western,PG-WPD,province,,4.7,,,5,Pacific/Port_Moresby,FALSE,1598457533
Pawapawi,Pawapawi,,-10.6333,151.0000,"Papua New Guinea",PG,PNG,"Milne Bay","Milne Bay",PG-MBA,province,,22.7,,,4,Pacific/Port_Moresby,FALSE,1598696575
Munjun,Munjun,Manguni,-3.6786,143.8262,"Papua New Guinea",PG,PNG,"East Sepik","East Sepik",PG-ESW,province,,42.2,,,4,Pacific/Port_Moresby,FALSE,1598735361
Konematalik,Konematalik,Konematelik,-2.4866,150.4240,"Papua New Guinea",PG,PNG,"New Ireland","New Ireland",PG-NIK,province,,27.6,,,4,Pacific/Port_Moresby,FALSE,1598283837
Sokelen,Sokelen,Sakalan,-6.3347,146.9391,"Papua New Guinea",PG,PNG,Morobe,Morobe,PG-MPL,province,,21.4,,,4,Pacific/Port_Moresby,FALSE,1598254727
Piawini,Piawini,,-7.3593,146.3315,"Papua New Guinea",PG,PNG,Morobe,Morobe,PG-MPL,province,,25.8,,,4,Pacific/Port_Moresby,FALSE,1598712997
Senagi,Senagi,,-3.6859,141.2096,"Papua New Guinea",PG,PNG,"West Sepik","West Sepik",PG-SAN,province,,5.8,,,5,Pacific/Port_Moresby,FALSE,1598549926
Beding,Beding,,-6.6192,147.6360,"Papua New Guinea",PG,PNG,Morobe,Morobe,PG-MPL,province,,22.7,,,4,Pacific/Port_Moresby,FALSE,1598401887
Enip,Enip,,-6.3083,143.5122,"Papua New Guinea",PG,PNG,"Southern Highlands","Southern Highlands",PG-SHM,province,,28.5,,,4,Pacific/Port_Moresby,FALSE,1598416071
Fangwel,Fangwel,,-3.4745,153.1972,"Papua New Guinea",PG,PNG,"New Ireland","New Ireland",PG-NIK,province,,18.5,,,4,Pacific/Port_Moresby,FALSE,1598744345
Patumara,Patumara,,-10.1667,151.2167,"Papua New Guinea",PG,PNG,"Milne Bay","Milne Bay",PG-MBA,province,,29.8,,,4,Pacific/Port_Moresby,FALSE,1598472153
Rugusak,Rugusak,"Rugasak|Rugasak 1",-4.2829,144.8839,"Papua New Guinea",PG,PNG,Madang,Madang,PG-MPM,province,,27.2,,,4,Pacific/Port_Moresby,FALSE,1598975788
"Kwikane Number 1","Kwikane Number 1","Kwikane 1",-6.2000,145.0000,"Papua New Guinea",PG,PNG,Chimbu,Chimbu,PG-CPK,province,,289.5,,,3,Pacific/Port_Moresby,FALSE,1598647312
Karegari,Karegari,,-5.6170,143.3174,"Papua New Guinea",PG,PNG,Enga,Enga,PG-EPW,province,,50.8,,,4,Pacific/Port_Moresby,FALSE,1598719196
Basor,Basor,,-5.6271,146.1878,"Papua New Guinea",PG,PNG,Madang,Madang,PG-MPM,province,,15.9,,,4,Pacific/Port_Moresby,FALSE,1598559618
Pabaluma,Pabaluma,,-5.8431,142.8050,"Papua New Guinea",PG,PNG,"Southern Highlands","Southern Highlands",PG-SHM,province,,43.3,,,4,Pacific/Port_Moresby,FALSE,1598341652
Ili,Ili,,-4.8667,152.3000,"Papua New Guinea",PG,PNG,"East New Britain","East New Britain",PG-EBR,province,,6.2,,,5,Pacific/Port_Moresby,FALSE,1598194897
Sakorila,Sakorila,,-5.7499,146.1140,"Papua New Guinea",PG,PNG,Madang,Madang,PG-MPM,province,,15.9,,,4,Pacific/Port_Moresby,FALSE,1598328209
Kalifilum,Kalifilum,,-5.5490,145.2971,"Papua New Guinea",PG,PNG,Madang,Madang,PG-MPM,province,,12.1,,,4,Pacific/Port_Moresby,FALSE,1598213945
Eibura,Eibura,,-6.2000,143.8167,"Papua New Guinea",PG,PNG,"Southern Highlands","Southern Highlands",PG-SHM,province,,58.9,,,4,Pacific/Port_Moresby,FALSE,1598016623
Iwatimna,Iwatimna,Iwatimnga,-7.3825,146.2020,"Papua New Guinea",PG,PNG,Morobe,Morobe,PG-MPL,province,,25.8,,,4,Pacific/Port_Moresby,FALSE,1598233520
"Kamanakor Villages","Kamanakor Villages",,-3.7087,142.9338,"Papua New Guinea",PG,PNG,"East Sepik","East Sepik",PG-ESW,province,,99.9,,,4,Pacific/Port_Moresby,FALSE,1598115486
"Alo Aloia","Alo Aloia","Alo Aloia Mission",-9.4500,150.8167,"Papua New Guinea",PG,PNG,"Milne Bay","Milne Bay",PG-MBA,province,,29.8,,,4,Pacific/Port_Moresby,FALSE,1598074775
Kaubademki,Kaubademki,,-4.9598,151.9738,"Papua New Guinea",PG,PNG,"East New Britain","East New Britain",PG-EBR,province,,6.2,,,5,Pacific/Port_Moresby,FALSE,1598865595
Labu,Labu,"Labu Number 1",-6.7472,146.9594,"Papua New Guinea",PG,PNG,Morobe,Morobe,PG-MPL,province,,117.8,,,4,Pacific/Port_Moresby,FALSE,1598322989
Tavultae,Tavultae,Taviltae,-4.5891,145.5169,"Papua New Guinea",PG,PNG,Madang,Madang,PG-MPM,province,,51.9,,,4,Pacific/Port_Moresby,FALSE,1598956760
Langadis,Langadis,,-3.1333,151.7667,"Papua New Guinea",PG,PNG,"New Ireland","New Ireland",PG-NIK,province,,18.5,,,4,Pacific/Port_Moresby,FALSE,1598625828
Gumalu,Gumalu,,-5.2228,145.5996,"Papua New Guinea",PG,PNG,Madang,Madang,PG-MPM,province,,51.5,,,4,Pacific/Port_Moresby,FALSE,1598394590
Womakaiwa,Womakaiwa,Wamakaiwu|Womakaiwu,-7.4463,145.8815,"Papua New Guinea",PG,PNG,Gulf,Gulf,PG-GPK,province,,13.0,,,4,Pacific/Port_Moresby,FALSE,1598184420
Kainde,Kainde,"Kaindi|Kaindi 1",-8.2831,148.1989,"Papua New Guinea",PG,PNG,Northern,Northern,PG-NPP,province,,8.9,,,5,Pacific/Port_Moresby,FALSE,1598215244
Tusinofi,Tusinofi,Tibunofi|Tebinofi,-6.2301,145.7378,"Papua New Guinea",PG,PNG,"Eastern Highlands","Eastern Highlands",PG-EHG,province,,68.1,,,4,Pacific/Port_Moresby,FALSE,1598147844
Sopau,Sopau,,-3.7467,152.5506,"Papua New Guinea",PG,PNG,"New Ireland","New Ireland",PG-NIK,province,,18.5,,,4,Pacific/Port_Moresby,FALSE,1598294255
Ahia,Ahia,,-7.6833,145.4500,"Papua New Guinea",PG,PNG,Gulf,Gulf,PG-GPK,province,,1.5,,,5,Pacific/Port_Moresby,FALSE,1598531152
Bogut,Bogut,,-4.8420,141.2062,"Papua New Guinea",PG,PNG,"West Sepik","West Sepik",PG-SAN,province,,3.3,,,5,Pacific/Port_Moresby,FALSE,1598382179
Sererian,Sererian,,-4.0667,141.2333,"Papua New Guinea",PG,PNG,"West Sepik","West Sepik",PG-SAN,province,,5.8,,,5,Pacific/Port_Moresby,FALSE,1598251407
Geroro,Geroro,,-5.6200,142.4059,"Papua New Guinea",PG,PNG,"Southern Highlands","Southern Highlands",PG-SHM,province,,43.3,,,4,Pacific/Port_Moresby,FALSE,1598224430
Burtemvip,Burtemvip,,-5.1833,141.2667,"Papua New Guinea",PG,PNG,Western,Western,PG-WPD,province,,4.7,,,5,Pacific/Port_Moresby,FALSE,1598025711
Suk,Suk,,-3.9500,144.2333,"Papua New Guinea",PG,PNG,"East Sepik","East Sepik",PG-ESW,province,,5.8,,,5,Pacific/Port_Moresby,FALSE,1598348057
Aiamina,Aiamina,,-3.3541,141.6414,"Papua New Guinea",PG,PNG,"West Sepik","West Sepik",PG-SAN,province,,5.8,,,5,Pacific/Port_Moresby,FALSE,1598558726
Koreaf,Koreaf,,-9.3398,149.1400,"Papua New Guinea",PG,PNG,Northern,Northern,PG-NPP,province,,8.9,,,5,Pacific/Port_Moresby,FALSE,1598685312
Amfa,Amfa,Angfa|Amfar,-3.3799,153.2949,"Papua New Guinea",PG,PNG,"New Ireland","New Ireland",PG-NIK,province,,18.5,,,4,Pacific/Port_Moresby,FALSE,1598490030
Miasomae,Miasomae,,-5.9500,141.0500,"Papua New Guinea",PG,PNG,Western,Western,PG-WPD,province,,4.7,,,5,Pacific/Port_Moresby,FALSE,1598412459
Angna,Angna,Angra,-3.6646,142.5318,"Papua New Guinea",PG,PNG,"West Sepik","West Sepik",PG-SAN,province,,20.3,,,4,Pacific/Port_Moresby,FALSE,1598807234
Kobiak,Kobiak,,-7.3000,146.6833,"Papua New Guinea",PG,PNG,Morobe,Morobe,PG-MPL,province,,14.0,,,4,Pacific/Port_Moresby,FALSE,1598641990
Namkerio,Namkerio,Namkario,-5.5833,154.9333,"Papua New Guinea",PG,PNG,Bougainville,Bougainville,PG-NSB,"autonomous region",,44.9,,,4,Pacific/Bougainville,FALSE,1598421501
Nonowaul,Nonowaul,,-2.6773,150.6463,"Papua New Guinea",PG,PNG,"New Ireland","New Ireland",PG-NIK,province,,27.6,,,4,Pacific/Port_Moresby,FALSE,1598648158
Naro,Naro,,-7.4167,144.7833,"Papua New Guinea",PG,PNG,Gulf,Gulf,PG-GPK,province,,1.5,,,5,Pacific/Port_Moresby,FALSE,1598847867
Tusuku,Tusuku,,-6.4167,142.8167,"Papua New Guinea",PG,PNG,"Southern Highlands","Southern Highlands",PG-SHM,province,,28.5,,,4,Pacific/Port_Moresby,FALSE,1598623643
Palimbei,Palimbei,Palambai,-4.1833,143.2333,"Papua New Guinea",PG,PNG,"East Sepik","East Sepik",PG-ESW,province,,27.0,,,4,Pacific/Port_Moresby,FALSE,1598849143
Gueibi,Gueibi,Guebi|Guiebe|Guiebi,-5.6525,145.1240,"Papua New Guinea",PG,PNG,Madang,Madang,PG-MPM,province,,12.1,,,4,Pacific/Port_Moresby,FALSE,1598281035
Ieran,Ieran,,-5.9807,141.1076,"Papua New Guinea",PG,PNG,Western,Western,PG-WPD,province,,4.7,,,5,Pacific/Port_Moresby,FALSE,1598053083
Kiraigu,Kiraigu,,-6.2167,145.1000,"Papua New Guinea",PG,PNG,Chimbu,Chimbu,PG-CPK,province,,70.2,,,4,Pacific/Port_Moresby,FALSE,1598756226
Walwalian,Walwalian,,-4.1500,152.4833,"Papua New Guinea",PG,PNG,"East New Britain","East New Britain",PG-EBR,province,,217.5,,,3,Pacific/Port_Moresby,FALSE,1598998205
Metemin,Metemin,Metamin,-2.4114,150.2798,"Papua New Guinea",PG,PNG,"New Ireland","New Ireland",PG-NIK,province,,27.6,,,4,Pacific/Port_Moresby,FALSE,1598626462
Simagahi,Simagahi,,-10.5111,150.6661,"Papua New Guinea",PG,PNG,"Milne Bay","Milne Bay",PG-MBA,province,,22.7,,,4,Pacific/Port_Moresby,FALSE,1598918682
Kunjura,Kunjura,Kunjuna,-6.3833,143.5833,"Papua New Guinea",PG,PNG,"Southern Highlands","Southern Highlands",PG-SHM,province,,28.5,,,4,Pacific/Port_Moresby,FALSE,1598604433
Ginigolo,Ginigolo,,-9.8314,147.5533,"Papua New Guinea",PG,PNG,Central,Central,PG-CPM,province,,12.2,,,4,Pacific/Port_Moresby,FALSE,1598122365
Komsu,Komsu,,-4.3667,142.9333,"Papua New Guinea",PG,PNG,"East Sepik","East Sepik",PG-ESW,province,,5.7,,,5,Pacific/Port_Moresby,FALSE,1598631476
Aita,Aita,,-8.8667,142.9000,"Papua New Guinea",PG,PNG,Western,Western,PG-WPD,province,,2.1,,,5,Pacific/Port_Moresby,FALSE,1598751875
Padowa,Padowa,,-10.4000,150.1333,"Papua New Guinea",PG,PNG,"Milne Bay","Milne Bay",PG-MBA,province,,14.2,,,4,Pacific/Port_Moresby,FALSE,1598177619
Hewiia,Hewiia,,-10.2500,150.8167,"Papua New Guinea",PG,PNG,"Milne Bay","Milne Bay",PG-MBA,province,,14.2,,,4,Pacific/Port_Moresby,FALSE,1598170637
Tamadigi,Tamadigi,,-6.6667,143.4333,"Papua New Guinea",PG,PNG,"Southern Highlands","Southern Highlands",PG-SHM,province,,28.5,,,4,Pacific/Port_Moresby,FALSE,1598644689
Kikori,Kikori,,-8.4914,147.4064,"Papua New Guinea",PG,PNG,Central,Central,PG-CPM,province,,4.3,,,5,Pacific/Port_Moresby,FALSE,1598694816
Wogewoge,Wogewoge,,-5.5415,149.4789,"Papua New Guinea",PG,PNG,"West New Britain","West New Britain",PG-WBK,province,,6.2,,,5,Pacific/Port_Moresby,FALSE,1598851447
Omdata,Omdata,Omdara,-6.1446,144.8957,"Papua New Guinea",PG,PNG,Chimbu,Chimbu,PG-CPK,province,,145.7,,,4,Pacific/Port_Moresby,FALSE,1598793825
Panafelava,Panafelava,Pannafeavo,-3.0000,151.5333,"Papua New Guinea",PG,PNG,"New Ireland","New Ireland",PG-NIK,province,,27.6,,,4,Pacific/Port_Moresby,FALSE,1598404456
Bongganko,Bongganko,,-6.4568,147.5713,"Papua New Guinea",PG,PNG,Morobe,Morobe,PG-MPL,province,,22.7,,,4,Pacific/Port_Moresby,FALSE,1598325486
Delena,Delena,,-8.8569,146.5604,"Papua New Guinea",PG,PNG,Central,Central,PG-CPM,province,,14.9,,,4,Pacific/Port_Moresby,FALSE,1598932947
Matahei,Matahei,Matahai,-2.1036,146.3985,"Papua New Guinea",PG,PNG,Manus,Manus,PG-MRL,province,,25.2,,,4,Pacific/Port_Moresby,FALSE,1598114675
Kageta,Kageta,,-9.9000,149.7500,"Papua New Guinea",PG,PNG,"Milne Bay","Milne Bay",PG-MBA,province,,14.2,,,4,Pacific/Port_Moresby,FALSE,1598476646
Kaup,Kaup,"Koup|Kaup Villages",-3.8104,144.0232,"Papua New Guinea",PG,PNG,"East Sepik","East Sepik",PG-ESW,province,,5.8,,,5,Pacific/Port_Moresby,FALSE,1598353829
Iapoa,Iapoa,Iopoa,-10.2534,150.5694,"Papua New Guinea",PG,PNG,"Milne Bay","Milne Bay",PG-MBA,province,,14.2,,,4,Pacific/Port_Moresby,FALSE,1598890126
Wakoiaia,Wakoiaia,,-10.5833,150.7000,"Papua New Guinea",PG,PNG,"Milne Bay","Milne Bay",PG-MBA,province,,22.7,,,4,Pacific/Port_Moresby,FALSE,1598365065
Moiyo,Moiyo,,-6.5034,144.9153,"Papua New Guinea",PG,PNG,Chimbu,Chimbu,PG-CPK,province,,21.9,,,4,Pacific/Port_Moresby,FALSE,1598541785
Yorkia,Yorkia,,-5.7032,146.3010,"Papua New Guinea",PG,PNG,Madang,Madang,PG-MPM,province,,15.9,,,4,Pacific/Port_Moresby,FALSE,1598497110
Pembi,Pembi,Pambi,-6.0319,143.6004,"Papua New Guinea",PG,PNG,"Southern Highlands","Southern Highlands",PG-SHM,province,,189.9,,,4,Pacific/Port_Moresby,FALSE,1598806958
Aiyawou,Aiyawou,Aijawou|Aiyawo,-2.8833,141.2333,"Papua New Guinea",PG,PNG,"West Sepik","West Sepik",PG-SAN,province,,5.8,,,5,Pacific/Port_Moresby,FALSE,1598022004
Gogumkanum,Gogumkanum,,-6.0276,144.7813,"Papua New Guinea",PG,PNG,Chimbu,Chimbu,PG-CPK,province,,283.1,,,3,Pacific/Port_Moresby,FALSE,1598385099
Apkomrae,Apkomrae,,-5.8280,141.4332,"Papua New Guinea",PG,PNG,Western,Western,PG-WPD,province,,4.7,,,5,Pacific/Port_Moresby,FALSE,1598726091
Tiatesa,Tiatesa,,-5.5476,143.9793,"Papua New Guinea",PG,PNG,Enga,Enga,PG-EPW,province,,115.0,,,4,Pacific/Port_Moresby,FALSE,1598143855
Vilirupu,Vilirupu,,-10.0833,148.1667,"Papua New Guinea",PG,PNG,Central,Central,PG-CPM,province,,7.8,,,5,Pacific/Port_Moresby,FALSE,1598418758
Kwadewalai,Kwadewalai,,-10.1500,151.2333,"Papua New Guinea",PG,PNG,"Milne Bay","Milne Bay",PG-MBA,province,,29.8,,,4,Pacific/Port_Moresby,FALSE,1598533273
Leiya,Leiya,,-6.1374,145.1539,"Papua New Guinea",PG,PNG,Chimbu,Chimbu,PG-CPK,province,,70.2,,,4,Pacific/Port_Moresby,FALSE,1598591731
Wabumaia,Wabumaia,,-9.9667,149.6167,"Papua New Guinea",PG,PNG,"Milne Bay","Milne Bay",PG-MBA,province,,14.2,,,4,Pacific/Port_Moresby,FALSE,1598033335
Kampepe,Kampepe,,-6.4333,146.5833,"Papua New Guinea",PG,PNG,Morobe,Morobe,PG-MPL,province,,21.4,,,4,Pacific/Port_Moresby,FALSE,1598717567
Ondoro,Ondoro,,-9.1177,148.4948,"Papua New Guinea",PG,PNG,Northern,Northern,PG-NPP,province,,8.9,,,5,Pacific/Port_Moresby,FALSE,1598955851
Kalingu,Kalingu,Kalinggu,-5.9167,145.0500,"Papua New Guinea",PG,PNG,Chimbu,Chimbu,PG-CPK,province,,235.3,,,3,Pacific/Port_Moresby,FALSE,1598792106
Wingia,Wingia,,-7.7833,145.8667,"Papua New Guinea",PG,PNG,Gulf,Gulf,PG-GPK,province,,13.0,,,4,Pacific/Port_Moresby,FALSE,1598152225
Gumini,Gumini,,-10.3500,150.2667,"Papua New Guinea",PG,PNG,"Milne Bay","Milne Bay",PG-MBA,province,,14.2,,,4,Pacific/Port_Moresby,FALSE,1598864777
Dawabil,Dawabil,,-4.8500,141.2500,"Papua New Guinea",PG,PNG,"West Sepik","West Sepik",PG-SAN,province,,3.3,,,5,Pacific/Port_Moresby,FALSE,1598307169
"Gena Number 2","Gena Number 2","Gena 2",-6.1833,144.9167,"Papua New Guinea",PG,PNG,Chimbu,Chimbu,PG-CPK,province,,145.7,,,4,Pacific/Port_Moresby,FALSE,1598592072
Mioko,Mioko,,-4.2239,152.4560,"Papua New Guinea",PG,PNG,"East New Britain","East New Britain",PG-EBR,province,,217.5,,,3,Pacific/Port_Moresby,FALSE,1598499883
Tiomrai,Tiomrai,,-5.8294,141.3644,"Papua New Guinea",PG,PNG,Western,Western,PG-WPD,province,,4.7,,,5,Pacific/Port_Moresby,FALSE,1598126881
Waeme,Waeme,,-10.3167,150.5500,"Papua New Guinea",PG,PNG,"Milne Bay","Milne Bay",PG-MBA,province,,14.2,,,4,Pacific/Port_Moresby,FALSE,1598296194
Mokonegau’um,Mokonegau'um,Mokenegaulum,-6.2833,145.0000,"Papua New Guinea",PG,PNG,Chimbu,Chimbu,PG-CPK,province,,21.9,,,4,Pacific/Port_Moresby,FALSE,1598802817
Kuyahapa,Kuyahapa,,-6.0877,145.6930,"Papua New Guinea",PG,PNG,"Eastern Highlands","Eastern Highlands",PG-EHG,province,,68.1,,,4,Pacific/Port_Moresby,FALSE,1598843112
Taur,Taur,,-4.7500,145.9333,"Papua New Guinea",PG,PNG,Madang,Madang,PG-MPM,province,,51.9,,,4,Pacific/Port_Moresby,FALSE,1598795631
Koep,Koep,Koet,-5.3707,147.1918,"Papua New Guinea",PG,PNG,Madang,Madang,PG-MPM,province,,15.9,,,4,Pacific/Port_Moresby,FALSE,1598495801
Kelekapana,Kelekapana,,-10.1347,148.0898,"Papua New Guinea",PG,PNG,Central,Central,PG-CPM,province,,7.8,,,5,Pacific/Port_Moresby,FALSE,1598267780
Garamokogena,Garamokogena,,-9.8762,147.9734,"Papua New Guinea",PG,PNG,Central,Central,PG-CPM,province,,12.2,,,4,Pacific/Port_Moresby,FALSE,1598996594
Laua,Laua,,-10.1702,149.2656,"Papua New Guinea",PG,PNG,Central,Central,PG-CPM,province,,7.8,,,5,Pacific/Port_Moresby,FALSE,1598354865
Labuka,Labuka,Rabuka,-9.5327,147.3498,"Papua New Guinea",PG,PNG,Central,Central,PG-CPM,province,,14.9,,,4,Pacific/Port_Moresby,FALSE,1598783859
Kanidigi,Kanidigi,,-6.6667,143.4667,"Papua New Guinea",PG,PNG,"Southern Highlands","Southern Highlands",PG-SHM,province,,28.5,,,4,Pacific/Port_Moresby,FALSE,1598597616
Aingdai,Aingdai,,-5.2833,144.7667,"Papua New Guinea",PG,PNG,Madang,Madang,PG-MPM,province,,12.1,,,4,Pacific/Port_Moresby,FALSE,1598165718
Osikwea,Osikwea,Sikwea,-8.8333,151.1500,"Papua New Guinea",PG,PNG,"Milne Bay","Milne Bay",PG-MBA,province,,72.2,,,4,Pacific/Port_Moresby,FALSE,1598496238
Gwaringiri,Gwaringiri,,-5.1066,144.8982,"Papua New Guinea",PG,PNG,Madang,Madang,PG-MPM,province,,12.1,,,4,Pacific/Port_Moresby,FALSE,1598495272
Erehe,Erehe,,-7.7471,143.9331,"Papua New Guinea",PG,PNG,Gulf,Gulf,PG-GPK,province,,1.5,,,5,Pacific/Port_Moresby,FALSE,1598082628
Marbuk,Marbuk,Mabuk,-3.9799,144.3874,"Papua New Guinea",PG,PNG,"East Sepik","East Sepik",PG-ESW,province,,5.8,,,5,Pacific/Port_Moresby,FALSE,1598718447
"Sarum 1","Sarum 1",Sarum,-4.0208,143.2745,"Papua New Guinea",PG,PNG,"East Sepik","East Sepik",PG-ESW,province,,27.0,,,4,Pacific/Port_Moresby,FALSE,1598009436
Tul,Tul,,-5.3217,147.6194,"Papua New Guinea",PG,PNG,Morobe,Morobe,PG-MPL,province,,23.8,,,4,Pacific/Port_Moresby,FALSE,1598123601
Skotiaho,Skotiaho,,-3.0167,141.0833,"Papua New Guinea",PG,PNG,"West Sepik","West Sepik",PG-SAN,province,,5.8,,,5,Pacific/Port_Moresby,FALSE,1598410182
Butika,Butika,,-3.5492,142.9689,"Papua New Guinea",PG,PNG,"East Sepik","East Sepik",PG-ESW,province,,99.9,,,4,Pacific/Port_Moresby,FALSE,1598771657
Maklongmerang,Maklongmerang,,-6.0667,149.5667,"Papua New Guinea",PG,PNG,"West New Britain","West New Britain",PG-WBK,province,,6.2,,,5,Pacific/Port_Moresby,FALSE,1598898530
Hemieta,Hemieta,,-7.4000,145.9833,"Papua New Guinea",PG,PNG,Gulf,Gulf,PG-GPK,province,,13.0,,,4,Pacific/Port_Moresby,FALSE,1598817855
Panaras,Panaras,,-3.1188,151.4930,"Papua New Guinea",PG,PNG,"New Ireland","New Ireland",PG-NIK,province,,18.5,,,4,Pacific/Port_Moresby,FALSE,1598289614
Lienbil,Lienbil,Lenbil,-3.0578,152.5616,"Papua New Guinea",PG,PNG,"New Ireland","New Ireland",PG-NIK,province,,18.5,,,4,Pacific/Port_Moresby,FALSE,1598599429
Bensim,Bensim,,-3.9847,143.0807,"Papua New Guinea",PG,PNG,"East Sepik","East Sepik",PG-ESW,province,,27.0,,,4,Pacific/Port_Moresby,FALSE,1598397253
Ainbai,Ainbai,"New Anbai",-3.0878,141.1462,"Papua New Guinea",PG,PNG,"West Sepik","West Sepik",PG-SAN,province,,5.8,,,5,Pacific/Port_Moresby,FALSE,1598378513
Daroakomana,Daroakomana,,-9.7824,147.7775,"Papua New Guinea",PG,PNG,Central,Central,PG-CPM,province,,12.2,,,4,Pacific/Port_Moresby,FALSE,1598410460
Shuamosom,Shuamosom,,-6.2000,142.2667,"Papua New Guinea",PG,PNG,Western,Western,PG-WPD,province,,1.4,,,5,Pacific/Port_Moresby,FALSE,1598384554
Noala,Noala,Nuala,-6.2667,149.9000,"Papua New Guinea",PG,PNG,"West New Britain","West New Britain",PG-WBK,province,,6.2,,,5,Pacific/Port_Moresby,FALSE,1598246106
Golmante,Golmante,,-5.2167,144.6667,"Papua New Guinea",PG,PNG,Madang,Madang,PG-MPM,province,,12.9,,,4,Pacific/Port_Moresby,FALSE,1598345192
Honziuknan,Honziuknan,,-6.2000,147.0833,"Papua New Guinea",PG,PNG,Morobe,Morobe,PG-MPL,province,,11.6,,,4,Pacific/Port_Moresby,FALSE,1598630012
Hosanai,Hosanai,,-5.6447,141.2389,"Papua New Guinea",PG,PNG,Western,Western,PG-WPD,province,,4.7,,,5,Pacific/Port_Moresby,FALSE,1598685969
Silaul,Silaul,,-5.1817,145.5651,"Papua New Guinea",PG,PNG,Madang,Madang,PG-MPM,province,,51.5,,,4,Pacific/Port_Moresby,FALSE,1598508239
Kura,Kura,,-8.7500,148.1333,"Papua New Guinea",PG,PNG,Northern,Northern,PG-NPP,province,,10.8,,,4,Pacific/Port_Moresby,FALSE,1598264994
Malasi,Malasi,,-5.4626,150.9835,"Papua New Guinea",PG,PNG,"West New Britain","West New Britain",PG-WBK,province,,31.4,,,4,Pacific/Port_Moresby,FALSE,1598324440
Wununga,Wununga,,-6.3500,146.6000,"Papua New Guinea",PG,PNG,Morobe,Morobe,PG-MPL,province,,21.4,,,4,Pacific/Port_Moresby,FALSE,1598371774
Nul,Nul,,-6.1361,144.9436,"Papua New Guinea",PG,PNG,Chimbu,Chimbu,PG-CPK,province,,284.5,,,3,Pacific/Port_Moresby,FALSE,1598468043
"Malba 1 Villages","Malba 1 Villages","Malba 1|Malba Number 1",-3.6565,143.1120,"Papua New Guinea",PG,PNG,"East Sepik","East Sepik",PG-ESW,province,,99.9,,,4,Pacific/Port_Moresby,FALSE,1598644791
Yasuru,Yasuru,,-6.6072,146.1793,"Papua New Guinea",PG,PNG,Morobe,Morobe,PG-MPL,province,,18.5,,,4,Pacific/Port_Moresby,FALSE,1598033261
Bwussi,Bwussi,,-6.9333,146.9167,"Papua New Guinea",PG,PNG,Morobe,Morobe,PG-MPL,province,,20.0,,,4,Pacific/Port_Moresby,FALSE,1598681285
Hilobi,Hilobi,,-6.3833,142.4167,"Papua New Guinea",PG,PNG,Western,Western,PG-WPD,province,,1.4,,,5,Pacific/Port_Moresby,FALSE,1598671649
Mugumugu,Mugumugu,,-8.2167,142.4500,"Papua New Guinea",PG,PNG,Western,Western,PG-WPD,province,,1.4,,,5,Pacific/Port_Moresby,FALSE,1598510443
"Rapitok Number 1","Rapitok Number 1",,-4.3667,152.1167,"Papua New Guinea",PG,PNG,"East New Britain","East New Britain",PG-EBR,province,,36.9,,,4,Pacific/Port_Moresby,FALSE,1598914182
Bombita,Bombita,,-3.6297,142.8690,"Papua New Guinea",PG,PNG,"East Sepik","East Sepik",PG-ESW,province,,99.9,,,4,Pacific/Port_Moresby,FALSE,1598726548
Binouri,Binouri,,-7.8167,143.8500,"Papua New Guinea",PG,PNG,Gulf,Gulf,PG-GPK,province,,1.5,,,5,Pacific/Port_Moresby,FALSE,1598210575
Kobokane,Kobokane,,-6.0918,144.9295,"Papua New Guinea",PG,PNG,Chimbu,Chimbu,PG-CPK,province,,145.7,,,4,Pacific/Port_Moresby,FALSE,1598336047
Runglo,Runglo,,-5.8500,148.6667,"Papua New Guinea",PG,PNG,"West New Britain","West New Britain",PG-WBK,province,,6.2,,,5,Pacific/Port_Moresby,FALSE,1598418880
Kwiena,Kwiena,,-5.7434,144.6441,"Papua New Guinea",PG,PNG,"Western Highlands","Western Highlands",PG-WHM,province,,234.0,,,3,Pacific/Port_Moresby,FALSE,1598808794
Vaivai,Vaivai,,-9.6292,147.4561,"Papua New Guinea",PG,PNG,Central,Central,PG-CPM,province,,14.9,,,4,Pacific/Port_Moresby,FALSE,1598215599
Miahore,Miahore,,-5.7737,141.2671,"Papua New Guinea",PG,PNG,Western,Western,PG-WPD,province,,4.7,,,5,Pacific/Port_Moresby,FALSE,1598485870
Yugugutu,Yugugutu,,-6.3333,145.4333,"Papua New Guinea",PG,PNG,"Eastern Highlands","Eastern Highlands",PG-EHG,province,,57.5,,,4,Pacific/Port_Moresby,FALSE,1598966994
Omoritulavava,Omoritulavava,,-8.1637,147.0502,"Papua New Guinea",PG,PNG,Central,Central,PG-CPM,province,,4.3,,,5,Pacific/Port_Moresby,FALSE,1598378871
Sogale,Sogale,,-8.8667,142.8667,"Papua New Guinea",PG,PNG,Western,Western,PG-WPD,province,,2.1,,,5,Pacific/Port_Moresby,FALSE,1598609871
Waifanomu,Waifanomu,"Waifanoumu|Sirum 1",-9.5767,147.7684,"Papua New Guinea",PG,PNG,Central,Central,PG-CPM,province,,12.2,,,4,Pacific/Port_Moresby,FALSE,1598907998
Usokof,Usokof,,-6.8925,141.5262,"Papua New Guinea",PG,PNG,Western,Western,PG-WPD,province,,1.4,,,5,Pacific/Port_Moresby,FALSE,1598387531
Maribu,Maribu,,-6.1333,142.9667,"Papua New Guinea",PG,PNG,"Southern Highlands","Southern Highlands",PG-SHM,province,,72.8,,,4,Pacific/Port_Moresby,FALSE,1598000027
Iak,Iak,,-5.6937,143.4497,"Papua New Guinea",PG,PNG,Enga,Enga,PG-EPW,province,,50.8,,,4,Pacific/Port_Moresby,FALSE,1598925081
Malasiga,Malasiga,Malasigu,-6.6919,147.8013,"Papua New Guinea",PG,PNG,Morobe,Morobe,PG-MPL,province,,22.7,,,4,Pacific/Port_Moresby,FALSE,1598929961
Lemau,Lemau,,-3.1811,151.6350,"Papua New Guinea",PG,PNG,"New Ireland","New Ireland",PG-NIK,province,,18.5,,,4,Pacific/Port_Moresby,FALSE,1598150247
Nimalavoko,Nimalavoko,,-6.0667,145.2500,"Papua New Guinea",PG,PNG,"Eastern Highlands","Eastern Highlands",PG-EHG,province,,109.6,,,4,Pacific/Port_Moresby,FALSE,1598662868
"Nemwa Ili Ili","Nemwa Ili Ili",,-9.6000,150.7667,"Papua New Guinea",PG,PNG,"Milne Bay","Milne Bay",PG-MBA,province,,29.8,,,4,Pacific/Port_Moresby,FALSE,1598085947
Dagoda,Dagoda,,-9.6307,147.4117,"Papua New Guinea",PG,PNG,Central,Central,PG-CPM,province,,14.9,,,4,Pacific/Port_Moresby,FALSE,1598436205
Lelefiru,Lelefiru,Lilifiru,-8.0844,146.0620,"Papua New Guinea",PG,PNG,Gulf,Gulf,PG-GPK,province,,13.0,,,4,Pacific/Port_Moresby,FALSE,1598110659
Kamasau,Kamasau,,-3.7393,143.8145,"Papua New Guinea",PG,PNG,"East Sepik","East Sepik",PG-ESW,province,,42.2,,,4,Pacific/Port_Moresby,FALSE,1598618558
Bogala,Bogala,,-10.6518,150.9137,"Papua New Guinea",PG,PNG,"Milne Bay","Milne Bay",PG-MBA,province,,22.7,,,4,Pacific/Port_Moresby,FALSE,1598669529
Muniwara,Muniwara,"Old Muniwara",-3.7603,143.6909,"Papua New Guinea",PG,PNG,"East Sepik","East Sepik",PG-ESW,province,,25.6,,,4,Pacific/Port_Moresby,FALSE,1598168144
"Mikau 1","Mikau 1","Mikau Number 1",-3.7465,143.0503,"Papua New Guinea",PG,PNG,"East Sepik","East Sepik",PG-ESW,province,,27.0,,,4,Pacific/Port_Moresby,FALSE,1598551086
Torowa,Torowa,,-6.3890,146.6364,"Papua New Guinea",PG,PNG,Morobe,Morobe,PG-MPL,province,,21.4,,,4,Pacific/Port_Moresby,FALSE,1598266122
Nimabuku,Nimabuku,,-5.8833,144.9000,"Papua New Guinea",PG,PNG,Chimbu,Chimbu,PG-CPK,province,,283.1,,,3,Pacific/Port_Moresby,FALSE,1598531334
Monom,Monom,,-5.6000,141.3667,"Papua New Guinea",PG,PNG,Western,Western,PG-WPD,province,,4.7,,,5,Pacific/Port_Moresby,FALSE,1598914410
"Hagaulo Number 2","Hagaulo Number 2","Hagaulo 2",-6.3333,145.3833,"Papua New Guinea",PG,PNG,"Eastern Highlands","Eastern Highlands",PG-EHG,province,,57.5,,,4,Pacific/Port_Moresby,FALSE,1598417611
"Yagrumbok 1","Yagrumbok 1","Yagrumbok|Yagrumbok Number 1",-3.6026,142.6310,"Papua New Guinea",PG,PNG,"East Sepik","East Sepik",PG-ESW,province,,5.7,,,5,Pacific/Port_Moresby,FALSE,1598854711
Gilolo,Gilolo,,-5.1667,145.5500,"Papua New Guinea",PG,PNG,Madang,Madang,PG-MPM,province,,51.5,,,4,Pacific/Port_Moresby,FALSE,1598814089
Basakata,Basakata,,-4.0333,153.6000,"Papua New Guinea",PG,PNG,"New Ireland","New Ireland",PG-NIK,province,,18.5,,,4,Pacific/Port_Moresby,FALSE,1598040006
Iriba,Iriba,,-5.8261,143.6289,"Papua New Guinea",PG,PNG,Enga,Enga,PG-EPW,province,,50.8,,,4,Pacific/Port_Moresby,FALSE,1598357032
Penchal,Penchal,,-2.3301,147.7529,"Papua New Guinea",PG,PNG,Manus,Manus,PG-MRL,province,,25.2,,,4,Pacific/Port_Moresby,FALSE,1598858498
Metanangas,Metanangas,Matangas|Matanas|Matanangus,-3.7182,152.5344,"Papua New Guinea",PG,PNG,"New Ireland","New Ireland",PG-NIK,province,,18.5,,,4,Pacific/Port_Moresby,FALSE,1598481879
Momua,Momua,,-7.8000,145.8833,"Papua New Guinea",PG,PNG,Gulf,Gulf,PG-GPK,province,,13.0,,,4,Pacific/Port_Moresby,FALSE,1598618760
Tereran,Tereran,Talerang|Telerang,-6.5389,146.5899,"Papua New Guinea",PG,PNG,Morobe,Morobe,PG-MPL,province,,20.0,,,4,Pacific/Port_Moresby,FALSE,1598997921
Umabibi,Umabibi,Umabiwiba,-6.2833,142.4167,"Papua New Guinea",PG,PNG,Western,Western,PG-WPD,province,,1.4,,,5,Pacific/Port_Moresby,FALSE,1598146118
Ario,Ario,,-7.2333,144.2333,"Papua New Guinea",PG,PNG,Gulf,Gulf,PG-GPK,province,,1.5,,,5,Pacific/Port_Moresby,FALSE,1598332960
Beluok,Beluok,Belouk,-7.8836,146.8542,"Papua New Guinea",PG,PNG,Morobe,Morobe,PG-MPL,province,,14.0,,,4,Pacific/Port_Moresby,FALSE,1598076804
Sokabi,Sokabi,,-6.3000,142.2333,"Papua New Guinea",PG,PNG,Western,Western,PG-WPD,province,,1.4,,,5,Pacific/Port_Moresby,FALSE,1598799678
Mei’auna,Mei'auna,,-6.5333,145.7667,"Papua New Guinea",PG,PNG,"Eastern Highlands","Eastern Highlands",PG-EHG,province,,40.4,,,4,Pacific/Port_Moresby,FALSE,1598871256
Maiwata,Maiwata,,-3.5000,142.5500,"Papua New Guinea",PG,PNG,"West Sepik","West Sepik",PG-SAN,province,,20.3,,,4,Pacific/Port_Moresby,FALSE,1598715033
Mongontoro,Mongontoro,Mogontoro,-6.2733,155.5716,"Papua New Guinea",PG,PNG,Bougainville,Bougainville,PG-NSB,"autonomous region",,27.1,,,4,Pacific/Bougainville,FALSE,1598602948
Fusa,Fusa,,-6.6063,145.3681,"Papua New Guinea",PG,PNG,"Eastern Highlands","Eastern Highlands",PG-EHG,province,,40.4,,,4,Pacific/Port_Moresby,FALSE,1598086276
Kalamadau,Kalamadau,,-10.6500,150.9167,"Papua New Guinea",PG,PNG,"Milne Bay","Milne Bay",PG-MBA,province,,22.7,,,4,Pacific/Port_Moresby,FALSE,1598738231
Kuai,Kuai,,-9.1861,148.2544,"Papua New Guinea",PG,PNG,Northern,Northern,PG-NPP,province,,8.9,,,5,Pacific/Port_Moresby,FALSE,1598102884
Leileiape,Leileiape,,-10.5167,150.0500,"Papua New Guinea",PG,PNG,"Milne Bay","Milne Bay",PG-MBA,province,,14.2,,,4,Pacific/Port_Moresby,FALSE,1598666035
Kumiava,Kumiava,,-6.4667,145.5333,"Papua New Guinea",PG,PNG,"Eastern Highlands","Eastern Highlands",PG-EHG,province,,40.4,,,4,Pacific/Port_Moresby,FALSE,1598140871
"Totabe Hamlet","Totabe Hamlet",,-2.9167,151.4333,"Papua New Guinea",PG,PNG,"New Ireland","New Ireland",PG-NIK,province,,27.6,,,4,Pacific/Port_Moresby,FALSE,1598600381
Paitagoro,Paitagoro,,-9.7500,147.8333,"Papua New Guinea",PG,PNG,Central,Central,PG-CPM,province,,12.2,,,4,Pacific/Port_Moresby,FALSE,1598392464
Matapupu,Matapupu,Matapupur,-4.8803,149.1658,"Papua New Guinea",PG,PNG,"West New Britain","West New Britain",PG-WBK,province,,6.2,,,5,Pacific/Port_Moresby,FALSE,1598891649
Patiagaga,Patiagaga,,-2.5667,150.4333,"Papua New Guinea",PG,PNG,"New Ireland","New Ireland",PG-NIK,province,,27.6,,,4,Pacific/Port_Moresby,FALSE,1598328892
Buso,Buso,"Buso 3",-6.6841,147.2236,"Papua New Guinea",PG,PNG,Morobe,Morobe,PG-MPL,province,,21.4,,,4,Pacific/Port_Moresby,FALSE,1598479783
Buso,Buso,"Buso 1",-7.4075,147.1650,"Papua New Guinea",PG,PNG,Morobe,Morobe,PG-MPL,province,,20.0,,,4,Pacific/Port_Moresby,TRUE,1598803568
Afua,Afua,,-3.2979,142.5848,"Papua New Guinea",PG,PNG,"West Sepik","West Sepik",PG-SAN,province,,13.5,,,4,Pacific/Port_Moresby,FALSE,1598222247
Komai’iu,Komai'iu,,-7.0000,143.7833,"Papua New Guinea",PG,PNG,Gulf,Gulf,PG-GPK,province,,1.5,,,5,Pacific/Port_Moresby,FALSE,1598413804
Ujilo,Ujilo,,-9.1464,148.0437,"Papua New Guinea",PG,PNG,Northern,Northern,PG-NPP,province,,10.8,,,4,Pacific/Port_Moresby,FALSE,1598989643
Gehua,Gehua,,-10.2761,150.3766,"Papua New Guinea",PG,PNG,"Milne Bay","Milne Bay",PG-MBA,province,,14.2,,,4,Pacific/Port_Moresby,FALSE,1598174149
Araaira,Araaira,,-6.5128,145.8064,"Papua New Guinea",PG,PNG,"Eastern Highlands","Eastern Highlands",PG-EHG,province,,40.4,,,4,Pacific/Port_Moresby,FALSE,1598524976
Tavi,Tavi,,-8.0633,147.7891,"Papua New Guinea",PG,PNG,Northern,Northern,PG-NPP,province,,10.8,,,4,Pacific/Port_Moresby,FALSE,1598152449
Wombak,Wombak,Wambak,-3.5974,143.0321,"Papua New Guinea",PG,PNG,"East Sepik","East Sepik",PG-ESW,province,,99.9,,,4,Pacific/Port_Moresby,FALSE,1598990507
Tagup,Tagup,,-5.9500,144.7667,"Papua New Guinea",PG,PNG,"Western Highlands","Western Highlands",PG-WHM,province,,149.8,,,4,Pacific/Port_Moresby,FALSE,1598487709
Dubanatoboa,Dubanatoboa,Dubanateboa,-9.9380,148.0071,"Papua New Guinea",PG,PNG,Central,Central,PG-CPM,province,,12.2,,,4,Pacific/Port_Moresby,FALSE,1598985734
Ulaulatava,Ulaulatava,,-4.3833,152.2167,"Papua New Guinea",PG,PNG,"East New Britain","East New Britain",PG-EBR,province,,217.5,,,3,Pacific/Port_Moresby,FALSE,1598153163
Wibegoro,Wibegoro,,-9.6857,147.9485,"Papua New Guinea",PG,PNG,Central,Central,PG-CPM,province,,12.2,,,4,Pacific/Port_Moresby,FALSE,1598804656
"Ilup Camp","Ilup Camp",,-3.0167,141.1667,"Papua New Guinea",PG,PNG,"West Sepik","West Sepik",PG-SAN,province,,5.8,,,5,Pacific/Port_Moresby,FALSE,1598009698
Kuru,Kuru,,-6.4167,145.5333,"Papua New Guinea",PG,PNG,"Eastern Highlands","Eastern Highlands",PG-EHG,province,,45.2,,,4,Pacific/Port_Moresby,FALSE,1598035707
Zumangorum,Zumangorum,,-6.3279,146.3687,"Papua New Guinea",PG,PNG,Morobe,Morobe,PG-MPL,province,,18.5,,,4,Pacific/Port_Moresby,FALSE,1598326616
Kilalum,Kilalum,,-5.2703,152.0846,"Papua New Guinea",PG,PNG,"East New Britain","East New Britain",PG-EBR,province,,6.2,,,5,Pacific/Port_Moresby,FALSE,1598104764
Riro,Riro,,-6.3753,143.9787,"Papua New Guinea",PG,PNG,"Southern Highlands","Southern Highlands",PG-SHM,province,,31.4,,,4,Pacific/Port_Moresby,FALSE,1598328125
"Vailala Hiloi","Vailala Hiloi",,-7.9374,145.4091,"Papua New Guinea",PG,PNG,Gulf,Gulf,PG-GPK,province,,1.5,,,5,Pacific/Port_Moresby,FALSE,1598791308
Iowi,Iowi,Iowa|Iovi,-6.2333,141.1833,"Papua New Guinea",PG,PNG,Western,Western,PG-WPD,province,,4.7,,,5,Pacific/Port_Moresby,FALSE,1598211756
Amasei,Amasei,,-3.7935,142.6113,"Papua New Guinea",PG,PNG,"West Sepik","West Sepik",PG-SAN,province,,20.3,,,4,Pacific/Port_Moresby,FALSE,1598603229
Chakol,Chakol,,-2.2167,148.2000,"Papua New Guinea",PG,PNG,Manus,Manus,PG-MRL,province,,25.2,,,4,Pacific/Port_Moresby,FALSE,1598243518
Sipa,Sipa,,-7.8272,146.9940,"Papua New Guinea",PG,PNG,Morobe,Morobe,PG-MPL,province,,14.0,,,4,Pacific/Port_Moresby,FALSE,1598659273
Masehi,Masehi,,-3.7333,143.6000,"Papua New Guinea",PG,PNG,"East Sepik","East Sepik",PG-ESW,province,,25.6,,,4,Pacific/Port_Moresby,FALSE,1598546953
Mungari,Mungari,,-4.6833,145.8833,"Papua New Guinea",PG,PNG,Madang,Madang,PG-MPM,province,,51.9,,,4,Pacific/Port_Moresby,FALSE,1598382546
Barisari,Barisari,,-8.7589,148.4066,"Papua New Guinea",PG,PNG,Northern,Northern,PG-NPP,province,,8.9,,,5,Pacific/Port_Moresby,FALSE,1598945798
Kaintiba,Kaintiba,,-7.5000,146.0333,"Papua New Guinea",PG,PNG,Gulf,Gulf,PG-GPK,province,,13.0,,,4,Pacific/Port_Moresby,FALSE,1598452666
Libuat,Libuat,,-3.7044,142.2869,"Papua New Guinea",PG,PNG,"West Sepik","West Sepik",PG-SAN,province,,20.3,,,4,Pacific/Port_Moresby,FALSE,1598508616
Wusing,Wusing,,-4.6500,152.1833,"Papua New Guinea",PG,PNG,"East New Britain","East New Britain",PG-EBR,province,,6.2,,,5,Pacific/Port_Moresby,FALSE,1598083845
Amio,Amio,,-6.1045,150.7414,"Papua New Guinea",PG,PNG,"West New Britain","West New Britain",PG-WBK,province,,6.2,,,5,Pacific/Port_Moresby,FALSE,1598299171
Wambu,Wambu,,-6.3753,143.6284,"Papua New Guinea",PG,PNG,"Southern Highlands","Southern Highlands",PG-SHM,province,,32.8,,,4,Pacific/Port_Moresby,FALSE,1598745307
Bodinumu,Bodinumu,,-9.1154,147.6567,"Papua New Guinea",PG,PNG,Central,Central,PG-CPM,province,,14.9,,,4,Pacific/Port_Moresby,FALSE,1598217773
Pariakinam,Pariakinam,Pariakanam,-4.4181,145.0602,"Papua New Guinea",PG,PNG,Madang,Madang,PG-MPM,province,,27.2,,,4,Pacific/Port_Moresby,FALSE,1598523096
Sosoninko,Sosoninko,,-6.4976,147.7033,"Papua New Guinea",PG,PNG,Morobe,Morobe,PG-MPL,province,,22.7,,,4,Pacific/Port_Moresby,FALSE,1598705231
Mokai,Mokai,,-3.3740,141.9777,"Papua New Guinea",PG,PNG,"West Sepik","West Sepik",PG-SAN,province,,13.5,,,4,Pacific/Port_Moresby,FALSE,1598702001
Kumdarong,Kumdarong,Kumdauron,-6.0525,146.8219,"Papua New Guinea",PG,PNG,Morobe,Morobe,PG-MPL,province,,11.6,,,4,Pacific/Port_Moresby,FALSE,1598178461
Kara-Ausi,Kara-Ausi,Ausi,-3.3290,142.2999,"Papua New Guinea",PG,PNG,"West Sepik","West Sepik",PG-SAN,province,,13.5,,,4,Pacific/Port_Moresby,FALSE,1598440651
Waira,Waira,,-7.2603,144.1924,"Papua New Guinea",PG,PNG,Gulf,Gulf,PG-GPK,province,,1.5,,,5,Pacific/Port_Moresby,FALSE,1598164100
Utkumbu,Utkumbu,,-6.1333,149.6500,"Papua New Guinea",PG,PNG,"West New Britain","West New Britain",PG-WBK,province,,6.2,,,5,Pacific/Port_Moresby,FALSE,1598742895
Kaliei,Kaliei,,-6.5333,145.4167,"Papua New Guinea",PG,PNG,"Eastern Highlands","Eastern Highlands",PG-EHG,province,,40.4,,,4,Pacific/Port_Moresby,FALSE,1598323882
Bengandi,Bengandi,Benggandi,-6.0164,144.8160,"Papua New Guinea",PG,PNG,Chimbu,Chimbu,PG-CPK,province,,283.1,,,3,Pacific/Port_Moresby,FALSE,1598447463
Kamiaturn,Kamiaturn,,-7.1167,147.0167,"Papua New Guinea",PG,PNG,Morobe,Morobe,PG-MPL,province,,20.0,,,4,Pacific/Port_Moresby,FALSE,1598073441
Yenitabak,Yenitabak,,-4.7308,143.3368,"Papua New Guinea",PG,PNG,"East Sepik","East Sepik",PG-ESW,province,,5.8,,,5,Pacific/Port_Moresby,FALSE,1598838670
Mararuo,Mararuo,,-6.5113,147.7262,"Papua New Guinea",PG,PNG,Morobe,Morobe,PG-MPL,province,,22.7,,,4,Pacific/Port_Moresby,FALSE,1598217286
"Towei Village","Towei Village",,-7.3833,144.5000,"Papua New Guinea",PG,PNG,Gulf,Gulf,PG-GPK,province,,1.5,,,5,Pacific/Port_Moresby,FALSE,1598524666
Yamuru,Yamuru,,-7.0167,145.8333,"Papua New Guinea",PG,PNG,"Eastern Highlands","Eastern Highlands",PG-EHG,province,,18.3,,,4,Pacific/Port_Moresby,FALSE,1598679795
Imankabus,Imankabus,,-5.6836,143.8515,"Papua New Guinea",PG,PNG,Enga,Enga,PG-EPW,province,,115.0,,,4,Pacific/Port_Moresby,FALSE,1598411314
"Bisianumu Station","Bisianumu Station",,-9.4000,147.4000,"Papua New Guinea",PG,PNG,Central,Central,PG-CPM,province,,14.9,,,4,Pacific/Port_Moresby,FALSE,1598683446
Namnam,Namnam,,-4.1667,144.6667,"Papua New Guinea",PG,PNG,Madang,Madang,PG-MPM,province,,27.2,,,4,Pacific/Port_Moresby,FALSE,1598692754
Egari,Egari,,-6.0104,143.7024,"Papua New Guinea",PG,PNG,"Southern Highlands","Southern Highlands",PG-SHM,province,,189.9,,,4,Pacific/Port_Moresby,FALSE,1598030549
"Swach Baru","Swach Baru","Swach Tua",-3.2297,141.0037,"Papua New Guinea",PG,PNG,"West Sepik","West Sepik",PG-SAN,province,,5.8,,,5,Pacific/Port_Moresby,FALSE,1598212722
Munieyova,Munieyova,,-8.9810,152.4840,"Papua New Guinea",PG,PNG,"Milne Bay","Milne Bay",PG-MBA,province,,22.7,,,4,Pacific/Port_Moresby,FALSE,1598910142
"Boga Bank","Boga Bank",,-6.6528,142.1054,"Papua New Guinea",PG,PNG,Western,Western,PG-WPD,province,,1.4,,,5,Pacific/Port_Moresby,FALSE,1598379858
Danu,Danu,,-3.4302,151.9375,"Papua New Guinea",PG,PNG,"New Ireland","New Ireland",PG-NIK,province,,18.5,,,4,Pacific/Port_Moresby,FALSE,1598857266
Sapirae,Sapirae,,-5.5998,141.2981,"Papua New Guinea",PG,PNG,Western,Western,PG-WPD,province,,4.7,,,5,Pacific/Port_Moresby,FALSE,1598989361
Homuri,Homuri,,-6.3167,145.7167,"Papua New Guinea",PG,PNG,"Eastern Highlands","Eastern Highlands",PG-EHG,province,,88.7,,,4,Pacific/Port_Moresby,FALSE,1598849836
Kaininantu,Kaininantu,Kaninantu,-6.2474,145.9027,"Papua New Guinea",PG,PNG,"Eastern Highlands","Eastern Highlands",PG-EHG,province,,88.7,,,4,Pacific/Port_Moresby,FALSE,1598153598
Winja,Winja,,-5.9550,143.5138,"Papua New Guinea",PG,PNG,Enga,Enga,PG-EPW,province,,50.8,,,4,Pacific/Port_Moresby,FALSE,1598239051
Efafan,Efafan,,-6.9333,146.3500,"Papua New Guinea",PG,PNG,Morobe,Morobe,PG-MPL,province,,20.0,,,4,Pacific/Port_Moresby,FALSE,1598191608
Metekavil,Metekavil,Metakabil,-2.6409,150.1375,"Papua New Guinea",PG,PNG,"New Ireland","New Ireland",PG-NIK,province,,27.6,,,4,Pacific/Port_Moresby,FALSE,1598209774
Koiala,Koiala,,-10.6000,151.2333,"Papua New Guinea",PG,PNG,"Milne Bay","Milne Bay",PG-MBA,province,,22.7,,,4,Pacific/Port_Moresby,FALSE,1598406578
Misenten,Misenten,,-5.0500,141.5667,"Papua New Guinea",PG,PNG,"West Sepik","West Sepik",PG-SAN,province,,3.3,,,5,Pacific/Port_Moresby,FALSE,1598949495
Waibol,Waibol,,-5.6850,146.3990,"Papua New Guinea",PG,PNG,Madang,Madang,PG-MPM,province,,15.9,,,4,Pacific/Port_Moresby,FALSE,1598184365
Kuengu,Kuengu,,-5.0833,143.5000,"Papua New Guinea",PG,PNG,Enga,Enga,PG-EPW,province,,5.8,,,5,Pacific/Port_Moresby,FALSE,1598427112
Bramfto,Bramfto,Bamfo|Bamfu,-4.7265,144.5697,"Papua New Guinea",PG,PNG,Madang,Madang,PG-MPM,province,,12.9,,,4,Pacific/Port_Moresby,FALSE,1598776510
Madidua,Madidua,,-4.9500,151.3333,"Papua New Guinea",PG,PNG,"West New Britain","West New Britain",PG-WBK,province,,31.4,,,4,Pacific/Port_Moresby,FALSE,1598928553
Singi,Singi,,-8.8960,148.0421,"Papua New Guinea",PG,PNG,Northern,Northern,PG-NPP,province,,10.8,,,4,Pacific/Port_Moresby,FALSE,1598520454
Gaum,Gaum,,-5.0515,145.0339,"Papua New Guinea",PG,PNG,Madang,Madang,PG-MPM,province,,12.1,,,4,Pacific/Port_Moresby,FALSE,1598102067
Tong,Tong,Tono,-3.5024,142.7289,"Papua New Guinea",PG,PNG,"East Sepik","East Sepik",PG-ESW,province,,5.7,,,5,Pacific/Port_Moresby,FALSE,1598290788
Sigauga,Sigauga,,-6.0167,144.9167,"Papua New Guinea",PG,PNG,Chimbu,Chimbu,PG-CPK,province,,235.3,,,3,Pacific/Port_Moresby,FALSE,1598159831
Kogi,Kogi,Koge,-5.8041,144.1856,"Papua New Guinea",PG,PNG,"Western Highlands","Western Highlands",PG-WHM,province,,494.3,,,3,Pacific/Port_Moresby,FALSE,1598503856
Ruatoka,Ruatoka,,-9.8114,147.6786,"Papua New Guinea",PG,PNG,Central,Central,PG-CPM,province,,12.2,,,4,Pacific/Port_Moresby,FALSE,1598228614
Lamerain,Lamerain,,-4.2598,151.6973,"Papua New Guinea",PG,PNG,"East New Britain","East New Britain",PG-EBR,province,,36.9,,,4,Pacific/Port_Moresby,FALSE,1598502061
Hepe,Hepe,,-7.9333,145.9833,"Papua New Guinea",PG,PNG,Gulf,Gulf,PG-GPK,province,,13.0,,,4,Pacific/Port_Moresby,FALSE,1598375169
Erekta,Erekta,Ereta,-6.2714,141.1161,"Papua New Guinea",PG,PNG,Western,Western,PG-WPD,province,,4.7,,,5,Pacific/Port_Moresby,FALSE,1598259717
"Habagabena Number 1","Habagabena Number 1","Habagabena 1",-6.3667,145.3833,"Papua New Guinea",PG,PNG,"Eastern Highlands","Eastern Highlands",PG-EHG,province,,57.5,,,4,Pacific/Port_Moresby,FALSE,1598220136
"Iabaru Number 2","Iabaru Number 2",,-3.9680,141.1959,"Papua New Guinea",PG,PNG,"West Sepik","West Sepik",PG-SAN,province,,5.8,,,5,Pacific/Port_Moresby,FALSE,1598738054
Walalaia,Walalaia,,-10.2833,150.7833,"Papua New Guinea",PG,PNG,"Milne Bay","Milne Bay",PG-MBA,province,,14.2,,,4,Pacific/Port_Moresby,FALSE,1598582371
Vunabaur,Vunabaur,,-4.4667,152.3167,"Papua New Guinea",PG,PNG,"East New Britain","East New Britain",PG-EBR,province,,217.5,,,3,Pacific/Port_Moresby,FALSE,1598339769
Girimai,Girimai,,-6.2162,145.0787,"Papua New Guinea",PG,PNG,Chimbu,Chimbu,PG-CPK,province,,70.2,,,4,Pacific/Port_Moresby,FALSE,1598069517
Kalagen,Kalagen,,-6.2739,150.2536,"Papua New Guinea",PG,PNG,"West New Britain","West New Britain",PG-WBK,province,,6.2,,,5,Pacific/Port_Moresby,FALSE,1598828535
Putemo,Putemo,,-8.9500,148.0833,"Papua New Guinea",PG,PNG,Northern,Northern,PG-NPP,province,,10.8,,,4,Pacific/Port_Moresby,FALSE,1598469972
"Hioveli Villages","Hioveli Villages",,-9.3167,150.2833,"Papua New Guinea",PG,PNG,Bougainville,Bougainville,PG-NSB,"autonomous region",,72.2,,,4,Pacific/Port_Moresby,FALSE,1598380926
Kelebo,Kelebo,,-5.5530,142.5692,"Papua New Guinea",PG,PNG,"Southern Highlands","Southern Highlands",PG-SHM,province,,43.3,,,4,Pacific/Port_Moresby,FALSE,1598229124
Balangdeng,Balangdeng,,-5.4000,141.3333,"Papua New Guinea",PG,PNG,Western,Western,PG-WPD,province,,4.7,,,5,Pacific/Port_Moresby,FALSE,1598190093
Utukwafu,Utukwafu,,-9.1634,149.2907,"Papua New Guinea",PG,PNG,Northern,Northern,PG-NPP,province,,8.9,,,5,Pacific/Port_Moresby,FALSE,1598435279
Telyates,Telyates,,-5.6833,143.4500,"Papua New Guinea",PG,PNG,Enga,Enga,PG-EPW,province,,50.8,,,4,Pacific/Port_Moresby,FALSE,1598366015
Lebagolo,Lebagolo,Lebogoro,-9.8830,147.8711,"Papua New Guinea",PG,PNG,Central,Central,PG-CPM,province,,12.2,,,4,Pacific/Port_Moresby,FALSE,1598452816
Winaluk,Winaluk,,-3.6136,142.2334,"Papua New Guinea",PG,PNG,"West Sepik","West Sepik",PG-SAN,province,,20.3,,,4,Pacific/Port_Moresby,FALSE,1598037737
Korombo,Korombo,Korumbo,-8.7360,141.3007,"Papua New Guinea",PG,PNG,Western,Western,PG-WPD,province,,2.1,,,5,Pacific/Port_Moresby,FALSE,1598096460
Iaria,Iaria,,-6.2722,143.6744,"Papua New Guinea",PG,PNG,"Southern Highlands","Southern Highlands",PG-SHM,province,,58.9,,,4,Pacific/Port_Moresby,FALSE,1598921131
Narawum,Narawum,Kwembum|Narawum-Kwembum|Marawum,-5.9000,146.6167,"Papua New Guinea",PG,PNG,Madang,Madang,PG-MPM,province,,15.9,,,4,Pacific/Port_Moresby,FALSE,1598786014
Tundenghiatkwi,Tundenghiatkwi,,-5.3515,141.0136,"Papua New Guinea",PG,PNG,Western,Western,PG-WPD,province,,4.7,,,5,Pacific/Port_Moresby,FALSE,1598727385
Yungu,Yungu,,-6.2000,145.7833,"Papua New Guinea",PG,PNG,"Eastern Highlands","Eastern Highlands",PG-EHG,province,,68.1,,,4,Pacific/Port_Moresby,FALSE,1598961646
Warabua,Warabua,,-9.0833,148.0167,"Papua New Guinea",PG,PNG,Northern,Northern,PG-NPP,province,,10.8,,,4,Pacific/Port_Moresby,FALSE,1598620439
Garimati,Garimati,,-5.5333,148.5500,"Papua New Guinea",PG,PNG,"West New Britain","West New Britain",PG-WBK,province,,6.2,,,5,Pacific/Port_Moresby,FALSE,1598943145
"New Paw Paw","New Paw Paw",,-3.0167,141.0833,"Papua New Guinea",PG,PNG,"West Sepik","West Sepik",PG-SAN,province,,5.8,,,5,Pacific/Port_Moresby,FALSE,1598199465
Keba,Keba,,-8.8667,142.7833,"Papua New Guinea",PG,PNG,Western,Western,PG-WPD,province,,2.1,,,5,Pacific/Port_Moresby,FALSE,1598674981
Pinapais,Pinapais,Pinyapais,-5.5333,144.0667,"Papua New Guinea",PG,PNG,"Western Highlands","Western Highlands",PG-WHM,province,,86.2,,,4,Pacific/Port_Moresby,FALSE,1598887763
Gene,Gene,,-7.8082,146.9859,"Papua New Guinea",PG,PNG,Morobe,Morobe,PG-MPL,province,,14.0,,,4,Pacific/Port_Moresby,FALSE,1598996733
Ndriol,Ndriol,,-2.2257,147.7838,"Papua New Guinea",PG,PNG,Manus,Manus,PG-MRL,province,,25.2,,,4,Pacific/Port_Moresby,FALSE,1598938825
Abonamo,Abonamo,,-6.2708,146.0566,"Papua New Guinea",PG,PNG,"Eastern Highlands","Eastern Highlands",PG-EHG,province,,88.7,,,4,Pacific/Port_Moresby,FALSE,1598887032
Kendagl,Kendagl,,-6.2667,143.9667,"Papua New Guinea",PG,PNG,"Southern Highlands","Southern Highlands",PG-SHM,province,,31.4,,,4,Pacific/Port_Moresby,FALSE,1598175102
Digaigaia,Digaigaia,,-10.6167,151.2667,"Papua New Guinea",PG,PNG,"Milne Bay","Milne Bay",PG-MBA,province,,22.7,,,4,Pacific/Port_Moresby,FALSE,1598470395
Haita,Haita,,-10.2167,150.4167,"Papua New Guinea",PG,PNG,"Milne Bay","Milne Bay",PG-MBA,province,,14.2,,,4,Pacific/Port_Moresby,FALSE,1598367729
Gunuamarime,Gunuamarime,,-6.1621,144.9089,"Papua New Guinea",PG,PNG,Chimbu,Chimbu,PG-CPK,province,,145.7,,,4,Pacific/Port_Moresby,FALSE,1598950775
Usuma,Usuma,,-6.5833,142.4167,"Papua New Guinea",PG,PNG,Western,Western,PG-WPD,province,,1.4,,,5,Pacific/Port_Moresby,FALSE,1598253020
"Kono Number 2","Kono Number 2",,-3.4833,152.0833,"Papua New Guinea",PG,PNG,"New Ireland","New Ireland",PG-NIK,province,,18.5,,,4,Pacific/Port_Moresby,FALSE,1598185837
Atsuk,Atsuk,,-6.3000,146.3167,"Papua New Guinea",PG,PNG,Morobe,Morobe,PG-MPL,province,,18.5,,,4,Pacific/Port_Moresby,FALSE,1598954939
Walegau,Walegau,,-6.0667,144.9500,"Papua New Guinea",PG,PNG,Chimbu,Chimbu,PG-CPK,province,,145.7,,,4,Pacific/Port_Moresby,FALSE,1598961319
Yombagau’um,Yombagau'um,,-6.2333,145.0500,"Papua New Guinea",PG,PNG,Chimbu,Chimbu,PG-CPK,province,,70.2,,,4,Pacific/Port_Moresby,FALSE,1598198683
Wamu,Wamu,,-6.8314,144.0385,"Papua New Guinea",PG,PNG,Gulf,Gulf,PG-GPK,province,,1.5,,,5,Pacific/Port_Moresby,FALSE,1598443839
Magabara,Magabara,,-9.6167,149.8167,"Papua New Guinea",PG,PNG,"Milne Bay","Milne Bay",PG-MBA,province,,14.2,,,4,Pacific/Port_Moresby,FALSE,1598798294
Makurapau,Makurapau,,-4.4000,152.3667,"Papua New Guinea",PG,PNG,"East New Britain","East New Britain",PG-EBR,province,,217.5,,,3,Pacific/Port_Moresby,FALSE,1598382301
Karia,Karia,"Karia 1",-2.9659,150.9973,"Papua New Guinea",PG,PNG,"New Ireland","New Ireland",PG-NIK,province,,27.6,,,4,Pacific/Port_Moresby,FALSE,1598096665
Kaisenik,Kaisenik,Kaisinik,-7.3711,146.7701,"Papua New Guinea",PG,PNG,Morobe,Morobe,PG-MPL,province,,14.0,,,4,Pacific/Port_Moresby,FALSE,1598839821
Yoguna,Yoguna,,-4.2333,143.2833,"Papua New Guinea",PG,PNG,"East Sepik","East Sepik",PG-ESW,province,,27.0,,,4,Pacific/Port_Moresby,FALSE,1598551840
Biriri,Biriri,,-9.2048,148.4394,"Papua New Guinea",PG,PNG,Northern,Northern,PG-NPP,province,,8.9,,,5,Pacific/Port_Moresby,FALSE,1598101820
Mobuma,Mobuma,,-5.9333,144.8000,"Papua New Guinea",PG,PNG,"Western Highlands","Western Highlands",PG-WHM,province,,262.3,,,3,Pacific/Port_Moresby,FALSE,1598413793
Gafaruga,Gafaruga,,-6.0500,145.5667,"Papua New Guinea",PG,PNG,"Eastern Highlands","Eastern Highlands",PG-EHG,province,,105.6,,,4,Pacific/Port_Moresby,FALSE,1598047188
Dofasu,Dofasu,Dofasi,-6.4000,142.6833,"Papua New Guinea",PG,PNG,"Southern Highlands","Southern Highlands",PG-SHM,province,,28.5,,,4,Pacific/Port_Moresby,FALSE,1598373694
Fofragen,Fofragen,,-6.2500,146.2500,"Papua New Guinea",PG,PNG,Morobe,Morobe,PG-MPL,province,,18.5,,,4,Pacific/Port_Moresby,FALSE,1598261005
Toguagudemen,Toguagudemen,,-8.7000,142.1333,"Papua New Guinea",PG,PNG,Western,Western,PG-WPD,province,,2.1,,,5,Pacific/Port_Moresby,FALSE,1598328907
Ilal,Ilal,Ilai,-10.3106,149.5615,"Papua New Guinea",PG,PNG,Central,Central,PG-CPM,province,,7.8,,,5,Pacific/Port_Moresby,FALSE,1598222955
Siwanpuna,Siwanpuna,,-5.6500,151.1000,"Papua New Guinea",PG,PNG,"East New Britain","East New Britain",PG-EBR,province,,6.2,,,5,Pacific/Port_Moresby,FALSE,1598007036
Barim,Barim,,-5.6604,147.8023,"Papua New Guinea",PG,PNG,Morobe,Morobe,PG-MPL,province,,23.8,,,4,Pacific/Port_Moresby,FALSE,1598969484
Garili,Garili,Garilli,-5.3804,150.0629,"Papua New Guinea",PG,PNG,"West New Britain","West New Britain",PG-WBK,province,,31.4,,,4,Pacific/Port_Moresby,FALSE,1598132035
Maran,Maran,,-6.4019,147.3263,"Papua New Guinea",PG,PNG,Morobe,Morobe,PG-MPL,province,,22.7,,,4,Pacific/Port_Moresby,FALSE,1598565501
Mape,Mape,,-6.5833,147.8000,"Papua New Guinea",PG,PNG,Morobe,Morobe,PG-MPL,province,,22.7,,,4,Pacific/Port_Moresby,FALSE,1598868835
Wanaga,Wanaga,,-5.9667,144.1333,"Papua New Guinea",PG,PNG,"Western Highlands","Western Highlands",PG-WHM,province,,42.9,,,4,Pacific/Port_Moresby,FALSE,1598330427
Biria,Biria,,-7.9000,146.1833,"Papua New Guinea",PG,PNG,Gulf,Gulf,PG-GPK,province,,13.0,,,4,Pacific/Port_Moresby,FALSE,1598922536
Koiomkane,Koiomkane,,-6.3814,144.7100,"Papua New Guinea",PG,PNG,Chimbu,Chimbu,PG-CPK,province,,21.9,,,4,Pacific/Port_Moresby,FALSE,1598179986
Karimia,Karimia,,-7.6000,144.6333,"Papua New Guinea",PG,PNG,Gulf,Gulf,PG-GPK,province,,1.5,,,5,Pacific/Port_Moresby,FALSE,1598729661
Baru,Baru,Luya,-5.6810,146.5429,"Papua New Guinea",PG,PNG,Madang,Madang,PG-MPM,province,,15.9,,,4,Pacific/Port_Moresby,FALSE,1598209083
Kemakomana,Kemakomana,,-9.6836,147.9548,"Papua New Guinea",PG,PNG,Central,Central,PG-CPM,province,,12.2,,,4,Pacific/Port_Moresby,FALSE,1598319226
Gausepa,Gausepa,"Gausepa Mission",-9.8667,150.8667,"Papua New Guinea",PG,PNG,"Milne Bay","Milne Bay",PG-MBA,province,,29.8,,,4,Pacific/Port_Moresby,FALSE,1598685552
Bwasia,Bwasia,,-6.4333,146.2167,"Papua New Guinea",PG,PNG,Morobe,Morobe,PG-MPL,province,,18.5,,,4,Pacific/Port_Moresby,FALSE,1598554953
Andubi,Andubi,,-5.5455,144.3553,"Papua New Guinea",PG,PNG,"Western Highlands","Western Highlands",PG-WHM,province,,143.8,,,4,Pacific/Port_Moresby,FALSE,1598896120
Kaupa,Kaupa,,-6.1500,145.0333,"Papua New Guinea",PG,PNG,Chimbu,Chimbu,PG-CPK,province,,289.5,,,3,Pacific/Port_Moresby,FALSE,1598955489
Spu,Spu,,-8.6000,148.2000,"Papua New Guinea",PG,PNG,Northern,Northern,PG-NPP,province,,10.8,,,4,Pacific/Port_Moresby,FALSE,1598868548
Konmei,Konmei,,-4.6227,143.5701,"Papua New Guinea",PG,PNG,"East Sepik","East Sepik",PG-ESW,province,,5.8,,,5,Pacific/Port_Moresby,FALSE,1598471658
Akuna,Akuna,,-6.3500,145.9333,"Papua New Guinea",PG,PNG,"Eastern Highlands","Eastern Highlands",PG-EHG,province,,88.7,,,4,Pacific/Port_Moresby,FALSE,1598985899
Weranyuwok,Weranyuwok,,-3.6070,142.4857,"Papua New Guinea",PG,PNG,"West Sepik","West Sepik",PG-SAN,province,,20.3,,,4,Pacific/Port_Moresby,FALSE,1598455988
Kopikirio,Kopikirio,Kopikiri,-6.1826,155.3310,"Papua New Guinea",PG,PNG,Bougainville,Bougainville,PG-NSB,"autonomous region",,27.1,,,4,Pacific/Bougainville,FALSE,1598145600
Guraima,Guraima,,-9.9667,149.6167,"Papua New Guinea",PG,PNG,"Milne Bay","Milne Bay",PG-MBA,province,,14.2,,,4,Pacific/Port_Moresby,FALSE,1598311866
Rabundogum,Rabundogum,,-3.8295,143.5183,"Papua New Guinea",PG,PNG,"East Sepik","East Sepik",PG-ESW,province,,25.6,,,4,Pacific/Port_Moresby,FALSE,1598817871
Daup,Daup,,-4.7148,145.9460,"Papua New Guinea",PG,PNG,Madang,Madang,PG-MPM,province,,51.9,,,4,Pacific/Port_Moresby,FALSE,1598082615
Bangasav,Bangasav,Bangansav,-4.6888,145.0757,"Papua New Guinea",PG,PNG,Madang,Madang,PG-MPM,province,,12.9,,,4,Pacific/Port_Moresby,FALSE,1598407366
Haulo,Haulo,,-5.9470,150.9967,"Papua New Guinea",PG,PNG,"East New Britain","East New Britain",PG-EBR,province,,6.2,,,5,Pacific/Port_Moresby,FALSE,1598981421
