city,city_ascii,city_alt,lat,lng,country,iso2,iso3,admin_name,admin_name_ascii,admin_code,admin_type,capital,density,population,population_proper,ranking,timezone,same_name,id
"El Cinco","El Cinco",,18.1377,-67.1210,"Puerto Rico",PR,PRI,"Puerto Rico","Puerto Rico",PR-PR,state,,1734.1,,,4,America/Puerto_Rico,FALSE,1630126310
Mariana,Mariana,,18.3336,-65.9532,"Puerto Rico",PR,PRI,"Puerto Rico","Puerto Rico",PR-PR,state,,486.2,,,4,America/Puerto_Rico,FALSE,1630141792
Mariani,Mariani,,18.0069,-66.6180,"Puerto Rico",PR,PRI,"Puerto Rico","Puerto Rico",PR-PR,state,,3545.4,,,4,America/Puerto_Rico,FALSE,1630126580
"María Jiménez","Maria Jimenez",,18.2647,-65.9416,"Puerto Rico",PR,PRI,"Puerto Rico","Puerto Rico",PR-PR,state,,613.2,,,4,America/Puerto_Rico,FALSE,1630126577
"Martín Peña","Martin Pena",,18.4272,-66.0527,"Puerto Rico",PR,PRI,"Puerto Rico","Puerto Rico",PR-PR,state,,7423.9,,,4,America/Puerto_Rico,FALSE,1630126582
Volcán,Volcan,,18.4091,-66.1849,"Puerto Rico",PR,PRI,"Puerto Rico","Puerto Rico",PR-PR,state,,2132.0,,,4,America/Puerto_Rico,FALSE,1630126907
Vistamar,Vistamar,,18.4274,-65.9788,"Puerto Rico",PR,PRI,"Puerto Rico","Puerto Rico",PR-PR,state,,5528.1,,,4,America/Puerto_Rico,FALSE,1630126906
"Vista Verde","Vista Verde",,18.1850,-67.1535,"Puerto Rico",PR,PRI,"Puerto Rico","Puerto Rico",PR-PR,state,,1526.8,,,4,America/Puerto_Rico,FALSE,1630126905
"Vista Alegre","Vista Alegre",,18.3947,-66.1621,"Puerto Rico",PR,PRI,"Puerto Rico","Puerto Rico",PR-PR,state,,2764.6,,,4,America/Puerto_Rico,FALSE,1630141875
Yuquiyú,Yuquiyu,,18.3461,-65.7285,"Puerto Rico",PR,PRI,"Puerto Rico","Puerto Rico",PR-PR,state,,93.9,,,4,America/Puerto_Rico,FALSE,1630126909
Yeguada,Yeguada,,18.4842,-66.8802,"Puerto Rico",PR,PRI,"Puerto Rico","Puerto Rico",PR-PR,state,,1359.5,1756,1756,3,America/Puerto_Rico,FALSE,1630126908
Fraternidad,Fraternidad,,18.0097,-66.9071,"Puerto Rico",PR,PRI,"Puerto Rico","Puerto Rico",PR-PR,state,,22.6,,,4,America/Puerto_Rico,FALSE,1630126375
Fortuna,Fortuna,,17.9805,-66.2568,"Puerto Rico",PR,PRI,"Puerto Rico","Puerto Rico",PR-PR,state,,10.8,,,4,America/Puerto_Rico,FALSE,1630126372
"Loíza Valley","Loiza Valley",,18.3749,-65.9138,"Puerto Rico",PR,PRI,"Puerto Rico","Puerto Rico",PR-PR,state,,3727.4,,,4,America/Puerto_Rico,FALSE,1630126537
"Llanos Tuna","Llanos Tuna",,18.0686,-67.1318,"Puerto Rico",PR,PRI,"Puerto Rico","Puerto Rico",PR-PR,state,,395.3,,,4,America/Puerto_Rico,FALSE,1630126535
Llanos,Llanos,,18.0294,-67.1093,"Puerto Rico",PR,PRI,"Puerto Rico","Puerto Rico",PR-PR,state,,194.7,,,4,America/Puerto_Rico,FALSE,1630126534
"La Fermina","La Fermina",,18.1744,-65.8526,"Puerto Rico",PR,PRI,"Puerto Rico","Puerto Rico",PR-PR,state,,926.9,2336,2336,3,America/Puerto_Rico,FALSE,1630023729
"Las Ollas","Las Ollas",,18.0142,-66.4207,"Puerto Rico",PR,PRI,"Puerto Rico","Puerto Rico",PR-PR,state,,1863.0,984,984,3,America/Puerto_Rico,FALSE,1630035504
"Brisas del Campanero","Brisas del Campanero",,18.4316,-66.2261,"Puerto Rico",PR,PRI,"Puerto Rico","Puerto Rico",PR-PR,state,,1490.6,2700,2700,3,America/Puerto_Rico,FALSE,1630141959
Selgas,Selgas,,18.3611,-66.5663,"Puerto Rico",PR,PRI,"Puerto Rico","Puerto Rico",PR-PR,state,,1656.0,,,4,America/Puerto_Rico,FALSE,1630126831
Semil,Semil,,18.1225,-66.5166,"Puerto Rico",PR,PRI,"Puerto Rico","Puerto Rico",PR-PR,state,,461.6,,,4,America/Puerto_Rico,FALSE,1630126832
Santurce,Santurce,,18.1952,-67.1402,"Puerto Rico",PR,PRI,"Puerto Rico","Puerto Rico",PR-PR,state,,4251.6,,,4,America/Puerto_Rico,FALSE,1630126827
Seboruco,Seboruco,,18.0180,-66.7213,"Puerto Rico",PR,PRI,"Puerto Rico","Puerto Rico",PR-PR,state,,87.9,,,4,America/Puerto_Rico,FALSE,1630126828
Segui,Segui,,18.3091,-66.5671,"Puerto Rico",PR,PRI,"Puerto Rico","Puerto Rico",PR-PR,state,,157.5,,,4,America/Puerto_Rico,FALSE,1630126829
"Segundo Castillo","Segundo Castillo",,18.1644,-67.1496,"Puerto Rico",PR,PRI,"Puerto Rico","Puerto Rico",PR-PR,state,,1363.9,,,4,America/Puerto_Rico,FALSE,1630126830
"Santiago y Lima","Santiago y Lima",,18.2047,-65.7057,"Puerto Rico",PR,PRI,"Puerto Rico","Puerto Rico",PR-PR,state,,667.9,,,4,America/Puerto_Rico,FALSE,1630126825
"Santiago Iglesias","Santiago Iglesias",,18.3830,-66.0993,"Puerto Rico",PR,PRI,"Puerto Rico","Puerto Rico",PR-PR,state,,5543.6,,,4,America/Puerto_Rico,FALSE,1630126826
"Pugnado Afuera","Pugnado Afuera",,18.4291,-66.4141,"Puerto Rico",PR,PRI,"Puerto Rico","Puerto Rico",PR-PR,state,,1974.0,,,4,America/Puerto_Rico,FALSE,1630126708
Nuevo,Nuevo,,18.4258,-67.1541,"Puerto Rico",PR,PRI,"Puerto Rico","Puerto Rico",PR-PR,state,,2754.2,,,4,America/Puerto_Rico,FALSE,1630126622
"Muñoz Torruellas","Munoz Torruellas",,18.2547,-66.9855,"Puerto Rico",PR,PRI,"Puerto Rico","Puerto Rico",PR-PR,state,,599.8,,,4,America/Puerto_Rico,FALSE,1630126616
"Muñoz Rivera","Munoz Rivera",,18.3741,-66.1066,"Puerto Rico",PR,PRI,"Puerto Rico","Puerto Rico",PR-PR,state,,4604.7,,,4,America/Puerto_Rico,FALSE,1630126615
Negrito,Negrito,,18.3255,-66.5335,"Puerto Rico",PR,PRI,"Puerto Rico","Puerto Rico",PR-PR,state,,1.7,,,5,America/Puerto_Rico,FALSE,1630126618
Nogueras,Nogueras,,18.1450,-66.1657,"Puerto Rico",PR,PRI,"Puerto Rico","Puerto Rico",PR-PR,state,,824.0,,,4,America/Puerto_Rico,FALSE,1630126620
"Nemesio Canales","Nemesio Canales",,18.4208,-66.0793,"Puerto Rico",PR,PRI,"Puerto Rico","Puerto Rico",PR-PR,state,,6875.1,,,4,America/Puerto_Rico,FALSE,1630126619
"Río Grande","Rio Grande",,18.3789,-65.8388,"Puerto Rico",PR,PRI,"Puerto Rico","Puerto Rico",PR-PR,state,,3438.0,12311,12311,2,America/Puerto_Rico,FALSE,1630023701
"Puerto Real","Puerto Real",,18.0767,-67.1858,"Puerto Rico",PR,PRI,"Puerto Rico","Puerto Rico",PR-PR,state,,2043.1,6325,6325,2,America/Puerto_Rico,FALSE,1630035555
"Pueblito del Río","Pueblito del Rio",,18.2280,-65.8615,"Puerto Rico",PR,PRI,"Puerto Rico","Puerto Rico",PR-PR,state,,1758.2,1064,1064,3,America/Puerto_Rico,FALSE,1630035488
Naranjito,Naranjito,,18.3029,-66.2498,"Puerto Rico",PR,PRI,"Puerto Rico","Puerto Rico",PR-PR,state,,2004.8,3443,3443,2,America/Puerto_Rico,FALSE,1630023649
Olimpo,Olimpo,,18.0027,-66.1097,"Puerto Rico",PR,PRI,"Puerto Rico","Puerto Rico",PR-PR,state,,1386.1,1621,1621,3,America/Puerto_Rico,FALSE,1630023657
Morovis,Morovis,,18.3268,-66.4057,"Puerto Rico",PR,PRI,"Puerto Rico","Puerto Rico",PR-PR,state,,1267.5,1843,1843,3,America/Puerto_Rico,FALSE,1630035526
Naguabo,Naguabo,,18.2117,-65.7370,"Puerto Rico",PR,PRI,"Puerto Rico","Puerto Rico",PR-PR,state,,3140.5,5104,5104,2,America/Puerto_Rico,FALSE,1630035528
Miranda,Miranda,,18.3869,-66.3789,"Puerto Rico",PR,PRI,"Puerto Rico","Puerto Rico",PR-PR,state,,256.6,1228,1228,3,America/Puerto_Rico,FALSE,1630035521
Moca,Moca,,18.3943,-67.1138,"Puerto Rico",PR,PRI,"Puerto Rico","Puerto Rico",PR-PR,state,,1576.2,636,636,3,America/Puerto_Rico,FALSE,1630035522
Monserrate,Monserrate,,18.4367,-66.3579,"Puerto Rico",PR,PRI,"Puerto Rico","Puerto Rico",PR-PR,state,,1256.6,2266,2266,3,America/Puerto_Rico,FALSE,1630035523
"Monte Grande","Monte Grande",,18.0894,-67.1201,"Puerto Rico",PR,PRI,"Puerto Rico","Puerto Rico",PR-PR,state,,784.3,2902,2902,3,America/Puerto_Rico,FALSE,1630023603
"Río Lajas","Rio Lajas",,18.3970,-66.2643,"Puerto Rico",PR,PRI,"Puerto Rico","Puerto Rico",PR-PR,state,,441.0,1724,1724,3,America/Puerto_Rico,FALSE,1630035564
Parkhurst,Parkhurst,,18.1769,-65.8752,"Puerto Rico",PR,PRI,"Puerto Rico","Puerto Rico",PR-PR,state,,177.4,,,4,America/Puerto_Rico,FALSE,1630126652
Parabueyón,Parabueyon,,18.0927,-67.1621,"Puerto Rico",PR,PRI,"Puerto Rico","Puerto Rico",PR-PR,state,,772.7,,,4,America/Puerto_Rico,FALSE,1630126645
Paraíso,Paraiso,,18.2819,-65.7007,"Puerto Rico",PR,PRI,"Puerto Rico","Puerto Rico",PR-PR,state,,60.5,,,4,America/Puerto_Rico,FALSE,1630126649
"Córdova Dávila","Cordova Davila",,18.4291,-66.4827,"Puerto Rico",PR,PRI,"Puerto Rico","Puerto Rico",PR-PR,state,,3265.7,,,4,America/Puerto_Rico,FALSE,1630126273
Córcega,Corcega,,18.3177,-67.2424,"Puerto Rico",PR,PRI,"Puerto Rico","Puerto Rico",PR-PR,state,,1320.7,,,4,America/Puerto_Rico,FALSE,1630126272
Bucaná,Bucana,,18.0052,-66.5913,"Puerto Rico",PR,PRI,"Puerto Rico","Puerto Rico",PR-PR,state,,3063.4,,,4,America/Puerto_Rico,FALSE,1630126186
"Puente Blanco","Puente Blanco",,18.4272,-66.1349,"Puerto Rico",PR,PRI,"Puerto Rico","Puerto Rico",PR-PR,state,,2032.5,,,4,America/Puerto_Rico,FALSE,1630126703
"Pueblo Nuevo","Pueblo Nuevo",,18.2002,-67.1441,"Puerto Rico",PR,PRI,"Puerto Rico","Puerto Rico",PR-PR,state,,4619.9,,,4,America/Puerto_Rico,FALSE,1630142365
"Pueblo Sur","Pueblo Sur",,18.0847,-67.1455,"Puerto Rico",PR,PRI,"Puerto Rico","Puerto Rico",PR-PR,state,,3019.8,,,4,America/Puerto_Rico,FALSE,1630126702
"Puerto de Jobos","Puerto de Jobos",,17.9522,-66.1835,"Puerto Rico",PR,PRI,"Puerto Rico","Puerto Rico",PR-PR,state,,257.4,,,4,America/Puerto_Rico,FALSE,1630126704
"Lajas Arriba","Lajas Arriba",,18.0375,-67.0110,"Puerto Rico",PR,PRI,"Puerto Rico","Puerto Rico",PR-PR,state,,755.2,,,4,America/Puerto_Rico,FALSE,1630126491
"Las Américas","Las Americas",,18.4011,-66.0741,"Puerto Rico",PR,PRI,"Puerto Rico","Puerto Rico",PR-PR,state,,5011.6,,,4,America/Puerto_Rico,FALSE,1630126492
"Isleta Comunidad","Isleta Comunidad",,18.3767,-67.1123,"Puerto Rico",PR,PRI,"Puerto Rico","Puerto Rico",PR-PR,state,,835.9,434,434,3,America/Puerto_Rico,FALSE,1630126410
"Lassalle Comunidad","Lassalle Comunidad",,18.3854,-67.0617,"Puerto Rico",PR,PRI,"Puerto Rico","Puerto Rico",PR-PR,state,,737.2,268,268,3,America/Puerto_Rico,FALSE,1630142469
"Ferrer Comunidad","Ferrer Comunidad",,18.4054,-67.0671,"Puerto Rico",PR,PRI,"Puerto Rico","Puerto Rico",PR-PR,state,,427.4,102,102,3,America/Puerto_Rico,FALSE,1630142470
"El Coto","El Coto",,18.4299,-66.2868,"Puerto Rico",PR,PRI,"Puerto Rico","Puerto Rico",PR-PR,state,,616.8,,,4,America/Puerto_Rico,FALSE,1630126314
"El Condado","El Condado",,18.2366,-66.0382,"Puerto Rico",PR,PRI,"Puerto Rico","Puerto Rico",PR-PR,state,,1008.7,,,4,America/Puerto_Rico,FALSE,1630126313
"El Espino","El Espino",,18.4077,-66.6260,"Puerto Rico",PR,PRI,"Puerto Rico","Puerto Rico",PR-PR,state,,238.3,,,4,America/Puerto_Rico,FALSE,1630142511
"El Faro","El Faro",,18.0014,-66.7885,"Puerto Rico",PR,PRI,"Puerto Rico","Puerto Rico",PR-PR,state,,56.8,,,4,America/Puerto_Rico,FALSE,1630126319
"El Dique","El Dique",,18.4191,-66.7135,"Puerto Rico",PR,PRI,"Puerto Rico","Puerto Rico",PR-PR,state,,226.6,,,4,America/Puerto_Rico,FALSE,1630126316
"El Guano","El Guano",,18.2647,-66.7068,"Puerto Rico",PR,PRI,"Puerto Rico","Puerto Rico",PR-PR,state,,2112.7,,,4,America/Puerto_Rico,FALSE,1630126320
Guayanilla,Guayanilla,,18.0222,-66.7898,"Puerto Rico",PR,PRI,"Puerto Rico","Puerto Rico",PR-PR,state,,1801.9,3302,3302,3,America/Puerto_Rico,FALSE,1630023620
Guaynabo,Guaynabo,,18.3832,-66.1134,"Puerto Rico",PR,PRI,"Puerto Rico","Puerto Rico",PR-PR,state,,2248.8,70167,70167,2,America/Puerto_Rico,FALSE,1630023575
"Tallaboa Alta","Tallaboa Alta",,18.0504,-66.7020,"Puerto Rico",PR,PRI,"Puerto Rico","Puerto Rico",PR-PR,state,,1490.9,1354,1354,3,America/Puerto_Rico,FALSE,1630023558
Tiburones,Tiburones,,18.4382,-66.5808,"Puerto Rico",PR,PRI,"Puerto Rico","Puerto Rico",PR-PR,state,,1510.1,1261,1261,3,America/Puerto_Rico,FALSE,1630023650
Tallaboa,Tallaboa,,17.9935,-66.7067,"Puerto Rico",PR,PRI,"Puerto Rico","Puerto Rico",PR-PR,state,,352.7,1022,1022,3,America/Puerto_Rico,FALSE,1630035586
Buenaventura,Buenaventura,,18.3747,-65.9399,"Puerto Rico",PR,PRI,"Puerto Rico","Puerto Rico",PR-PR,state,,4362.4,,,4,America/Puerto_Rico,FALSE,1630126194
"Buen Consejo","Buen Consejo",,18.3947,-66.0452,"Puerto Rico",PR,PRI,"Puerto Rico","Puerto Rico",PR-PR,state,,4631.2,,,4,America/Puerto_Rico,FALSE,1630126189
"Buenos Aires","Buenos Aires",,18.4386,-66.0627,"Puerto Rico",PR,PRI,"Puerto Rico","Puerto Rico",PR-PR,state,,3470.8,,,4,America/Puerto_Rico,FALSE,1630126195
"La Alhambra","La Alhambra",,18.0155,-66.6043,"Puerto Rico",PR,PRI,"Puerto Rico","Puerto Rico",PR-PR,state,,2719.1,,,4,America/Puerto_Rico,FALSE,1630126438
"La Barra","La Barra",,18.2802,-66.0443,"Puerto Rico",PR,PRI,"Puerto Rico","Puerto Rico",PR-PR,state,,1630.4,,,4,America/Puerto_Rico,FALSE,1630126440
Cañaboncito,Canaboncito,,18.2116,-66.0727,"Puerto Rico",PR,PRI,"Puerto Rico","Puerto Rico",PR-PR,state,,1210.3,,,4,America/Puerto_Rico,FALSE,1630126222
"La Puente","La Puente",,18.2769,-67.1882,"Puerto Rico",PR,PRI,"Puerto Rico","Puerto Rico",PR-PR,state,,200.7,,,4,America/Puerto_Rico,FALSE,1630126478
"Las Gaviotas","Las Gaviotas",,18.4368,-66.1907,"Puerto Rico",PR,PRI,"Puerto Rico","Puerto Rico",PR-PR,state,,4811.8,398,398,2,America/Puerto_Rico,FALSE,1630142758
"Punto Cubano","Punto Cubano",,18.4052,-66.3079,"Puerto Rico",PR,PRI,"Puerto Rico","Puerto Rico",PR-PR,state,,1406.7,,,4,America/Puerto_Rico,FALSE,1630126714
Vayas,Vayas,,18.0541,-66.5858,"Puerto Rico",PR,PRI,"Puerto Rico","Puerto Rico",PR-PR,state,,721.3,606,606,3,America/Puerto_Rico,FALSE,1630026088
"Candelero Arriba","Candelero Arriba",,18.1016,-65.8342,"Puerto Rico",PR,PRI,"Puerto Rico","Puerto Rico",PR-PR,state,,806.8,944,944,3,America/Puerto_Rico,FALSE,1630035635
Villodas,Villodas,,17.9750,-66.1791,"Puerto Rico",PR,PRI,"Puerto Rico","Puerto Rico",PR-PR,state,,233.5,,,4,America/Puerto_Rico,FALSE,1630126902
"Villa Grillasca","Villa Grillasca",,18.0002,-66.6235,"Puerto Rico",PR,PRI,"Puerto Rico","Puerto Rico",PR-PR,state,,3545.4,,,4,America/Puerto_Rico,FALSE,1630126894
"Villa Mar","Villa Mar",,18.4427,-66.0285,"Puerto Rico",PR,PRI,"Puerto Rico","Puerto Rico",PR-PR,state,,4187.5,,,4,America/Puerto_Rico,FALSE,1630126895
"Villa Milagros","Villa Milagros",,18.0250,-66.8613,"Puerto Rico",PR,PRI,"Puerto Rico","Puerto Rico",PR-PR,state,,2778.9,,,4,America/Puerto_Rico,FALSE,1630126896
"Villa Nevares","Villa Nevares",,18.3919,-66.0693,"Puerto Rico",PR,PRI,"Puerto Rico","Puerto Rico",PR-PR,state,,2741.2,,,4,America/Puerto_Rico,FALSE,1630126897
"Villa Palmeras","Villa Palmeras",,18.4402,-66.0502,"Puerto Rico",PR,PRI,"Puerto Rico","Puerto Rico",PR-PR,state,,8965.5,,,4,America/Puerto_Rico,FALSE,1630126898
"Villa Pérez","Villa Perez",,18.1908,-66.7791,"Puerto Rico",PR,PRI,"Puerto Rico","Puerto Rico",PR-PR,state,,369.6,,,4,America/Puerto_Rico,FALSE,1630126899
"Villa Prades","Villa Prades",,18.4069,-66.0249,"Puerto Rico",PR,PRI,"Puerto Rico","Puerto Rico",PR-PR,state,,3998.6,,,4,America/Puerto_Rico,FALSE,1630126900
"Villa Rica","Villa Rica",,18.3961,-66.1707,"Puerto Rico",PR,PRI,"Puerto Rico","Puerto Rico",PR-PR,state,,3502.3,,,4,America/Puerto_Rico,FALSE,1630126901
"Flamingo Garden","Flamingo Garden",,18.3744,-66.1660,"Puerto Rico",PR,PRI,"Puerto Rico","Puerto Rico",PR-PR,state,,4845.1,,,4,America/Puerto_Rico,FALSE,1630126367
"Flamboyant Gardens","Flamboyant Gardens",,18.3899,-66.1604,"Puerto Rico",PR,PRI,"Puerto Rico","Puerto Rico",PR-PR,state,,4006.0,,,4,America/Puerto_Rico,FALSE,1630126366
"Finca San Miguel","Finca San Miguel",,18.2538,-67.0877,"Puerto Rico",PR,PRI,"Puerto Rico","Puerto Rico",PR-PR,state,,100.7,,,4,America/Puerto_Rico,FALSE,1630126365
"Finca Piñones","Finca Pinones",,18.4472,-65.9579,"Puerto Rico",PR,PRI,"Puerto Rico","Puerto Rico",PR-PR,state,,217.1,,,4,America/Puerto_Rico,FALSE,1630126364
"Finca Marini","Finca Marini",,18.2152,-67.0827,"Puerto Rico",PR,PRI,"Puerto Rico","Puerto Rico",PR-PR,state,,445.7,,,4,America/Puerto_Rico,FALSE,1630126363
"Finca La Corza","Finca La Corza",,18.2036,-67.0691,"Puerto Rico",PR,PRI,"Puerto Rico","Puerto Rico",PR-PR,state,,165.9,,,4,America/Puerto_Rico,FALSE,1630126362
"Forest Hills","Forest Hills",,18.3863,-66.1635,"Puerto Rico",PR,PRI,"Puerto Rico","Puerto Rico",PR-PR,state,,4006.0,,,4,America/Puerto_Rico,FALSE,1630126371
"Lomas Verdes","Lomas Verdes",,18.3747,-66.1493,"Puerto Rico",PR,PRI,"Puerto Rico","Puerto Rico",PR-PR,state,,1499.3,,,4,America/Puerto_Rico,FALSE,1630126538
"Los Angeles","Los Angeles",,18.4291,-66.0074,"Puerto Rico",PR,PRI,"Puerto Rico","Puerto Rico",PR-PR,state,,4623.6,,,4,America/Puerto_Rico,FALSE,1630126539
"Los Caobos","Los Caobos",,18.4049,-66.0982,"Puerto Rico",PR,PRI,"Puerto Rico","Puerto Rico",PR-PR,state,,2870.2,,,4,America/Puerto_Rico,FALSE,1630126540
"Domingo Ruíz","Domingo Ruiz",,18.4455,-66.6818,"Puerto Rico",PR,PRI,"Puerto Rico","Puerto Rico",PR-PR,state,,942.5,,,4,America/Puerto_Rico,FALSE,1630126298
"Caño Martin Peña","Cano Martin Pena",,18.4309,-66.0507,"Puerto Rico",PR,PRI,"Puerto Rico","Puerto Rico",PR-PR,state,,6698.7,11939,11939,2,America/Puerto_Rico,FALSE,1630142912
"Sabana Llana","Sabana Llana",,18.0244,-66.2513,"Puerto Rico",PR,PRI,"Puerto Rico","Puerto Rico",PR-PR,state,,45.7,,,4,America/Puerto_Rico,FALSE,1630126760
"Sabana Abajo","Sabana Abajo",,18.4097,-65.9827,"Puerto Rico",PR,PRI,"Puerto Rico","Puerto Rico",PR-PR,state,,2572.7,,,4,America/Puerto_Rico,FALSE,1630126756
"Sabana Gardens","Sabana Gardens",,18.4144,-65.9724,"Puerto Rico",PR,PRI,"Puerto Rico","Puerto Rico",PR-PR,state,,4007.1,,,4,America/Puerto_Rico,FALSE,1630126758
Soroco,Soroco,,18.3691,-65.6257,"Puerto Rico",PR,PRI,"Puerto Rico","Puerto Rico",PR-PR,state,,542.0,,,4,America/Puerto_Rico,FALSE,1630126838
"Sierra Linda","Sierra Linda",,18.3813,-66.1813,"Puerto Rico",PR,PRI,"Puerto Rico","Puerto Rico",PR-PR,state,,4161.6,,,4,America/Puerto_Rico,FALSE,1630126837
"Sierra Brava","Sierra Brava",,18.3500,-66.0935,"Puerto Rico",PR,PRI,"Puerto Rico","Puerto Rico",PR-PR,state,,3458.0,,,4,America/Puerto_Rico,FALSE,1630126836
"Sierra Bayamón","Sierra Bayamon",,18.4016,-66.1699,"Puerto Rico",PR,PRI,"Puerto Rico","Puerto Rico",PR-PR,state,,3834.7,,,4,America/Puerto_Rico,FALSE,1630126835
Shanghai,Shanghai,,18.2077,-65.7446,"Puerto Rico",PR,PRI,"Puerto Rico","Puerto Rico",PR-PR,state,,588.4,,,4,America/Puerto_Rico,FALSE,1630126834
Serrano,Serrano,,17.9925,-66.4999,"Puerto Rico",PR,PRI,"Puerto Rico","Puerto Rico",PR-PR,state,,2092.9,,,4,America/Puerto_Rico,FALSE,1630126833
"Muñoz Grillo","Munoz Grillo",,18.1755,-66.0904,"Puerto Rico",PR,PRI,"Puerto Rico","Puerto Rico",PR-PR,state,,404.6,,,4,America/Puerto_Rico,FALSE,1630126614
"Morales Díaz","Morales Diaz",,18.0377,-67.1268,"Puerto Rico",PR,PRI,"Puerto Rico","Puerto Rico",PR-PR,state,,253.6,,,4,America/Puerto_Rico,FALSE,1630126612
Emajagua,Emajagua,,18.0016,-65.8829,"Puerto Rico",PR,PRI,"Puerto Rico","Puerto Rico",PR-PR,state,,1311.2,2887,2887,3,America/Puerto_Rico,FALSE,1630023699
Fajardo,Fajardo,,18.3331,-65.6589,"Puerto Rico",PR,PRI,"Puerto Rico","Puerto Rico",PR-PR,state,,1213.3,66022,25573,3,America/Puerto_Rico,FALSE,1630035668
Palomas,Palomas,,18.0135,-66.8688,"Puerto Rico",PR,PRI,"Puerto Rico","Puerto Rico",PR-PR,state,,1047.9,1359,1359,3,America/Puerto_Rico,FALSE,1630137130
Palmer,Palmer,,18.3704,-65.7733,"Puerto Rico",PR,PRI,"Puerto Rico","Puerto Rico",PR-PR,state,,1236.4,1475,1475,3,America/Puerto_Rico,FALSE,1630035538
"Palo Seco","Palo Seco",,18.0093,-65.9370,"Puerto Rico",PR,PRI,"Puerto Rico","Puerto Rico",PR-PR,state,,675.8,795,795,3,America/Puerto_Rico,FALSE,1630035537
Palmas,Palmas,,17.9878,-66.0254,"Puerto Rico",PR,PRI,"Puerto Rico","Puerto Rico",PR-PR,state,,1396.0,,,3,America/Puerto_Rico,FALSE,1630023593
Palmarejo,Palmarejo,,18.0409,-67.0766,"Puerto Rico",PR,PRI,"Puerto Rico","Puerto Rico",PR-PR,state,,956.2,1137,1137,3,America/Puerto_Rico,FALSE,1630035467
Pájaros,Pajaros,,18.3610,-66.2184,"Puerto Rico",PR,PRI,"Puerto Rico","Puerto Rico",PR-PR,state,,2528.6,10043,10043,2,America/Puerto_Rico,FALSE,1630035532
Orocovis,Orocovis,,18.2258,-66.3902,"Puerto Rico",PR,PRI,"Puerto Rico","Puerto Rico",PR-PR,state,,865.5,1264,1264,3,America/Puerto_Rico,FALSE,1630035531
"Palma Sola","Palma Sola",,18.3240,-65.8715,"Puerto Rico",PR,PRI,"Puerto Rico","Puerto Rico",PR-PR,state,,511.3,1485,1485,3,America/Puerto_Rico,FALSE,1630143210
"Rosa Sánchez","Rosa Sanchez",,18.0617,-65.9136,"Puerto Rico",PR,PRI,"Puerto Rico","Puerto Rico",PR-PR,state,,480.6,723,723,3,America/Puerto_Rico,FALSE,1630023681
Sabana,Sabana,,18.4643,-66.3517,"Puerto Rico",PR,PRI,"Puerto Rico","Puerto Rico",PR-PR,state,,1462.8,965,965,3,America/Puerto_Rico,FALSE,1630035565
"Sabana Eneas","Sabana Eneas",,18.0810,-67.0852,"Puerto Rico",PR,PRI,"Puerto Rico","Puerto Rico",PR-PR,state,,681.4,1356,1356,3,America/Puerto_Rico,FALSE,1630035566
"Sabana Grande","Sabana Grande",,18.0832,-66.9645,"Puerto Rico",PR,PRI,"Puerto Rico","Puerto Rico",PR-PR,state,,1850.5,10301,10301,3,America/Puerto_Rico,FALSE,1630023550
"Pueblo Norte","Pueblo Norte",,18.0894,-67.1466,"Puerto Rico",PR,PRI,"Puerto Rico","Puerto Rico",PR-PR,state,,3019.8,,,4,America/Puerto_Rico,FALSE,1630126696
"Pueblito de Ponce","Pueblito de Ponce",,18.4338,-66.9674,"Puerto Rico",PR,PRI,"Puerto Rico","Puerto Rico",PR-PR,state,,93.0,,,4,America/Puerto_Rico,FALSE,1630126695
Providencia,Providencia,,17.9875,-66.0035,"Puerto Rico",PR,PRI,"Puerto Rico","Puerto Rico",PR-PR,state,,443.7,,,4,America/Puerto_Rico,FALSE,1630126694
"Ponce de León","Ponce de Leon",,18.0061,-66.6238,"Puerto Rico",PR,PRI,"Puerto Rico","Puerto Rico",PR-PR,state,,3545.4,,,4,America/Puerto_Rico,FALSE,1630143307
"San Antonio","San Antonio",,18.4471,-66.2995,"Puerto Rico",PR,PRI,"Puerto Rico","Puerto Rico",PR-PR,state,,1508.5,7351,7351,3,America/Puerto_Rico,FALSE,1630023733
"Monte Verde","Monte Verde",,18.0972,-66.6196,"Puerto Rico",PR,PRI,"Puerto Rico","Puerto Rico",PR-PR,state,,99.9,0,0,4,America/Puerto_Rico,FALSE,1630025228
"Los Prados","Los Prados",,18.2330,-66.0621,"Puerto Rico",PR,PRI,"Puerto Rico","Puerto Rico",PR-PR,state,,1921.2,3185,3185,3,America/Puerto_Rico,FALSE,1630025219
"Las Lomas","Las Lomas",,18.3916,-66.0952,"Puerto Rico",PR,PRI,"Puerto Rico","Puerto Rico",PR-PR,state,,4336.6,,,4,America/Puerto_Rico,FALSE,1630143386
"Las Mareas","Las Mareas",,17.9380,-66.1446,"Puerto Rico",PR,PRI,"Puerto Rico","Puerto Rico",PR-PR,state,,52.5,,,4,America/Puerto_Rico,FALSE,1630126510
"Las Llanadas","Las Llanadas",,18.3961,-66.6949,"Puerto Rico",PR,PRI,"Puerto Rico","Puerto Rico",PR-PR,state,,248.3,,,4,America/Puerto_Rico,FALSE,1630126507
"Hato Abajo","Hato Abajo",,18.4474,-66.7474,"Puerto Rico",PR,PRI,"Puerto Rico","Puerto Rico",PR-PR,state,,1439.1,,,4,America/Puerto_Rico,FALSE,1630126391
"Hato Tejas","Hato Tejas",,18.4055,-66.1893,"Puerto Rico",PR,PRI,"Puerto Rico","Puerto Rico",PR-PR,state,,1856.7,,,4,America/Puerto_Rico,FALSE,1630126392
"Voladoras Comunidad","Voladoras Comunidad",,18.3785,-67.0859,"Puerto Rico",PR,PRI,"Puerto Rico","Puerto Rico",PR-PR,state,,1152.5,809,809,3,America/Puerto_Rico,FALSE,1630143406
"Los Héroes Comunidad","Los Heroes Comunidad",,18.3916,-67.1186,"Puerto Rico",PR,PRI,"Puerto Rico","Puerto Rico",PR-PR,state,,570.3,1042,1042,3,America/Puerto_Rico,FALSE,1630143407
"Parcelas de Navarro","Parcelas de Navarro",,18.2301,-66.0043,"Puerto Rico",PR,PRI,"Puerto Rico","Puerto Rico",PR-PR,state,,4148.7,1713,1713,2,America/Puerto_Rico,FALSE,1630025221
"El Paraiso","El Paraiso",,18.0648,-66.6021,"Puerto Rico",PR,PRI,"Puerto Rico","Puerto Rico",PR-PR,state,,758.5,1115,1115,3,America/Puerto_Rico,FALSE,1630035699
"El Chino","El Chino",,18.0491,-66.0966,"Puerto Rico",PR,PRI,"Puerto Rico","Puerto Rico",PR-PR,state,,82.2,,,4,America/Puerto_Rico,FALSE,1630126309
"El Cantito","El Cantito",,18.4490,-66.5117,"Puerto Rico",PR,PRI,"Puerto Rico","Puerto Rico",PR-PR,state,,984.5,,,4,America/Puerto_Rico,FALSE,1630126307
"El Cerro","El Cerro",,18.0558,-67.1827,"Puerto Rico",PR,PRI,"Puerto Rico","Puerto Rico",PR-PR,state,,190.7,,,4,America/Puerto_Rico,FALSE,1630126308
"El Comandante","El Comandante",,18.4013,-65.9918,"Puerto Rico",PR,PRI,"Puerto Rico","Puerto Rico",PR-PR,state,,4806.7,,,4,America/Puerto_Rico,FALSE,1630126312
Ceiba,Ceiba,,18.2650,-65.6488,"Puerto Rico",PR,PRI,"Puerto Rico","Puerto Rico",PR-PR,state,,1876.0,5347,5347,3,America/Puerto_Rico,FALSE,1630035643
Indios,Indios,,17.9942,-66.8210,"Puerto Rico",PR,PRI,"Puerto Rico","Puerto Rico",PR-PR,state,,502.0,1322,1322,3,America/Puerto_Rico,FALSE,1630023621
"Hato Arriba","Hato Arriba",,18.3520,-67.0336,"Puerto Rico",PR,PRI,"Puerto Rico","Puerto Rico",PR-PR,state,,377.0,775,775,3,America/Puerto_Rico,FALSE,1630023636
"G. L. García","G. L. Garcia",,18.1258,-66.1026,"Puerto Rico",PR,PRI,"Puerto Rico","Puerto Rico",PR-PR,state,,663.4,1312,1312,3,America/Puerto_Rico,FALSE,1630035481
Bucaré,Bucare,,18.3644,-66.0871,"Puerto Rico",PR,PRI,"Puerto Rico","Puerto Rico",PR-PR,state,,2162.7,,,4,America/Puerto_Rico,FALSE,1630126188
Bucarabones,Bucarabones,,18.3961,-66.2185,"Puerto Rico",PR,PRI,"Puerto Rico","Puerto Rico",PR-PR,state,,1321.7,,,4,America/Puerto_Rico,FALSE,1630126187
Borrás,Borras,,18.3544,-65.6924,"Puerto Rico",PR,PRI,"Puerto Rico","Puerto Rico",PR-PR,state,,263.5,,,4,America/Puerto_Rico,FALSE,1630126183
Borinquen,Borinquen,,18.0247,-66.6130,"Puerto Rico",PR,PRI,"Puerto Rico","Puerto Rico",PR-PR,state,,3533.8,,,4,America/Puerto_Rico,FALSE,1630126182
Botijas,Botijas,,18.2413,-66.3671,"Puerto Rico",PR,PRI,"Puerto Rico","Puerto Rico",PR-PR,state,,222.9,,,4,America/Puerto_Rico,FALSE,1630126184
Branderi,Branderi,,17.9672,-66.0888,"Puerto Rico",PR,PRI,"Puerto Rico","Puerto Rico",PR-PR,state,,751.3,,,4,America/Puerto_Rico,FALSE,1630126185
"Las Piñas","Las Pinas",,18.2516,-65.9177,"Puerto Rico",PR,PRI,"Puerto Rico","Puerto Rico",PR-PR,state,,298.1,,,4,America/Puerto_Rico,FALSE,1630126520
Maizales,Maizales,,18.2327,-65.7602,"Puerto Rico",PR,PRI,"Puerto Rico","Puerto Rico",PR-PR,state,,664.9,,,4,America/Puerto_Rico,FALSE,1630126564
"Carraizo Alto","Carraizo Alto",,18.3425,-66.0329,"Puerto Rico",PR,PRI,"Puerto Rico","Puerto Rico",PR-PR,state,,1323.1,,,4,America/Puerto_Rico,FALSE,1630126235
Carola,Carola,,18.3763,-65.7935,"Puerto Rico",PR,PRI,"Puerto Rico","Puerto Rico",PR-PR,state,,3202.7,,,4,America/Puerto_Rico,FALSE,1630126234
Carmelita,Carmelita,,18.3822,-65.7604,"Puerto Rico",PR,PRI,"Puerto Rico","Puerto Rico",PR-PR,state,,69.8,,,4,America/Puerto_Rico,FALSE,1630126233
"Villa Graciela","Villa Graciela",,18.2377,-65.9232,"Puerto Rico",PR,PRI,"Puerto Rico","Puerto Rico",PR-PR,state,,762.3,,,4,America/Puerto_Rico,FALSE,1630126893
"Villa Fontana","Villa Fontana",,18.4044,-65.9735,"Puerto Rico",PR,PRI,"Puerto Rico","Puerto Rico",PR-PR,state,,4926.5,,,4,America/Puerto_Rico,FALSE,1630126892
"Villa Carolina","Villa Carolina",,18.3977,-65.9621,"Puerto Rico",PR,PRI,"Puerto Rico","Puerto Rico",PR-PR,state,,4081.3,,,4,America/Puerto_Rico,FALSE,1630126886
"Villa Caparra","Villa Caparra",,18.4077,-66.1110,"Puerto Rico",PR,PRI,"Puerto Rico","Puerto Rico",PR-PR,state,,3335.6,,,4,America/Puerto_Rico,FALSE,1630126884
"Villa Flores","Villa Flores",,18.0083,-66.5905,"Puerto Rico",PR,PRI,"Puerto Rico","Puerto Rico",PR-PR,state,,3063.4,,,4,America/Puerto_Rico,FALSE,1630126891
"Villa España","Villa Espana",,18.3988,-66.1388,"Puerto Rico",PR,PRI,"Puerto Rico","Puerto Rico",PR-PR,state,,3152.9,,,4,America/Puerto_Rico,FALSE,1630126889
"Villa Contessa","Villa Contessa",,18.3791,-66.1688,"Puerto Rico",PR,PRI,"Puerto Rico","Puerto Rico",PR-PR,state,,3387.3,,,4,America/Puerto_Rico,FALSE,1630126888
"Los Maestros","Los Maestros",,18.4058,-66.0346,"Puerto Rico",PR,PRI,"Puerto Rico","Puerto Rico",PR-PR,state,,4416.6,,,4,America/Puerto_Rico,FALSE,1630126542
"Los Indios","Los Indios",,18.0027,-66.8046,"Puerto Rico",PR,PRI,"Puerto Rico","Puerto Rico",PR-PR,state,,529.0,,,4,America/Puerto_Rico,FALSE,1630126541
"Los Naranjos","Los Naranjos",,18.4722,-66.3946,"Puerto Rico",PR,PRI,"Puerto Rico","Puerto Rico",PR-PR,state,,649.9,,,4,America/Puerto_Rico,FALSE,1630126545
"Los Muertos","Los Muertos",,18.3702,-66.6652,"Puerto Rico",PR,PRI,"Puerto Rico","Puerto Rico",PR-PR,state,,32.5,,,4,America/Puerto_Rico,FALSE,1630126544
"Los Molinos","Los Molinos",,18.4697,-66.4860,"Puerto Rico",PR,PRI,"Puerto Rico","Puerto Rico",PR-PR,state,,845.9,,,4,America/Puerto_Rico,FALSE,1630126543
"Los Peñas","Los Penas",,18.3966,-66.0224,"Puerto Rico",PR,PRI,"Puerto Rico","Puerto Rico",PR-PR,state,,3218.9,,,4,America/Puerto_Rico,FALSE,1630126547
"Los Pámpanos","Los Pampanos",,17.9983,-66.6332,"Puerto Rico",PR,PRI,"Puerto Rico","Puerto Rico",PR-PR,state,,1686.3,,,4,America/Puerto_Rico,FALSE,1630126546
"Royal Town","Royal Town",,18.3658,-66.1718,"Puerto Rico",PR,PRI,"Puerto Rico","Puerto Rico",PR-PR,state,,4817.2,,,4,America/Puerto_Rico,FALSE,1630126750
"Royal Gardens","Royal Gardens",,18.3761,-66.1793,"Puerto Rico",PR,PRI,"Puerto Rico","Puerto Rico",PR-PR,state,,4161.6,,,4,America/Puerto_Rico,FALSE,1630126749
Sábalos,Sabalos,,18.1766,-67.1493,"Puerto Rico",PR,PRI,"Puerto Rico","Puerto Rico",PR-PR,state,,2737.1,,,4,America/Puerto_Rico,FALSE,1630126752
Rucio,Rucio,,18.0919,-66.6918,"Puerto Rico",PR,PRI,"Puerto Rico","Puerto Rico",PR-PR,state,,21.8,,,4,America/Puerto_Rico,FALSE,1630126751
Roosevelt,Roosevelt,,18.1955,-65.9649,"Puerto Rico",PR,PRI,"Puerto Rico","Puerto Rico",PR-PR,state,,1157.8,,,4,America/Puerto_Rico,FALSE,1630126746
"Rolling Hills","Rolling Hills",,18.3799,-65.9838,"Puerto Rico",PR,PRI,"Puerto Rico","Puerto Rico",PR-PR,state,,4024.2,,,4,America/Puerto_Rico,FALSE,1630126745
Rosario,Rosario,,18.1625,-67.0791,"Puerto Rico",PR,PRI,"Puerto Rico","Puerto Rico",PR-PR,state,,652.4,,,4,America/Puerto_Rico,FALSE,1630126748
"Rosa María","Rosa Maria",,18.3849,-65.9524,"Puerto Rico",PR,PRI,"Puerto Rico","Puerto Rico",PR-PR,state,,4913.2,,,4,America/Puerto_Rico,FALSE,1630126747
"Notre Dame","Notre Dame",,18.2313,-66.0446,"Puerto Rico",PR,PRI,"Puerto Rico","Puerto Rico",PR-PR,state,,4283.9,,,4,America/Puerto_Rico,FALSE,1630126621
Naranjales,Naranjales,,18.2097,-66.9988,"Puerto Rico",PR,PRI,"Puerto Rico","Puerto Rico",PR-PR,state,,35.4,,,4,America/Puerto_Rico,FALSE,1630126617
"La Monserrate","La Monserrate",,18.4474,-66.2388,"Puerto Rico",PR,PRI,"Puerto Rico","Puerto Rico",PR-PR,state,,449.0,,,4,America/Puerto_Rico,FALSE,1630126465
"La Muda","La Muda",,18.3291,-66.0988,"Puerto Rico",PR,PRI,"Puerto Rico","Puerto Rico",PR-PR,state,,579.5,,,4,America/Puerto_Rico,FALSE,1630126466
"La Luna","La Luna",,17.9789,-66.8899,"Puerto Rico",PR,PRI,"Puerto Rico","Puerto Rico",PR-PR,state,,872.1,,,4,America/Puerto_Rico,FALSE,1630126461
"La Marina","La Marina",,18.3594,-66.0538,"Puerto Rico",PR,PRI,"Puerto Rico","Puerto Rico",PR-PR,state,,3606.9,,,4,America/Puerto_Rico,FALSE,1630126462
"La Joya","La Joya",,18.0008,-66.8735,"Puerto Rico",PR,PRI,"Puerto Rico","Puerto Rico",PR-PR,state,,512.8,,,4,America/Puerto_Rico,FALSE,1630126459
"La Jurado","La Jurado",,18.1880,-66.0904,"Puerto Rico",PR,PRI,"Puerto Rico","Puerto Rico",PR-PR,state,,895.6,,,4,America/Puerto_Rico,FALSE,1630126460
"La Mina","La Mina",,18.3552,-67.1688,"Puerto Rico",PR,PRI,"Puerto Rico","Puerto Rico",PR-PR,state,,702.6,,,4,America/Puerto_Rico,FALSE,1630126464
"Floral Park","Floral Park",,18.4180,-66.0529,"Puerto Rico",PR,PRI,"Puerto Rico","Puerto Rico",PR-PR,state,,3249.0,,,4,America/Puerto_Rico,FALSE,1630126368
"Villa Clementina","Villa Clementina",,18.3677,-66.0941,"Puerto Rico",PR,PRI,"Puerto Rico","Puerto Rico",PR-PR,state,,3736.6,,,4,America/Puerto_Rico,FALSE,1630126887
"Villa Capri","Villa Capri",,18.3919,-66.0310,"Puerto Rico",PR,PRI,"Puerto Rico","Puerto Rico",PR-PR,state,,4503.4,,,4,America/Puerto_Rico,FALSE,1630126885
Monterrey,Monterrey,,18.4213,-66.3135,"Puerto Rico",PR,PRI,"Puerto Rico","Puerto Rico",PR-PR,state,,1255.1,,,4,America/Puerto_Rico,FALSE,1630126610
Monteflores,Monteflores,,18.4377,-66.0554,"Puerto Rico",PR,PRI,"Puerto Rico","Puerto Rico",PR-PR,state,,8965.5,,,4,America/Puerto_Rico,FALSE,1630126609
Montebello,Montebello,,18.3680,-66.5232,"Puerto Rico",PR,PRI,"Puerto Rico","Puerto Rico",PR-PR,state,,629.1,,,4,America/Puerto_Rico,FALSE,1630126608
"El Salto","El Salto",,18.2944,-66.9102,"Puerto Rico",PR,PRI,"Puerto Rico","Puerto Rico",PR-PR,state,,97.7,,,4,America/Puerto_Rico,FALSE,1630126336
"Liborio Negrón Torres","Liborio Negron Torres",,18.0431,-66.9426,"Puerto Rico",PR,PRI,"Puerto Rico","Puerto Rico",PR-PR,state,,959.3,1926,1926,3,America/Puerto_Rico,FALSE,1630023548
Lluveras,Lluveras,,18.0380,-66.9037,"Puerto Rico",PR,PRI,"Puerto Rico","Puerto Rico",PR-PR,state,,888.7,1676,1676,3,America/Puerto_Rico,FALSE,1630023549
"Las Piedras","Las Piedras",,18.1787,-65.8711,"Puerto Rico",PR,PRI,"Puerto Rico","Puerto Rico",PR-PR,state,,1458.8,4996,4996,3,America/Puerto_Rico,FALSE,1630023710
"Los Llanos","Los Llanos",,18.0579,-66.4092,"Puerto Rico",PR,PRI,"Puerto Rico","Puerto Rico",PR-PR,state,,938.4,1916,1916,3,America/Puerto_Rico,FALSE,1630023663
"Luis Lloréns Torres","Luis Llorens Torres",,18.0565,-66.5267,"Puerto Rico",PR,PRI,"Puerto Rico","Puerto Rico",PR-PR,state,,2200.5,2624,2624,2,America/Puerto_Rico,FALSE,1630023578
Loíza,Loiza,,18.4309,-65.8801,"Puerto Rico",PR,PRI,"Puerto Rico","Puerto Rico",PR-PR,state,,2029.7,2714,2714,2,America/Puerto_Rico,FALSE,1630035508
Lomas,Lomas,,18.2688,-65.9096,"Puerto Rico",PR,PRI,"Puerto Rico","Puerto Rico",PR-PR,state,,1038.6,915,915,3,America/Puerto_Rico,FALSE,1630035509
Luquillo,Luquillo,,18.3719,-65.7221,"Puerto Rico",PR,PRI,"Puerto Rico","Puerto Rico",PR-PR,state,,2861.3,7870,7870,2,America/Puerto_Rico,FALSE,1630023692
Fránquez,Franquez,,18.3401,-66.4276,"Puerto Rico",PR,PRI,"Puerto Rico","Puerto Rico",PR-PR,state,,1253.5,1705,1705,3,America/Puerto_Rico,FALSE,1630035480
Guayama,Guayama,,17.9743,-66.1104,"Puerto Rico",PR,PRI,"Puerto Rico","Puerto Rico",PR-PR,state,,1917.4,18153,18153,3,America/Puerto_Rico,FALSE,1630035675
"Casa Blanca","Casa Blanca",,18.3477,-65.7091,"Puerto Rico",PR,PRI,"Puerto Rico","Puerto Rico",PR-PR,state,,1190.7,,,4,America/Puerto_Rico,FALSE,1630144295
Carro,Carro,,18.1897,-66.3379,"Puerto Rico",PR,PRI,"Puerto Rico","Puerto Rico",PR-PR,state,,991.8,,,4,America/Puerto_Rico,FALSE,1630126237
Castañer,Castaner,,18.1805,-66.8321,"Puerto Rico",PR,PRI,"Puerto Rico","Puerto Rico",PR-PR,state,,366.4,,,4,America/Puerto_Rico,FALSE,1630126240
"Río Abajo","Rio Abajo",,18.1508,-65.8029,"Puerto Rico",PR,PRI,"Puerto Rico","Puerto Rico",PR-PR,state,,1033.1,,,4,America/Puerto_Rico,FALSE,1630126736
Coamo,Coamo,,18.0765,-66.3638,"Puerto Rico",PR,PRI,"Puerto Rico","Puerto Rico",PR-PR,state,,2077.1,9806,9806,2,America/Puerto_Rico,FALSE,1630035648
Cayuco,Cayuco,,18.2922,-66.7348,"Puerto Rico",PR,PRI,"Puerto Rico","Puerto Rico",PR-PR,state,,576.0,1031,1031,3,America/Puerto_Rico,FALSE,1630035641
Cayey,Cayey,,18.1150,-66.1630,"Puerto Rico",PR,PRI,"Puerto Rico","Puerto Rico",PR-PR,state,,2193.4,14423,14423,2,America/Puerto_Rico,FALSE,1630035640
"Central Aguirre","Central Aguirre",,17.9559,-66.2265,"Puerto Rico",PR,PRI,"Puerto Rico","Puerto Rico",PR-PR,state,,616.8,827,827,3,America/Puerto_Rico,FALSE,1630035645
Ciales,Ciales,,18.3357,-66.4723,"Puerto Rico",PR,PRI,"Puerto Rico","Puerto Rico",PR-PR,state,,875.1,2634,2634,3,America/Puerto_Rico,FALSE,1630023668
Mora,Mora,,18.4626,-67.0323,"Puerto Rico",PR,PRI,"Puerto Rico","Puerto Rico",PR-PR,state,,1642.0,1337,1337,3,America/Puerto_Rico,FALSE,1630035525
Mucarabones,Mucarabones,,18.3906,-66.2178,"Puerto Rico",PR,PRI,"Puerto Rico","Puerto Rico",PR-PR,state,,1675.0,989,989,3,America/Puerto_Rico,FALSE,1630023640
Céspedes,Cespedes,,18.1383,-66.4677,"Puerto Rico",PR,PRI,"Puerto Rico","Puerto Rico",PR-PR,state,,492.8,,,4,America/Puerto_Rico,FALSE,1630126250
"Las Cunetas","Las Cunetas",,18.4449,-66.7546,"Puerto Rico",PR,PRI,"Puerto Rico","Puerto Rico",PR-PR,state,,937.5,,,4,America/Puerto_Rico,FALSE,1630126503
"Las Cruces","Las Cruces",,18.3938,-65.9841,"Puerto Rico",PR,PRI,"Puerto Rico","Puerto Rico",PR-PR,state,,1885.2,,,4,America/Puerto_Rico,FALSE,1630144495
"Jardines de Monte Hatillo","Jardines de Monte Hatillo",,18.3880,-66.0104,"Puerto Rico",PR,PRI,"Puerto Rico","Puerto Rico",PR-PR,state,,4073.0,,,4,America/Puerto_Rico,FALSE,1630126420
"Jardines de Arecibo","Jardines de Arecibo",,18.4705,-66.7510,"Puerto Rico",PR,PRI,"Puerto Rico","Puerto Rico",PR-PR,state,,3697.8,,,4,America/Puerto_Rico,FALSE,1630126418
"Dos Pinos","Dos Pinos",,18.4047,-66.0382,"Puerto Rico",PR,PRI,"Puerto Rico","Puerto Rico",PR-PR,state,,4416.6,,,4,America/Puerto_Rico,FALSE,1630126301
"El Alto","El Alto",,18.4688,-66.4904,"Puerto Rico",PR,PRI,"Puerto Rico","Puerto Rico",PR-PR,state,,845.9,,,4,America/Puerto_Rico,FALSE,1630126302
"El Banco","El Banco",,18.2341,-65.7010,"Puerto Rico",PR,PRI,"Puerto Rico","Puerto Rico",PR-PR,state,,1155.6,,,4,America/Puerto_Rico,FALSE,1630126303
"Piedra Aguza","Piedra Aguza",,18.0338,-66.4955,"Puerto Rico",PR,PRI,"Puerto Rico","Puerto Rico",PR-PR,state,,1653.3,2706,2706,3,America/Puerto_Rico,FALSE,1630027034
"Pueblito del Carmen","Pueblito del Carmen",,18.0316,-66.1656,"Puerto Rico",PR,PRI,"Puerto Rico","Puerto Rico",PR-PR,state,,129.3,305,305,4,America/Puerto_Rico,FALSE,1630027037
"El Tumbao","El Tumbao",,18.0015,-66.8995,"Puerto Rico",PR,PRI,"Puerto Rico","Puerto Rico",PR-PR,state,,465.8,1291,1291,3,America/Puerto_Rico,FALSE,1630027032
Maguayo,Maguayo,,18.0100,-67.0855,"Puerto Rico",PR,PRI,"Puerto Rico","Puerto Rico",PR-PR,state,,703.7,802,802,3,America/Puerto_Rico,FALSE,1630035707
"Las Croabas","Las Croabas",,18.3695,-65.6293,"Puerto Rico",PR,PRI,"Puerto Rico","Puerto Rico",PR-PR,state,,317.3,666,666,3,America/Puerto_Rico,FALSE,1630027038
Comerío,Comerio,,18.2200,-66.2246,"Puerto Rico",PR,PRI,"Puerto Rico","Puerto Rico",PR-PR,state,,3136.2,3656,3656,2,America/Puerto_Rico,FALSE,1630023541
Comunas,Comunas,,18.0846,-65.8435,"Puerto Rico",PR,PRI,"Puerto Rico","Puerto Rico",PR-PR,state,,1020.2,3005,3005,3,America/Puerto_Rico,FALSE,1630035651
Coquí,Coqui,,17.9793,-66.2255,"Puerto Rico",PR,PRI,"Puerto Rico","Puerto Rico",PR-PR,state,,1230.7,2968,2968,3,America/Puerto_Rico,FALSE,1630035652
Corazón,Corazon,,17.9940,-66.0833,"Puerto Rico",PR,PRI,"Puerto Rico","Puerto Rico",PR-PR,state,,1586.0,2280,2280,3,America/Puerto_Rico,FALSE,1630035653
Corcovado,Corcovado,,18.4610,-66.7778,"Puerto Rico",PR,PRI,"Puerto Rico","Puerto Rico",PR-PR,state,,972.2,1305,1305,3,America/Puerto_Rico,FALSE,1630023533
Corozal,Corozal,,18.3410,-66.3124,"Puerto Rico",PR,PRI,"Puerto Rico","Puerto Rico",PR-PR,state,,1742.1,10019,10019,3,America/Puerto_Rico,FALSE,1630035655
"Coto Laurel","Coto Laurel",,18.0491,-66.5517,"Puerto Rico",PR,PRI,"Puerto Rico","Puerto Rico",PR-PR,state,,1558.6,2347,2347,3,America/Puerto_Rico,FALSE,1630035656
"Coto Norte","Coto Norte",,18.4328,-66.4409,"Puerto Rico",PR,PRI,"Puerto Rico","Puerto Rico",PR-PR,state,,772.5,1440,1440,3,America/Puerto_Rico,FALSE,1630035657
Culebra,Culebra,,18.3105,-65.3029,"Puerto Rico",PR,PRI,"Puerto Rico","Puerto Rico",PR-PR,state,,483.5,1021,1021,3,America/Puerto_Rico,FALSE,1630023691
Daguao,Daguao,,18.2217,-65.6798,"Puerto Rico",PR,PRI,"Puerto Rico","Puerto Rico",PR-PR,state,,672.3,988,988,3,America/Puerto_Rico,FALSE,1630035659
Camaceyes,Camaceyes,,18.4661,-67.1452,"Puerto Rico",PR,PRI,"Puerto Rico","Puerto Rico",PR-PR,state,,1018.5,,,4,America/Puerto_Rico,FALSE,1630126199
Caguax,Caguax,,18.2372,-66.0310,"Puerto Rico",PR,PRI,"Puerto Rico","Puerto Rico",PR-PR,state,,2850.1,,,4,America/Puerto_Rico,FALSE,1630126198
"Las Delicias","Las Delicias",,18.0341,-66.6455,"Puerto Rico",PR,PRI,"Puerto Rico","Puerto Rico",PR-PR,state,,1140.2,,,4,America/Puerto_Rico,FALSE,1630126504
"Las Corozas","Las Corozas",,18.3649,-67.1771,"Puerto Rico",PR,PRI,"Puerto Rico","Puerto Rico",PR-PR,state,,734.1,,,4,America/Puerto_Rico,FALSE,1630126500
Parkside,Parkside,,18.4074,-66.1029,"Puerto Rico",PR,PRI,"Puerto Rico","Puerto Rico",PR-PR,state,,3540.2,,,4,America/Puerto_Rico,FALSE,1630126653
"Parada de Señal Fulminante","Parada de Senal Fulminante",,18.0600,-67.0405,"Puerto Rico",PR,PRI,"Puerto Rico","Puerto Rico",PR-PR,state,,85.7,,,4,America/Puerto_Rico,FALSE,1630126646
"Parada de Señal Irizarry","Parada de Senal Irizarry",,18.0316,-67.0249,"Puerto Rico",PR,PRI,"Puerto Rico","Puerto Rico",PR-PR,state,,10.3,,,4,America/Puerto_Rico,FALSE,1630126648
"Parcelas Falú","Parcelas Falu",,18.4030,-66.0160,"Puerto Rico",PR,PRI,"Puerto Rico","Puerto Rico",PR-PR,state,,6012.9,,,4,America/Puerto_Rico,FALSE,1630126650
"Park Gardens","Park Gardens",,18.3888,-66.0321,"Puerto Rico",PR,PRI,"Puerto Rico","Puerto Rico",PR-PR,state,,4441.6,,,4,America/Puerto_Rico,FALSE,1630126651
Cornelia,Cornelia,,18.1516,-67.1699,"Puerto Rico",PR,PRI,"Puerto Rico","Puerto Rico",PR-PR,state,,174.0,,,4,America/Puerto_Rico,FALSE,1630126274
"Bayamón Gardens","Bayamon Gardens",,18.3777,-66.1799,"Puerto Rico",PR,PRI,"Puerto Rico","Puerto Rico",PR-PR,state,,4161.6,,,4,America/Puerto_Rico,FALSE,1630126167
Bayamoncito,Bayamoncito,,18.2366,-66.1702,"Puerto Rico",PR,PRI,"Puerto Rico","Puerto Rico",PR-PR,state,,489.6,,,4,America/Puerto_Rico,FALSE,1630126168
"Campamento Buena Vista","Campamento Buena Vista",,18.1502,-66.9938,"Puerto Rico",PR,PRI,"Puerto Rico","Puerto Rico",PR-PR,state,,21.1,,,4,America/Puerto_Rico,FALSE,1630126206
Cambute,Cambute,,18.3616,-65.9210,"Puerto Rico",PR,PRI,"Puerto Rico","Puerto Rico",PR-PR,state,,1595.3,,,4,America/Puerto_Rico,FALSE,1630126202
"Campamento Eliza Colberg","Campamento Eliza Colberg",,18.3391,-65.8282,"Puerto Rico",PR,PRI,"Puerto Rico","Puerto Rico",PR-PR,state,,40.8,,,4,America/Puerto_Rico,FALSE,1630126208
"Canto de Sapo","Canto de Sapo",,18.3477,-65.9674,"Puerto Rico",PR,PRI,"Puerto Rico","Puerto Rico",PR-PR,state,,683.7,,,4,America/Puerto_Rico,FALSE,1630126229
Caonillas,Caonillas,,18.1527,-66.2554,"Puerto Rico",PR,PRI,"Puerto Rico","Puerto Rico",PR-PR,state,,387.8,,,4,America/Puerto_Rico,FALSE,1630126230
Cantera,Cantera,,18.4247,-66.0429,"Puerto Rico",PR,PRI,"Puerto Rico","Puerto Rico",PR-PR,state,,5394.3,,,4,America/Puerto_Rico,FALSE,1630126227
Cantero,Cantero,,18.4563,-66.2402,"Puerto Rico",PR,PRI,"Puerto Rico","Puerto Rico",PR-PR,state,,92.6,,,4,America/Puerto_Rico,FALSE,1630126228
Capá,Capa,,18.3769,-67.0574,"Puerto Rico",PR,PRI,"Puerto Rico","Puerto Rico",PR-PR,state,,506.8,,,4,America/Puerto_Rico,FALSE,1630126231
"Caparra Hills","Caparra Hills",,18.4041,-66.1024,"Puerto Rico",PR,PRI,"Puerto Rico","Puerto Rico",PR-PR,state,,3540.2,,,4,America/Puerto_Rico,FALSE,1630126232
"Villa Borinquen","Villa Borinquen",,18.1750,-66.0449,"Puerto Rico",PR,PRI,"Puerto Rico","Puerto Rico",PR-PR,state,,584.7,,,4,America/Puerto_Rico,FALSE,1630126882
"Villa Andalucia","Villa Andalucia",,18.3822,-66.0271,"Puerto Rico",PR,PRI,"Puerto Rico","Puerto Rico",PR-PR,state,,4687.4,,,4,America/Puerto_Rico,FALSE,1630126880
"Villa Blanca","Villa Blanca",,18.2436,-66.0507,"Puerto Rico",PR,PRI,"Puerto Rico","Puerto Rico",PR-PR,state,,697.2,,,4,America/Puerto_Rico,FALSE,1630126881
"Villa del Rey","Villa del Rey",,18.2147,-66.0613,"Puerto Rico",PR,PRI,"Puerto Rico","Puerto Rico",PR-PR,state,,2198.1,,,4,America/Puerto_Rico,FALSE,1630126879
Vertedero,Vertedero,,18.0802,-66.2452,"Puerto Rico",PR,PRI,"Puerto Rico","Puerto Rico",PR-PR,state,,99.7,,,4,America/Puerto_Rico,FALSE,1630126877
Victoria,Victoria,,18.4047,-67.1543,"Puerto Rico",PR,PRI,"Puerto Rico","Puerto Rico",PR-PR,state,,284.5,,,4,America/Puerto_Rico,FALSE,1630126878
"Los Puertos","Los Puertos",,18.4341,-66.3099,"Puerto Rico",PR,PRI,"Puerto Rico","Puerto Rico",PR-PR,state,,233.5,,,4,America/Puerto_Rico,FALSE,1630145005
"Los Perros","Los Perros",,18.1625,-65.7821,"Puerto Rico",PR,PRI,"Puerto Rico","Puerto Rico",PR-PR,state,,1030.3,,,4,America/Puerto_Rico,FALSE,1630126548
Lucchetti,Lucchetti,,18.0336,-66.8446,"Puerto Rico",PR,PRI,"Puerto Rico","Puerto Rico",PR-PR,state,,2134.7,,,4,America/Puerto_Rico,FALSE,1630126551
Alcantavilla,Alcantavilla,,18.4772,-66.8532,"Puerto Rico",PR,PRI,"Puerto Rico","Puerto Rico",PR-PR,state,,1468.8,,,4,America/Puerto_Rico,FALSE,1630126133
"Aldea Cintrón","Aldea Cintron",,18.2975,-65.6446,"Puerto Rico",PR,PRI,"Puerto Rico","Puerto Rico",PR-PR,state,,480.8,,,4,America/Puerto_Rico,FALSE,1630126134
"Aguas Saladas Blancas","Aguas Saladas Blancas",,18.0311,-66.4963,"Puerto Rico",PR,PRI,"Puerto Rico","Puerto Rico",PR-PR,state,,1016.9,,,4,America/Puerto_Rico,FALSE,1630126132
Algarrobo,Algarrobo,,17.9805,-66.0843,"Puerto Rico",PR,PRI,"Puerto Rico","Puerto Rico",PR-PR,state,,1447.3,,,4,America/Puerto_Rico,FALSE,1630126135
Stella,Stella,,18.3240,-67.2464,"Puerto Rico",PR,PRI,"Puerto Rico","Puerto Rico",PR-PR,state,,1320.7,1130,1130,3,America/Puerto_Rico,FALSE,1630023615
"Santo Domingo","Santo Domingo",,18.0719,-66.7459,"Puerto Rico",PR,PRI,"Puerto Rico","Puerto Rico",PR-PR,state,,423.6,2412,2412,3,America/Puerto_Rico,FALSE,1630035582
"Samuel Davila","Samuel Davila",,18.3497,-65.8204,"Puerto Rico",PR,PRI,"Puerto Rico","Puerto Rico",PR-PR,state,,379.0,,,4,America/Puerto_Rico,FALSE,1630126769
"San Agustín","San Agustin",,18.1272,-67.0738,"Puerto Rico",PR,PRI,"Puerto Rico","Puerto Rico",PR-PR,state,,211.8,,,4,America/Puerto_Rico,FALSE,1630126770
"San Antón","San Anton",,18.0036,-66.6057,"Puerto Rico",PR,PRI,"Puerto Rico","Puerto Rico",PR-PR,state,,3199.4,,,4,America/Puerto_Rico,FALSE,1630126772
"Plan Bonito","Plan Bonito",,18.1425,-67.1635,"Puerto Rico",PR,PRI,"Puerto Rico","Puerto Rico",PR-PR,state,,318.3,,,4,America/Puerto_Rico,FALSE,1630126677
"Playa de Fajardo","Playa de Fajardo",,18.3327,-65.6324,"Puerto Rico",PR,PRI,"Puerto Rico","Puerto Rico",PR-PR,state,,1083.5,,,4,America/Puerto_Rico,FALSE,1630126678
Cambalache,Cambalache,,18.3577,-65.8841,"Puerto Rico",PR,PRI,"Puerto Rico","Puerto Rico",PR-PR,state,,193.6,737,737,3,America/Puerto_Rico,FALSE,1630145082
"La Pica","La Pica",,18.4652,-66.8619,"Puerto Rico",PR,PRI,"Puerto Rico","Puerto Rico",PR-PR,state,,510.6,346,346,3,America/Puerto_Rico,FALSE,1630145084
"Del Carmen","Del Carmen",,18.4678,-66.8490,"Puerto Rico",PR,PRI,"Puerto Rico","Puerto Rico",PR-PR,state,,1328.9,1408,1408,3,America/Puerto_Rico,FALSE,1630145086
"La Plaza","La Plaza",,18.1388,-66.0424,"Puerto Rico",PR,PRI,"Puerto Rico","Puerto Rico",PR-PR,state,,140.0,,,4,America/Puerto_Rico,FALSE,1630126476
"La Plata","La Plata",,18.1544,-66.2329,"Puerto Rico",PR,PRI,"Puerto Rico","Puerto Rico",PR-PR,state,,424.2,,,4,America/Puerto_Rico,FALSE,1630126474
"La Placita","La Placita",,18.1233,-66.1807,"Puerto Rico",PR,PRI,"Puerto Rico","Puerto Rico",PR-PR,state,,2213.1,,,4,America/Puerto_Rico,FALSE,1630126473
"La Parada","La Parada",,18.3050,-67.0235,"Puerto Rico",PR,PRI,"Puerto Rico","Puerto Rico",PR-PR,state,,393.5,,,4,America/Puerto_Rico,FALSE,1630126467
Maricao,Maricao,,18.1838,-66.9810,"Puerto Rico",PR,PRI,"Puerto Rico","Puerto Rico",PR-PR,state,,191.8,894,894,3,America/Puerto_Rico,FALSE,1630023678
"Mariano Colón","Mariano Colon",,18.0287,-66.3356,"Puerto Rico",PR,PRI,"Puerto Rico","Puerto Rico",PR-PR,state,,498.6,1920,1920,3,America/Puerto_Rico,FALSE,1630023664
Marueño,Marueno,,18.0585,-66.6569,"Puerto Rico",PR,PRI,"Puerto Rico","Puerto Rico",PR-PR,state,,844.1,1090,1090,3,America/Puerto_Rico,FALSE,1630035466
"Magas Arriba","Magas Arriba",,18.0233,-66.7664,"Puerto Rico",PR,PRI,"Puerto Rico","Puerto Rico",PR-PR,state,,639.0,1215,1215,3,America/Puerto_Rico,FALSE,1630023619
Luyando,Luyando,,18.3575,-67.1553,"Puerto Rico",PR,PRI,"Puerto Rico","Puerto Rico",PR-PR,state,,626.6,2658,2658,3,America/Puerto_Rico,FALSE,1630023527
"María Antonia","Maria Antonia",,17.9783,-66.8899,"Puerto Rico",PR,PRI,"Puerto Rico","Puerto Rico",PR-PR,state,,872.1,1614,1614,3,America/Puerto_Rico,FALSE,1630023535
Manatí,Manati,,18.4283,-66.4823,"Puerto Rico",PR,PRI,"Puerto Rico","Puerto Rico",PR-PR,state,,2067.2,11134,11134,2,America/Puerto_Rico,FALSE,1630023562
Mayagüez,Mayaguez,,18.2003,-67.1397,"Puerto Rico",PR,PRI,"Puerto Rico","Puerto Rico",PR-PR,state,,1105.2,93079,60062,3,America/Puerto_Rico,FALSE,1630035520
"San Diego","San Diego",,18.0980,-66.3371,"Puerto Rico",PR,PRI,"Puerto Rico","Puerto Rico",PR-PR,state,,344.6,,,4,America/Puerto_Rico,FALSE,1630126775
"San Cristóbal","San Cristobal",,18.2166,-65.7279,"Puerto Rico",PR,PRI,"Puerto Rico","Puerto Rico",PR-PR,state,,895.8,,,4,America/Puerto_Rico,FALSE,1630126774
"San Felipe","San Felipe",,17.9702,-66.2152,"Puerto Rico",PR,PRI,"Puerto Rico","Puerto Rico",PR-PR,state,,849.6,,,4,America/Puerto_Rico,FALSE,1630126777
"San Eladio","San Eladio",,18.2136,-65.7852,"Puerto Rico",PR,PRI,"Puerto Rico","Puerto Rico",PR-PR,state,,1226.5,,,4,America/Puerto_Rico,FALSE,1630126776
"San Fernando","San Fernando",,18.3713,-66.0629,"Puerto Rico",PR,PRI,"Puerto Rico","Puerto Rico",PR-PR,state,,3027.1,,,4,America/Puerto_Rico,FALSE,1630126778
"San Francisco","San Francisco",,18.3794,-66.0816,"Puerto Rico",PR,PRI,"Puerto Rico","Puerto Rico",PR-PR,state,,1422.0,,,4,America/Puerto_Rico,FALSE,1630145234
"Piedras Blancas","Piedras Blancas",,18.0169,-66.7985,"Puerto Rico",PR,PRI,"Puerto Rico","Puerto Rico",PR-PR,state,,688.4,,,4,America/Puerto_Rico,FALSE,1630126670
Piña,Pina,,18.3663,-66.2246,"Puerto Rico",PR,PRI,"Puerto Rico","Puerto Rico",PR-PR,state,,2521.3,,,4,America/Puerto_Rico,FALSE,1630126671
Piñones,Pinones,,18.4502,-65.9574,"Puerto Rico",PR,PRI,"Puerto Rico","Puerto Rico",PR-PR,state,,82.5,,,4,America/Puerto_Rico,FALSE,1630126673
Pitahaya,Pitahaya,,18.1819,-65.8254,"Puerto Rico",PR,PRI,"Puerto Rico","Puerto Rico",PR-PR,state,,327.4,,,4,America/Puerto_Rico,FALSE,1630126674
Cuba,Cuba,,18.3919,-67.1049,"Puerto Rico",PR,PRI,"Puerto Rico","Puerto Rico",PR-PR,state,,639.0,,,4,America/Puerto_Rico,FALSE,1630126289
Cucharillas,Cucharillas,,18.4355,-66.1538,"Puerto Rico",PR,PRI,"Puerto Rico","Puerto Rico",PR-PR,state,,2425.6,,,4,America/Puerto_Rico,FALSE,1630126290
"Central Los Caños","Central Los Canos",,18.4277,-66.7168,"Puerto Rico",PR,PRI,"Puerto Rico","Puerto Rico",PR-PR,state,,387.8,,,4,America/Puerto_Rico,FALSE,1630126242
Aibonito,Aibonito,,18.1398,-66.2659,"Puerto Rico",PR,PRI,"Puerto Rico","Puerto Rico",PR-PR,state,,2227.0,8596,8596,2,America/Puerto_Rico,FALSE,1630035609
Añasco,Anasco,,18.2861,-67.1409,"Puerto Rico",PR,PRI,"Puerto Rico","Puerto Rico",PR-PR,state,,2166.7,4562,4562,2,America/Puerto_Rico,FALSE,1630023590
"Tomás de Castro","Tomas de Castro",,18.1840,-66.0186,"Puerto Rico",PR,PRI,"Puerto Rico","Puerto Rico",PR-PR,state,,896.0,907,907,3,America/Puerto_Rico,FALSE,1630126854
"La Suiza","La Suiza",,18.1438,-65.8054,"Puerto Rico",PR,PRI,"Puerto Rico","Puerto Rico",PR-PR,state,,1430.5,,,4,America/Puerto_Rico,FALSE,1630126483
"Las Guaras","Las Guaras",,18.0597,-66.9791,"Puerto Rico",PR,PRI,"Puerto Rico","Puerto Rico",PR-PR,state,,529.3,,,4,America/Puerto_Rico,FALSE,1630126506
Mabí,Mabi,,18.3686,-65.7788,"Puerto Rico",PR,PRI,"Puerto Rico","Puerto Rico",PR-PR,state,,626.6,,,4,America/Puerto_Rico,FALSE,1630126554
Macaná,Macana,,18.0558,-66.7735,"Puerto Rico",PR,PRI,"Puerto Rico","Puerto Rico",PR-PR,state,,635.8,,,4,America/Puerto_Rico,FALSE,1630126556
Machuchal,Machuchal,,18.0444,-66.9438,"Puerto Rico",PR,PRI,"Puerto Rico","Puerto Rico",PR-PR,state,,959.3,,,4,America/Puerto_Rico,FALSE,1630126557
"Chún Chín","Chun Chin",,17.9655,-66.1982,"Puerto Rico",PR,PRI,"Puerto Rico","Puerto Rico",PR-PR,state,,190.9,,,4,America/Puerto_Rico,FALSE,1630126932
"Desembarcádero Mosquito","Desembarcadero Mosquito",,18.1325,-65.5115,"Puerto Rico",PR,PRI,"Puerto Rico","Puerto Rico",PR-PR,state,,0.0,,,5,America/Puerto_Rico,FALSE,1630126296
Descalabrado,Descalabrado,,18.0064,-66.4346,"Puerto Rico",PR,PRI,"Puerto Rico","Puerto Rico",PR-PR,state,,41.4,,,4,America/Puerto_Rico,FALSE,1630126295
Delicias,Delicias,,18.1030,-67.1557,"Puerto Rico",PR,PRI,"Puerto Rico","Puerto Rico",PR-PR,state,,350.1,,,4,America/Puerto_Rico,FALSE,1630126294
Dominguito,Dominguito,,18.4211,-66.7480,"Puerto Rico",PR,PRI,"Puerto Rico","Puerto Rico",PR-PR,state,,805.6,,,4,America/Puerto_Rico,FALSE,1630126299
"El Negro","El Negro",,18.0370,-65.8494,"Puerto Rico",PR,PRI,"Puerto Rico","Puerto Rico",PR-PR,state,,1061.0,1262,1262,3,America/Puerto_Rico,FALSE,1630023684
Duque,Duque,,18.2381,-65.7433,"Puerto Rico",PR,PRI,"Puerto Rico","Puerto Rico",PR-PR,state,,966.9,1313,1313,3,America/Puerto_Rico,FALSE,1630023709
Dorado,Dorado,,18.4657,-66.2726,"Puerto Rico",PR,PRI,"Puerto Rico","Puerto Rico",PR-PR,state,,1613.5,13208,13208,3,America/Puerto_Rico,FALSE,1630023736
Espino,Espino,,18.2774,-67.1219,"Puerto Rico",PR,PRI,"Puerto Rico","Puerto Rico",PR-PR,state,,486.2,872,872,3,America/Puerto_Rico,FALSE,1630035667
"El Ojo","El Ojo",,18.0038,-66.3919,"Puerto Rico",PR,PRI,"Puerto Rico","Puerto Rico",PR-PR,state,,926.9,1751,1751,3,America/Puerto_Rico,FALSE,1630035664
Levittown,Levittown,,18.4456,-66.1792,"Puerto Rico",PR,PRI,"Puerto Rico","Puerto Rico",PR-PR,state,,4705.8,,,2,America/Puerto_Rico,FALSE,1630035506
"Luis M. Cintrón","Luis M. Cintron",,18.3008,-65.6371,"Puerto Rico",PR,PRI,"Puerto Rico","Puerto Rico",PR-PR,state,,572.2,1774,1774,3,America/Puerto_Rico,FALSE,1630023718
"Hacienda San José","Hacienda San Jose",,18.2409,-66.0721,"Puerto Rico",PR,PRI,"Puerto Rico","Puerto Rico",PR-PR,state,,2327.4,3384,3384,2,America/Puerto_Rico,FALSE,1630025216
"Candelero Abajo","Candelero Abajo",,18.0942,-65.8165,"Puerto Rico",PR,PRI,"Puerto Rico","Puerto Rico",PR-PR,state,,698.7,482,482,3,America/Puerto_Rico,FALSE,1630025232
"Los Panes","Los Panes",,18.1848,-66.0760,"Puerto Rico",PR,PRI,"Puerto Rico","Puerto Rico",PR-PR,state,,509.8,266,266,3,America/Puerto_Rico,FALSE,1630025218
"La Liga","La Liga",,18.2894,-66.0508,"Puerto Rico",PR,PRI,"Puerto Rico","Puerto Rico",PR-PR,state,,704.8,590,590,3,America/Puerto_Rico,FALSE,1630025217
"La Yuca","La Yuca",,18.0727,-66.6077,"Puerto Rico",PR,PRI,"Puerto Rico","Puerto Rico",PR-PR,state,,1335.9,329,329,3,America/Puerto_Rico,FALSE,1630025227
Buyones,Buyones,,17.9916,-66.5507,"Puerto Rico",PR,PRI,"Puerto Rico","Puerto Rico",PR-PR,state,,110.8,,,4,America/Puerto_Rico,FALSE,1630126196
Tibes,Tibes,,18.0886,-66.6333,"Puerto Rico",PR,PRI,"Puerto Rico","Puerto Rico",PR-PR,state,,69.8,176,176,4,America/Puerto_Rico,FALSE,1630025231
"Escuela La Prieta","Escuela La Prieta",,18.2491,-66.1952,"Puerto Rico",PR,PRI,"Puerto Rico","Puerto Rico",PR-PR,state,,341.0,,,4,America/Puerto_Rico,FALSE,1630126345
"Sagrado Corazón","Sagrado Corazon",,18.3749,-66.0524,"Puerto Rico",PR,PRI,"Puerto Rico","Puerto Rico",PR-PR,state,,2569.7,,,4,America/Puerto_Rico,FALSE,1630126765
"Pueblo Seco","Pueblo Seco",,18.3683,-66.0249,"Puerto Rico",PR,PRI,"Puerto Rico","Puerto Rico",PR-PR,state,,4554.7,,,4,America/Puerto_Rico,FALSE,1630126701
"Boca Chica","Boca Chica",,17.9844,-66.5285,"Puerto Rico",PR,PRI,"Puerto Rico","Puerto Rico",PR-PR,state,,0.8,,,5,America/Puerto_Rico,FALSE,1630126919
Jobos,Jobos,,17.9608,-66.1655,"Puerto Rico",PR,PRI,"Puerto Rico","Puerto Rico",PR-PR,state,,1140.8,1632,1632,3,America/Puerto_Rico,FALSE,1630035690
"Juana Díaz","Juana Diaz",,18.0532,-66.5044,"Puerto Rico",PR,PRI,"Puerto Rico","Puerto Rico",PR-PR,state,,2090.8,66208,8147,2,America/Puerto_Rico,FALSE,1630023583
Juncal,Juncal,,18.3125,-66.9219,"Puerto Rico",PR,PRI,"Puerto Rico","Puerto Rico",PR-PR,state,,1035.3,1181,1181,3,America/Puerto_Rico,FALSE,1630035692
Juncos,Juncos,,18.2256,-65.9161,"Puerto Rico",PR,PRI,"Puerto Rico","Puerto Rico",PR-PR,state,,2299.1,8938,8938,2,America/Puerto_Rico,FALSE,1630023721
Isabela,Isabela,,18.4991,-67.0220,"Puerto Rico",PR,PRI,"Puerto Rico","Puerto Rico",PR-PR,state,,1490.9,10110,10110,3,America/Puerto_Rico,FALSE,1630023674
Jagual,Jagual,,18.1610,-65.9993,"Puerto Rico",PR,PRI,"Puerto Rico","Puerto Rico",PR-PR,state,,1177.0,1163,1163,3,America/Puerto_Rico,FALSE,1630023577
Jauca,Jauca,,17.9638,-66.3673,"Puerto Rico",PR,PRI,"Puerto Rico","Puerto Rico",PR-PR,state,,548.0,1822,1822,3,America/Puerto_Rico,FALSE,1630023547
Jayuya,Jayuya,,18.2199,-66.5984,"Puerto Rico",PR,PRI,"Puerto Rico","Puerto Rico",PR-PR,state,,2299.0,2879,2879,2,America/Puerto_Rico,FALSE,1630023586
"La Alianza","La Alianza",,18.3950,-66.5975,"Puerto Rico",PR,PRI,"Puerto Rico","Puerto Rico",PR-PR,state,,588.4,1732,1732,3,America/Puerto_Rico,FALSE,1630035694
"La Dolores","La Dolores",,18.3725,-65.8546,"Puerto Rico",PR,PRI,"Puerto Rico","Puerto Rico",PR-PR,state,,1674.8,2861,2861,3,America/Puerto_Rico,FALSE,1630035695
"Playa de Naguabo","Playa de Naguabo",,18.1902,-65.7166,"Puerto Rico",PR,PRI,"Puerto Rico","Puerto Rico",PR-PR,state,,1402.6,,,4,America/Puerto_Rico,FALSE,1630126683
"La Esperanza","La Esperanza",,18.3655,-66.1113,"Puerto Rico",PR,PRI,"Puerto Rico","Puerto Rico",PR-PR,state,,2336.2,,,4,America/Puerto_Rico,FALSE,1630126449
"Santa Rosa Tres","Santa Rosa Tres",,18.3677,-66.1335,"Puerto Rico",PR,PRI,"Puerto Rico","Puerto Rico",PR-PR,state,,1304.2,,,4,America/Puerto_Rico,FALSE,1630126820
"Santa Rita","Santa Rita",,18.4024,-66.0563,"Puerto Rico",PR,PRI,"Puerto Rico","Puerto Rico",PR-PR,state,,6228.4,,,4,America/Puerto_Rico,FALSE,1630126816
"El Mangó","El Mango",,18.2345,-65.8751,"Puerto Rico",PR,PRI,"Puerto Rico","Puerto Rico",PR-PR,state,,1264.4,1648,1648,3,America/Puerto_Rico,FALSE,1630035662
Vegas,Vegas,,18.1286,-66.1096,"Puerto Rico",PR,PRI,"Puerto Rico","Puerto Rico",PR-PR,state,,1130.3,,,4,America/Puerto_Rico,FALSE,1630126874
Ventura,Ventura,,18.0147,-66.5432,"Puerto Rico",PR,PRI,"Puerto Rico","Puerto Rico",PR-PR,state,,1.9,,,5,America/Puerto_Rico,FALSE,1630126876
Velázquez,Velazquez,,17.9733,-66.4168,"Puerto Rico",PR,PRI,"Puerto Rico","Puerto Rico",PR-PR,state,,178.2,,,4,America/Puerto_Rico,FALSE,1630126875
Esperanza,Esperanza,,18.1021,-65.4798,"Puerto Rico",PR,PRI,"Puerto Rico","Puerto Rico",PR-PR,state,,279.4,920,920,3,America/Puerto_Rico,FALSE,1630023731
"Magas Abajo","Magas Abajo",,18.0202,-66.7832,"Puerto Rico",PR,PRI,"Puerto Rico","Puerto Rico",PR-PR,state,,615.3,,,4,America/Puerto_Rico,FALSE,1630126559
Aguacate,Aguacate,,18.5022,-67.1057,"Puerto Rico",PR,PRI,"Puerto Rico","Puerto Rico",PR-PR,state,,422.0,,,4,America/Puerto_Rico,FALSE,1630126131
Acevedo,Acevedo,,18.2619,-66.9835,"Puerto Rico",PR,PRI,"Puerto Rico","Puerto Rico",PR-PR,state,,160.3,,,4,America/Puerto_Rico,FALSE,1630126130
Sabanetas,Sabanetas,,18.0125,-66.5846,"Puerto Rico",PR,PRI,"Puerto Rico","Puerto Rico",PR-PR,state,,3364.0,,,4,America/Puerto_Rico,FALSE,1630126764
"Sabana Llana Arriba","Sabana Llana Arriba",,18.0314,-66.5130,"Puerto Rico",PR,PRI,"Puerto Rico","Puerto Rico",PR-PR,state,,249.2,,,4,America/Puerto_Rico,FALSE,1630126762
"Sabana Llana Abajo","Sabana Llana Abajo",,18.0194,-66.5279,"Puerto Rico",PR,PRI,"Puerto Rico","Puerto Rico",PR-PR,state,,1868.9,,,4,America/Puerto_Rico,FALSE,1630126761
Saldaña,Saldana,,18.2911,-65.7049,"Puerto Rico",PR,PRI,"Puerto Rico","Puerto Rico",PR-PR,state,,573.6,,,4,America/Puerto_Rico,FALSE,1630126768
"Saint Just","Saint Just",,18.3680,-66.0118,"Puerto Rico",PR,PRI,"Puerto Rico","Puerto Rico",PR-PR,state,,2231.7,,,4,America/Puerto_Rico,FALSE,1630126766
"Playa de Humacao","Playa de Humacao",,18.1672,-65.7432,"Puerto Rico",PR,PRI,"Puerto Rico","Puerto Rico",PR-PR,state,,592.7,,,4,America/Puerto_Rico,FALSE,1630126682
"Playa de Guayanilla","Playa de Guayanilla",,18.0061,-66.7718,"Puerto Rico",PR,PRI,"Puerto Rico","Puerto Rico",PR-PR,state,,2422.0,,,4,America/Puerto_Rico,FALSE,1630126681
"Playa de Guayanés","Playa de Guayanes",,18.0616,-65.8218,"Puerto Rico",PR,PRI,"Puerto Rico","Puerto Rico",PR-PR,state,,976.4,,,4,America/Puerto_Rico,FALSE,1630126680
"Playa de Guánica","Playa de Guanica",,17.9650,-66.9082,"Puerto Rico",PR,PRI,"Puerto Rico","Puerto Rico",PR-PR,state,,487.4,,,4,America/Puerto_Rico,FALSE,1630126679
"Playa de Salinas","Playa de Salinas",,17.9625,-66.3004,"Puerto Rico",PR,PRI,"Puerto Rico","Puerto Rico",PR-PR,state,,1967.8,,,4,America/Puerto_Rico,FALSE,1630126685
"Playa de Ponce","Playa de Ponce",,17.9819,-66.6207,"Puerto Rico",PR,PRI,"Puerto Rico","Puerto Rico",PR-PR,state,,1713.2,,,4,America/Puerto_Rico,FALSE,1630126684
"Tras Talleres","Tras Talleres",,18.4458,-66.0793,"Puerto Rico",PR,PRI,"Puerto Rico","Puerto Rico",PR-PR,state,,4657.3,,,4,America/Puerto_Rico,FALSE,1630126859
Toita,Toita,,18.1305,-66.1899,"Puerto Rico",PR,PRI,"Puerto Rico","Puerto Rico",PR-PR,state,,240.0,,,4,America/Puerto_Rico,FALSE,1630126852
"Toma de Agua","Toma de Agua",,18.3530,-65.9004,"Puerto Rico",PR,PRI,"Puerto Rico","Puerto Rico",PR-PR,state,,165.5,,,4,America/Puerto_Rico,FALSE,1630126853
Torrecillas,Torrecillas,,18.3388,-66.4346,"Puerto Rico",PR,PRI,"Puerto Rico","Puerto Rico",PR-PR,state,,47.4,,,4,America/Puerto_Rico,FALSE,1630126855
Torres,Torres,,18.1444,-66.2757,"Puerto Rico",PR,PRI,"Puerto Rico","Puerto Rico",PR-PR,state,,1503.6,,,4,America/Puerto_Rico,FALSE,1630126856
Torrimar,Torrimar,,18.3877,-66.1174,"Puerto Rico",PR,PRI,"Puerto Rico","Puerto Rico",PR-PR,state,,3513.2,,,4,America/Puerto_Rico,FALSE,1630126857
Tosquero,Tosquero,,18.3880,-67.2035,"Puerto Rico",PR,PRI,"Puerto Rico","Puerto Rico",PR-PR,state,,470.5,,,4,America/Puerto_Rico,FALSE,1630126858
"La Changa","La Changa",,18.2977,-66.0618,"Puerto Rico",PR,PRI,"Puerto Rico","Puerto Rico",PR-PR,state,,573.5,,,4,America/Puerto_Rico,FALSE,1630126446
"La Cuesta","La Cuesta",,18.4186,-66.8163,"Puerto Rico",PR,PRI,"Puerto Rico","Puerto Rico",PR-PR,state,,440.6,,,4,America/Puerto_Rico,FALSE,1630126447
"La Cumbre","La Cumbre",,18.3599,-66.0757,"Puerto Rico",PR,PRI,"Puerto Rico","Puerto Rico",PR-PR,state,,2848.5,,,4,America/Puerto_Rico,FALSE,1630126448
"Santa María","Santa Maria",,18.2710,-65.6623,"Puerto Rico",PR,PRI,"Puerto Rico","Puerto Rico",PR-PR,state,,717.2,831,831,3,America/Puerto_Rico,FALSE,1630146341
Santiago,Santiago,,18.4908,-67.0663,"Puerto Rico",PR,PRI,"Puerto Rico","Puerto Rico",PR-PR,state,,250.2,,,4,America/Puerto_Rico,FALSE,1630146342
"Santa Rosa","Santa Rosa",,18.4202,-66.2741,"Puerto Rico",PR,PRI,"Puerto Rico","Puerto Rico",PR-PR,state,,159.2,,,4,America/Puerto_Rico,FALSE,1630146343
"Cuesta de las Piedras","Cuesta de las Piedras",,18.1830,-67.1430,"Puerto Rico",PR,PRI,"Puerto Rico","Puerto Rico",PR-PR,state,,2737.1,,,4,America/Puerto_Rico,FALSE,1630126292
Cuebas,Cuebas,,18.0458,-66.7107,"Puerto Rico",PR,PRI,"Puerto Rico","Puerto Rico",PR-PR,state,,248.0,,,4,America/Puerto_Rico,FALSE,1630126291
Cantagallo,Cantagallo,,18.2425,-65.9349,"Puerto Rico",PR,PRI,"Puerto Rico","Puerto Rico",PR-PR,state,,687.5,,,4,America/Puerto_Rico,FALSE,1630126226
"Lomas Verdes Comunidad","Lomas Verdes Comunidad",,18.3823,-67.1201,"Puerto Rico",PR,PRI,"Puerto Rico","Puerto Rico",PR-PR,state,,1035.8,1535,1535,3,America/Puerto_Rico,FALSE,1630146412
Arús,Arus,,18.0002,-66.5282,"Puerto Rico",PR,PRI,"Puerto Rico","Puerto Rico",PR-PR,state,,185.6,,,4,America/Puerto_Rico,FALSE,1630126151
Río,Rio,,18.2280,-65.8588,"Puerto Rico",PR,PRI,"Puerto Rico","Puerto Rico",PR-PR,state,,1758.2,,,4,America/Puerto_Rico,FALSE,1630126735
Reunión,Reunion,,17.9555,-66.1427,"Puerto Rico",PR,PRI,"Puerto Rico","Puerto Rico",PR-PR,state,,22.2,,,4,America/Puerto_Rico,FALSE,1630126732
Rexmanor,Rexmanor,,17.9833,-66.1035,"Puerto Rico",PR,PRI,"Puerto Rico","Puerto Rico",PR-PR,state,,2285.1,,,4,America/Puerto_Rico,FALSE,1630126733
"Caparra Terrace","Caparra Terrace",,18.3994,-66.0882,"Puerto Rico",PR,PRI,"Puerto Rico","Puerto Rico",PR-PR,state,,5474.7,,,4,America/Puerto_Rico,FALSE,1630126929
Gurabo,Gurabo,,18.2528,-65.9785,"Puerto Rico",PR,PRI,"Puerto Rico","Puerto Rico",PR-PR,state,,2235.5,6966,6966,2,America/Puerto_Rico,FALSE,1630035678
"San Antonio","San Antonio",,18.4391,-66.9321,"Puerto Rico",PR,PRI,"Puerto Rico","Puerto Rico",PR-PR,state,,564.1,1981,1981,3,America/Puerto_Rico,FALSE,1630146624
Guaydía,Guaydia,,18.0239,-66.7891,"Puerto Rico",PR,PRI,"Puerto Rico","Puerto Rico",PR-PR,state,,1513.1,,,4,America/Puerto_Rico,FALSE,1630126389
Elizabeth,Elizabeth,,18.0788,-67.1835,"Puerto Rico",PR,PRI,"Puerto Rico","Puerto Rico",PR-PR,state,,3152.3,,,4,America/Puerto_Rico,FALSE,1630126343
Ensenada,Ensenada,,17.9689,-66.9335,"Puerto Rico",PR,PRI,"Puerto Rico","Puerto Rico",PR-PR,state,,829.1,,,4,America/Puerto_Rico,FALSE,1630126344
"Eleanor Roosevelt","Eleanor Roosevelt",,18.4163,-66.0641,"Puerto Rico",PR,PRI,"Puerto Rico","Puerto Rico",PR-PR,state,,3586.6,,,4,America/Puerto_Rico,FALSE,1630126341
Electra,Electra,,18.1427,-65.8418,"Puerto Rico",PR,PRI,"Puerto Rico","Puerto Rico",PR-PR,state,,439.7,,,4,America/Puerto_Rico,FALSE,1630126342
"El Vigía","El Vigia",,18.0202,-66.6207,"Puerto Rico",PR,PRI,"Puerto Rico","Puerto Rico",PR-PR,state,,1003.2,,,4,America/Puerto_Rico,FALSE,1630126340
"El Verde","El Verde",,18.2247,-66.0527,"Puerto Rico",PR,PRI,"Puerto Rico","Puerto Rico",PR-PR,state,,4641.6,,,4,America/Puerto_Rico,FALSE,1630126338
Carolina,Carolina,,18.4054,-65.9792,"Puerto Rico",PR,PRI,"Puerto Rico","Puerto Rico",PR-PR,state,,2594.9,139201,139201,2,America/Puerto_Rico,FALSE,1630035637
Canóvanas,Canovanas,,18.3693,-65.9009,"Puerto Rico",PR,PRI,"Puerto Rico","Puerto Rico",PR-PR,state,,1708.0,12468,12468,3,America/Puerto_Rico,FALSE,1630023717
"Candelaria Arenas","Candelaria Arenas",,18.4175,-66.2203,"Puerto Rico",PR,PRI,"Puerto Rico","Puerto Rico",PR-PR,state,,1624.2,4199,4199,3,America/Puerto_Rico,FALSE,1630035633
Candelaria,Candelaria,,18.4042,-66.2175,"Puerto Rico",PR,PRI,"Puerto Rico","Puerto Rico",PR-PR,state,,1814.9,14114,14114,3,America/Puerto_Rico,FALSE,1630023689
"Campo Rico","Campo Rico",,18.3391,-65.8943,"Puerto Rico",PR,PRI,"Puerto Rico","Puerto Rico",PR-PR,state,,2120.9,2291,2291,2,America/Puerto_Rico,FALSE,1630035631
Camuy,Camuy,,18.4825,-66.8501,"Puerto Rico",PR,PRI,"Puerto Rico","Puerto Rico",PR-PR,state,,1425.4,3677,3677,3,America/Puerto_Rico,FALSE,1630035632
Carrizales,Carrizales,,18.4811,-66.7879,"Puerto Rico",PR,PRI,"Puerto Rico","Puerto Rico",PR-PR,state,,1972.5,2889,2889,3,America/Puerto_Rico,FALSE,1630023532
Asomante,Asomante,,18.3794,-66.5963,"Puerto Rico",PR,PRI,"Puerto Rico","Puerto Rico",PR-PR,state,,96.9,,,4,America/Puerto_Rico,FALSE,1630146727
"Arturo Lluberas","Arturo Lluberas",,18.0461,-66.8632,"Puerto Rico",PR,PRI,"Puerto Rico","Puerto Rico",PR-PR,state,,1310.3,,,4,America/Puerto_Rico,FALSE,1630126150
Calzada,Calzada,,18.0054,-66.5640,"Puerto Rico",PR,PRI,"Puerto Rico","Puerto Rico",PR-PR,state,,68.3,66,66,3,America/Puerto_Rico,FALSE,1630035697
"Campamento Punta Lima","Campamento Punta Lima",,18.1819,-65.6932,"Puerto Rico",PR,PRI,"Puerto Rico","Puerto Rico",PR-PR,state,,0.1,,,5,America/Puerto_Rico,FALSE,1630126212
"Campamento Guajataca","Campamento Guajataca",,18.3702,-66.9180,"Puerto Rico",PR,PRI,"Puerto Rico","Puerto Rico",PR-PR,state,,30.8,,,4,America/Puerto_Rico,FALSE,1630126209
"Campamento Santana","Campamento Santana",,18.1388,-66.9682,"Puerto Rico",PR,PRI,"Puerto Rico","Puerto Rico",PR-PR,state,,10.8,,,4,America/Puerto_Rico,FALSE,1630126215
"Campamento Susúa","Campamento Susua",,18.0702,-66.9068,"Puerto Rico",PR,PRI,"Puerto Rico","Puerto Rico",PR-PR,state,,1.7,,,5,America/Puerto_Rico,FALSE,1630126216
"Campamento Radley","Campamento Radley",,18.3336,-66.7171,"Puerto Rico",PR,PRI,"Puerto Rico","Puerto Rico",PR-PR,state,,0.0,,,5,America/Puerto_Rico,FALSE,1630126213
"Campamento Real","Campamento Real",,18.0750,-66.0552,"Puerto Rico",PR,PRI,"Puerto Rico","Puerto Rico",PR-PR,state,,29.7,,,4,America/Puerto_Rico,FALSE,1630126214
"Campamento Zarzal","Campamento Zarzal",,18.3461,-65.7860,"Puerto Rico",PR,PRI,"Puerto Rico","Puerto Rico",PR-PR,state,,1077.5,,,4,America/Puerto_Rico,FALSE,1630126217
Margarita,Margarita,,18.1147,-66.5388,"Puerto Rico",PR,PRI,"Puerto Rico","Puerto Rico",PR-PR,state,,143.5,,,4,America/Puerto_Rico,FALSE,1630146782
Maracayo,Maracayo,,18.4827,-66.8524,"Puerto Rico",PR,PRI,"Puerto Rico","Puerto Rico",PR-PR,state,,1468.8,,,4,America/Puerto_Rico,FALSE,1630126573
Guanábana,Guanabana,,18.0111,-67.1171,"Puerto Rico",PR,PRI,"Puerto Rico","Puerto Rico",PR-PR,state,,15.4,,,4,America/Puerto_Rico,FALSE,1630126384
Guaniquilla,Guaniquilla,,18.0641,-67.1796,"Puerto Rico",PR,PRI,"Puerto Rico","Puerto Rico",PR-PR,state,,333.6,,,4,America/Puerto_Rico,FALSE,1630126386
Guaraguao,Guaraguao,,18.1252,-66.6702,"Puerto Rico",PR,PRI,"Puerto Rico","Puerto Rico",PR-PR,state,,131.6,,,4,America/Puerto_Rico,FALSE,1630126387
"Guanajibo Castillo","Guanajibo Castillo",,18.1647,-67.1549,"Puerto Rico",PR,PRI,"Puerto Rico","Puerto Rico",PR-PR,state,,742.1,,,4,America/Puerto_Rico,FALSE,1630126385
"Guayabo Dulce","Guayabo Dulce",,18.1894,-66.8116,"Puerto Rico",PR,PRI,"Puerto Rico","Puerto Rico",PR-PR,state,,96.2,,,4,America/Puerto_Rico,FALSE,1630126388
Galateo,Galateo,,18.3640,-66.2590,"Puerto Rico",PR,PRI,"Puerto Rico","Puerto Rico",PR-PR,state,,1228.9,2046,2046,3,America/Puerto_Rico,FALSE,1630035671
Fuig,Fuig,,17.9857,-66.9170,"Puerto Rico",PR,PRI,"Puerto Rico","Puerto Rico",PR-PR,state,,654.2,1010,1010,3,America/Puerto_Rico,FALSE,1630035670
Guayabal,Guayabal,,18.0760,-66.5016,"Puerto Rico",PR,PRI,"Puerto Rico","Puerto Rico",PR-PR,state,,1186.8,1492,1492,3,America/Puerto_Rico,FALSE,1630035674
Garrochales,Garrochales,,18.4572,-66.5675,"Puerto Rico",PR,PRI,"Puerto Rico","Puerto Rico",PR-PR,state,,513.0,876,876,3,America/Puerto_Rico,FALSE,1630035672
Guánica,Guanica,,17.9698,-66.9309,"Puerto Rico",PR,PRI,"Puerto Rico","Puerto Rico",PR-PR,state,,845.0,5516,5516,3,America/Puerto_Rico,FALSE,1630023537
"Las Guásimas","Las Guasimas",,17.9786,-66.0721,"Puerto Rico",PR,PRI,"Puerto Rico","Puerto Rico",PR-PR,state,,593.5,,,4,America/Puerto_Rico,FALSE,1630126921
Parguera,Parguera,,17.9747,-67.0482,"Puerto Rico",PR,PRI,"Puerto Rico","Puerto Rico",PR-PR,state,,1198.6,,,4,America/Puerto_Rico,FALSE,1630126924
Bairoa,Bairoa,,18.2591,-66.0404,"Puerto Rico",PR,PRI,"Puerto Rico","Puerto Rico",PR-PR,state,,825.6,,,4,America/Puerto_Rico,FALSE,1630035460
"Santa Cruz","Santa Cruz",,17.9816,-66.5955,"Puerto Rico",PR,PRI,"Puerto Rico","Puerto Rico",PR-PR,state,,330.6,,,4,America/Puerto_Rico,FALSE,1630126807
"Santa Juanita","Santa Juanita",,18.3627,-66.1613,"Puerto Rico",PR,PRI,"Puerto Rico","Puerto Rico",PR-PR,state,,3725.7,,,4,America/Puerto_Rico,FALSE,1630126810
"Santa Elena","Santa Elena",,18.0264,-66.7910,"Puerto Rico",PR,PRI,"Puerto Rico","Puerto Rico",PR-PR,state,,1493.4,,,4,America/Puerto_Rico,FALSE,1630147004
Macún,Macun,,18.4044,-66.2143,"Puerto Rico",PR,PRI,"Puerto Rico","Puerto Rico",PR-PR,state,,1882.3,,,4,America/Puerto_Rico,FALSE,1630126558
"Valle Arriba Heights","Valle Arriba Heights",,18.4091,-65.9738,"Puerto Rico",PR,PRI,"Puerto Rico","Puerto Rico",PR-PR,state,,4007.1,,,4,America/Puerto_Rico,FALSE,1630126870
"Van Scoy","Van Scoy",,18.3488,-66.1960,"Puerto Rico",PR,PRI,"Puerto Rico","Puerto Rico",PR-PR,state,,3256.6,,,4,America/Puerto_Rico,FALSE,1630126871
Vapor,Vapor,,18.3038,-65.6724,"Puerto Rico",PR,PRI,"Puerto Rico","Puerto Rico",PR-PR,state,,295.4,,,4,America/Puerto_Rico,FALSE,1630126872
Varela,Varela,,18.3761,-66.6307,"Puerto Rico",PR,PRI,"Puerto Rico","Puerto Rico",PR-PR,state,,35.2,,,4,America/Puerto_Rico,FALSE,1630126873
Valencia,Valencia,,18.2261,-65.9185,"Puerto Rico",PR,PRI,"Puerto Rico","Puerto Rico",PR-PR,state,,2983.8,,,4,America/Puerto_Rico,FALSE,1630126867
"Charco Hondo","Charco Hondo",,18.4141,-66.7118,"Puerto Rico",PR,PRI,"Puerto Rico","Puerto Rico",PR-PR,state,,472.7,,,4,America/Puerto_Rico,FALSE,1630126251
Columbia,Columbia,,18.0044,-65.9066,"Puerto Rico",PR,PRI,"Puerto Rico","Puerto Rico",PR-PR,state,,290.8,,,4,America/Puerto_Rico,FALSE,1630126262
Coloso,Coloso,,18.3819,-67.1602,"Puerto Rico",PR,PRI,"Puerto Rico","Puerto Rico",PR-PR,state,,107.1,,,4,America/Puerto_Rico,FALSE,1630126261
"College Park","College Park",,18.3833,-66.0879,"Puerto Rico",PR,PRI,"Puerto Rico","Puerto Rico",PR-PR,state,,1888.8,,,4,America/Puerto_Rico,FALSE,1630126258
"Colinas de la Parguera","Colinas de la Parguera",,17.9772,-67.0582,"Puerto Rico",PR,PRI,"Puerto Rico","Puerto Rico",PR-PR,state,,259.7,,,4,America/Puerto_Rico,FALSE,1630126257
Collores,Collores,,18.1983,-66.6221,"Puerto Rico",PR,PRI,"Puerto Rico","Puerto Rico",PR-PR,state,,325.3,,,4,America/Puerto_Rico,FALSE,1630147237
Unión,Union,,17.9930,-66.5454,"Puerto Rico",PR,PRI,"Puerto Rico","Puerto Rico",PR-PR,state,,12.0,,,4,America/Puerto_Rico,FALSE,1630126865
"Tres Hermanos","Tres Hermanos",,18.2844,-67.1899,"Puerto Rico",PR,PRI,"Puerto Rico","Puerto Rico",PR-PR,state,,1720.3,,,4,America/Puerto_Rico,FALSE,1630126860
Turabo,Turabo,,18.2172,-66.0627,"Puerto Rico",PR,PRI,"Puerto Rico","Puerto Rico",PR-PR,state,,3803.4,,,4,America/Puerto_Rico,FALSE,1630126864
Tuque,Tuque,,17.9869,-66.6568,"Puerto Rico",PR,PRI,"Puerto Rico","Puerto Rico",PR-PR,state,,882.4,,,4,America/Puerto_Rico,FALSE,1630126863
Truman,Truman,,18.4174,-66.0396,"Puerto Rico",PR,PRI,"Puerto Rico","Puerto Rico",PR-PR,state,,6401.0,,,4,America/Puerto_Rico,FALSE,1630126862
"Trujillo Bajo","Trujillo Bajo",,18.3680,-65.9554,"Puerto Rico",PR,PRI,"Puerto Rico","Puerto Rico",PR-PR,state,,943.3,,,4,America/Puerto_Rico,FALSE,1630126861
"La Glorieta","La Glorieta",,18.4572,-66.4827,"Puerto Rico",PR,PRI,"Puerto Rico","Puerto Rico",PR-PR,state,,252.0,,,4,America/Puerto_Rico,FALSE,1630126453
"La Fe","La Fe",,18.2119,-65.7618,"Puerto Rico",PR,PRI,"Puerto Rico","Puerto Rico",PR-PR,state,,65.3,,,4,America/Puerto_Rico,FALSE,1630126452
"La Estancita","La Estancita",,18.2516,-66.7621,"Puerto Rico",PR,PRI,"Puerto Rico","Puerto Rico",PR-PR,state,,45.7,,,4,America/Puerto_Rico,FALSE,1630126451
"La Guinea","La Guinea",,18.4216,-66.7249,"Puerto Rico",PR,PRI,"Puerto Rico","Puerto Rico",PR-PR,state,,413.7,,,4,America/Puerto_Rico,FALSE,1630126457
"La Guaba","La Guaba",,18.0875,-66.2707,"Puerto Rico",PR,PRI,"Puerto Rico","Puerto Rico",PR-PR,state,,48.3,,,4,America/Puerto_Rico,FALSE,1630126456
"La Granja","La Granja",,18.4230,-66.4043,"Puerto Rico",PR,PRI,"Puerto Rico","Puerto Rico",PR-PR,state,,882.2,,,4,America/Puerto_Rico,FALSE,1630126455
"La González","La Gonzalez",,18.3316,-66.9974,"Puerto Rico",PR,PRI,"Puerto Rico","Puerto Rico",PR-PR,state,,1356.8,,,4,America/Puerto_Rico,FALSE,1630126454
"La Guitarra","La Guitarra",,18.2033,-66.2552,"Puerto Rico",PR,PRI,"Puerto Rico","Puerto Rico",PR-PR,state,,108.2,,,4,America/Puerto_Rico,FALSE,1630126458
"Peña Cortada","Pena Cortada",,18.2222,-67.1593,"Puerto Rico",PR,PRI,"Puerto Rico","Puerto Rico",PR-PR,state,,445.3,,,4,America/Puerto_Rico,FALSE,1630126664
"Cintrona Segunda","Cintrona Segunda",,17.9964,-66.5574,"Puerto Rico",PR,PRI,"Puerto Rico","Puerto Rico",PR-PR,state,,155.9,,,4,America/Puerto_Rico,FALSE,1630126254
Clausells,Clausells,,18.0108,-66.6330,"Puerto Rico",PR,PRI,"Puerto Rico","Puerto Rico",PR-PR,state,,5569.9,,,4,America/Puerto_Rico,FALSE,1630126255
Coabey,Coabey,,18.2075,-66.5607,"Puerto Rico",PR,PRI,"Puerto Rico","Puerto Rico",PR-PR,state,,280.4,,,4,America/Puerto_Rico,FALSE,1630126256
Palomar,Palomar,,18.4524,-66.8749,"Puerto Rico",PR,PRI,"Puerto Rico","Puerto Rico",PR-PR,state,,191.4,,,4,America/Puerto_Rico,FALSE,1630126644
"Palo Alto","Palo Alto",,18.4216,-66.4479,"Puerto Rico",PR,PRI,"Puerto Rico","Puerto Rico",PR-PR,state,,108.1,,,4,America/Puerto_Rico,FALSE,1630126640
"Palo Blanco","Palo Blanco",,18.4272,-66.6488,"Puerto Rico",PR,PRI,"Puerto Rico","Puerto Rico",PR-PR,state,,531.4,,,4,America/Puerto_Rico,FALSE,1630126641
Paloma,Paloma,,18.4366,-66.8046,"Puerto Rico",PR,PRI,"Puerto Rico","Puerto Rico",PR-PR,state,,347.8,,,4,America/Puerto_Rico,FALSE,1630126643
"Rodríguez Hevia","Rodriguez Hevia",,18.2020,-66.1824,"Puerto Rico",PR,PRI,"Puerto Rico","Puerto Rico",PR-PR,state,,373.1,591,591,3,America/Puerto_Rico,FALSE,1630035700
"De Diego","De Diego",,18.3774,-66.0699,"Puerto Rico",PR,PRI,"Puerto Rico","Puerto Rico",PR-PR,state,,3304.8,,,4,America/Puerto_Rico,FALSE,1630126293
Lajas,Lajas,,18.0431,-67.0574,"Puerto Rico",PR,PRI,"Puerto Rico","Puerto Rico",PR-PR,state,,1167.5,4518,4518,3,America/Puerto_Rico,FALSE,1630023598
"La Plena","La Plena",,18.0411,-66.2064,"Puerto Rico",PR,PRI,"Puerto Rico","Puerto Rico",PR-PR,state,,92.0,465,465,3,America/Puerto_Rico,FALSE,1630035497
"La Playa","La Playa",,18.2865,-67.1868,"Puerto Rico",PR,PRI,"Puerto Rico","Puerto Rico",PR-PR,state,,592.4,1632,1632,3,America/Puerto_Rico,FALSE,1630035496
"La Parguera","La Parguera",,17.9748,-67.0458,"Puerto Rico",PR,PRI,"Puerto Rico","Puerto Rico",PR-PR,state,,1198.6,1577,1577,3,America/Puerto_Rico,FALSE,1630035495
"Las Marías","Las Marias",,18.2928,-67.1450,"Puerto Rico",PR,PRI,"Puerto Rico","Puerto Rico",PR-PR,state,,1964.0,2190,2190,3,America/Puerto_Rico,FALSE,1630035501
Lares,Lares,,18.2964,-66.8836,"Puerto Rico",PR,PRI,"Puerto Rico","Puerto Rico",PR-PR,state,,928.8,4871,4871,3,America/Puerto_Rico,FALSE,1630035500
"Quebrada Grande","Quebrada Grande",,18.1847,-66.2763,"Puerto Rico",PR,PRI,"Puerto Rico","Puerto Rico",PR-PR,state,,928.6,,,4,America/Puerto_Rico,FALSE,1630126715
Quebrada,Quebrada,,18.3602,-66.8353,"Puerto Rico",PR,PRI,"Puerto Rico","Puerto Rico",PR-PR,state,,998.1,666,666,3,America/Puerto_Rico,FALSE,1630023552
Quebradillas,Quebradillas,,18.4724,-66.9350,"Puerto Rico",PR,PRI,"Puerto Rico","Puerto Rico",PR-PR,state,,1249.2,6165,6165,3,America/Puerto_Rico,FALSE,1630035558
"Pole Ojea","Pole Ojea",,17.9743,-67.1832,"Puerto Rico",PR,PRI,"Puerto Rico","Puerto Rico",PR-PR,state,,1152.1,1658,1658,3,America/Puerto_Rico,FALSE,1630023604
Ponce,Ponce,,18.0127,-66.6212,"Puerto Rico",PR,PRI,"Puerto Rico","Puerto Rico",PR-PR,state,,1509.8,114901,110867,2,America/Puerto_Rico,FALSE,1630023669
Playita,Playita,,18.0404,-65.9071,"Puerto Rico",PR,PRI,"Puerto Rico","Puerto Rico",PR-PR,state,,831.3,1493,1493,3,America/Puerto_Rico,FALSE,1630023680
"Playita Cortada","Playita Cortada",,17.9820,-66.4402,"Puerto Rico",PR,PRI,"Puerto Rico","Puerto Rico",PR-PR,state,,602.0,1395,1395,3,America/Puerto_Rico,FALSE,1630023544
"Punta Santiago","Punta Santiago",,18.1619,-65.7584,"Puerto Rico",PR,PRI,"Puerto Rico","Puerto Rico",PR-PR,state,,901.2,3627,3627,3,America/Puerto_Rico,FALSE,1630035556
"Potala Pastillo","Potala Pastillo",,17.9921,-66.4966,"Puerto Rico",PR,PRI,"Puerto Rico","Puerto Rico",PR-PR,state,,2032.3,2679,2679,2,America/Puerto_Rico,FALSE,1630023579
Pico,Pico,,18.1288,-67.0438,"Puerto Rico",PR,PRI,"Puerto Rico","Puerto Rico",PR-PR,state,,333.7,,,4,America/Puerto_Rico,FALSE,1630126669
Pica,Pica,,17.9630,-66.1238,"Puerto Rico",PR,PRI,"Puerto Rico","Puerto Rico",PR-PR,state,,357.0,,,4,America/Puerto_Rico,FALSE,1630126668
"Pérez Morris","Perez Morris",,18.4152,-66.0535,"Puerto Rico",PR,PRI,"Puerto Rico","Puerto Rico",PR-PR,state,,2729.0,,,4,America/Puerto_Rico,FALSE,1630126667
Perchas,Perchas,,18.3086,-66.9807,"Puerto Rico",PR,PRI,"Puerto Rico","Puerto Rico",PR-PR,state,,339.6,,,4,America/Puerto_Rico,FALSE,1630126666
"Punta Las Marías","Punta Las Marias",,18.4516,-66.0399,"Puerto Rico",PR,PRI,"Puerto Rico","Puerto Rico",PR-PR,state,,3480.6,,,4,America/Puerto_Rico,FALSE,1630126938
"La Quinta","La Quinta",,18.0264,-66.8624,"Puerto Rico",PR,PRI,"Puerto Rico","Puerto Rico",PR-PR,state,,2778.9,,,4,America/Puerto_Rico,FALSE,1630126479
"La Rambla","La Rambla",,18.0266,-66.6002,"Puerto Rico",PR,PRI,"Puerto Rico","Puerto Rico",PR-PR,state,,4470.0,,,4,America/Puerto_Rico,FALSE,1630126480
"La Romana","La Romana",,18.4041,-66.5999,"Puerto Rico",PR,PRI,"Puerto Rico","Puerto Rico",PR-PR,state,,666.0,,,4,America/Puerto_Rico,FALSE,1630126481
"La Pradera","La Pradera",,18.1752,-66.0602,"Puerto Rico",PR,PRI,"Puerto Rico","Puerto Rico",PR-PR,state,,37.9,,,4,America/Puerto_Rico,FALSE,1630126477
"La Soledad","La Soledad",,18.2416,-67.1366,"Puerto Rico",PR,PRI,"Puerto Rico","Puerto Rico",PR-PR,state,,670.9,,,4,America/Puerto_Rico,FALSE,1630126482
"Las Flores","Las Flores",,18.0469,-66.3635,"Puerto Rico",PR,PRI,"Puerto Rico","Puerto Rico",PR-PR,state,,489.5,,,4,America/Puerto_Rico,FALSE,1630126505
Vázquez,Vazquez,,18.0684,-66.2331,"Puerto Rico",PR,PRI,"Puerto Rico","Puerto Rico",PR-PR,state,,442.2,1692,1692,3,America/Puerto_Rico,FALSE,1630023631
"Toa Baja","Toa Baja",,18.4439,-66.2547,"Puerto Rico",PR,PRI,"Puerto Rico","Puerto Rico",PR-PR,state,,656.6,999,999,3,America/Puerto_Rico,FALSE,1630023735
"Trujillo Alto","Trujillo Alto",,18.3599,-66.0096,"Puerto Rico",PR,PRI,"Puerto Rico","Puerto Rico",PR-PR,state,,2253.9,43192,43192,2,America/Puerto_Rico,FALSE,1630023656
Vieques,Vieques,,18.1462,-65.4429,"Puerto Rico",PR,PRI,"Puerto Rico","Puerto Rico",PR-PR,state,,1258.5,1892,1892,3,America/Puerto_Rico,FALSE,1630035597
Helechal,Helechal,,18.1597,-66.3104,"Puerto Rico",PR,PRI,"Puerto Rico","Puerto Rico",PR-PR,state,,789.9,,,4,America/Puerto_Rico,FALSE,1630126395
"El Saco","El Saco",,18.4113,-66.7968,"Puerto Rico",PR,PRI,"Puerto Rico","Puerto Rico",PR-PR,state,,258.1,,,4,America/Puerto_Rico,FALSE,1630126335
"El Valle","El Valle",,18.0411,-67.0555,"Puerto Rico",PR,PRI,"Puerto Rico","Puerto Rico",PR-PR,state,,1058.7,,,4,America/Puerto_Rico,FALSE,1630126337
"La Boca","La Boca",,18.4813,-66.5382,"Puerto Rico",PR,PRI,"Puerto Rico","Puerto Rico",PR-PR,state,,245.8,,,4,America/Puerto_Rico,FALSE,1630126443
Coco,Coco,,18.0009,-66.2602,"Puerto Rico",PR,PRI,"Puerto Rico","Puerto Rico",PR-PR,state,,1129.6,5006,5006,3,America/Puerto_Rico,FALSE,1630023633
Iglesia,Iglesia,,18.4294,-67.1538,"Puerto Rico",PR,PRI,"Puerto Rico","Puerto Rico",PR-PR,state,,2754.2,,,4,America/Puerto_Rico,FALSE,1630126404
"Hyde Park","Hyde Park",,18.4074,-66.0613,"Puerto Rico",PR,PRI,"Puerto Rico","Puerto Rico",PR-PR,state,,3241.9,,,4,America/Puerto_Rico,FALSE,1630126403
Húcares,Hucares,,18.1875,-65.7093,"Puerto Rico",PR,PRI,"Puerto Rico","Puerto Rico",PR-PR,state,,1402.6,,,4,America/Puerto_Rico,FALSE,1630126402
"Campamento de Niños","Campamento de Ninos",,18.3411,-65.7552,"Puerto Rico",PR,PRI,"Puerto Rico","Puerto Rico",PR-PR,state,,94.3,,,4,America/Puerto_Rico,FALSE,1630126204
"Campamento Borinquén","Campamento Borinquen",,17.9719,-66.8688,"Puerto Rico",PR,PRI,"Puerto Rico","Puerto Rico",PR-PR,state,,0.0,,,5,America/Puerto_Rico,FALSE,1630126205
Camarones,Camarones,,18.3391,-66.5079,"Puerto Rico",PR,PRI,"Puerto Rico","Puerto Rico",PR-PR,state,,20.4,,,4,America/Puerto_Rico,FALSE,1630126200
"Campamento Crozier","Campamento Crozier",,18.3222,-66.6855,"Puerto Rico",PR,PRI,"Puerto Rico","Puerto Rico",PR-PR,state,,10.5,,,4,America/Puerto_Rico,FALSE,1630126207
"Ollas Hondas","Ollas Hondas",,18.0469,-66.5291,"Puerto Rico",PR,PRI,"Puerto Rico","Puerto Rico",PR-PR,state,,694.1,,,4,America/Puerto_Rico,FALSE,1630126629
"Zanja Negra","Zanja Negra",,18.0947,-66.3988,"Puerto Rico",PR,PRI,"Puerto Rico","Puerto Rico",PR-PR,state,,25.9,,,4,America/Puerto_Rico,FALSE,1630126911
García,Garcia,,18.1438,-67.1557,"Puerto Rico",PR,PRI,"Puerto Rico","Puerto Rico",PR-PR,state,,136.5,,,4,America/Puerto_Rico,FALSE,1630126379
Gándara,Gandara,,18.1755,-66.1460,"Puerto Rico",PR,PRI,"Puerto Rico","Puerto Rico",PR-PR,state,,493.9,,,4,America/Puerto_Rico,FALSE,1630126378
Garita,Garita,,18.0958,-67.1749,"Puerto Rico",PR,PRI,"Puerto Rico","Puerto Rico",PR-PR,state,,1346.9,,,4,America/Puerto_Rico,FALSE,1630126381
"Garden Hills","Garden Hills",,18.3988,-66.1141,"Puerto Rico",PR,PRI,"Puerto Rico","Puerto Rico",PR-PR,state,,1149.3,,,4,America/Puerto_Rico,FALSE,1630126380
"Fuerte San Gerónimo","Fuerte San Geronimo",,18.4633,-66.0852,"Puerto Rico",PR,PRI,"Puerto Rico","Puerto Rico",PR-PR,state,,594.4,,,4,America/Puerto_Rico,FALSE,1630126376
Galicias,Galicias,,17.9939,-66.5146,"Puerto Rico",PR,PRI,"Puerto Rico","Puerto Rico",PR-PR,state,,174.0,,,4,America/Puerto_Rico,FALSE,1630126377
Garona,Garona,,18.0108,-65.9260,"Puerto Rico",PR,PRI,"Puerto Rico","Puerto Rico",PR-PR,state,,390.4,,,4,America/Puerto_Rico,FALSE,1630126382
"El Brujo","El Brujo",,18.0497,-67.1141,"Puerto Rico",PR,PRI,"Puerto Rico","Puerto Rico",PR-PR,state,,216.0,,,4,America/Puerto_Rico,FALSE,1630126305
"El Combate","El Combate",,17.9822,-67.2089,"Puerto Rico",PR,PRI,"Puerto Rico","Puerto Rico",PR-PR,state,,239.9,357,357,3,America/Puerto_Rico,FALSE,1630035704
Alianza,Alianza,,18.4533,-66.8556,"Puerto Rico",PR,PRI,"Puerto Rico","Puerto Rico",PR-PR,state,,775.5,2010,2010,3,America/Puerto_Rico,FALSE,1630027033
Balboa,Balboa,,18.2027,-67.1335,"Puerto Rico",PR,PRI,"Puerto Rico","Puerto Rico",PR-PR,state,,3040.8,,,4,America/Puerto_Rico,FALSE,1630126154
Baldrich,Baldrich,,18.4113,-66.0624,"Puerto Rico",PR,PRI,"Puerto Rico","Puerto Rico",PR-PR,state,,3586.6,,,4,America/Puerto_Rico,FALSE,1630126156
"Baldorioty de Castro","Baldorioty de Castro",,18.0105,-66.6274,"Puerto Rico",PR,PRI,"Puerto Rico","Puerto Rico",PR-PR,state,,5569.9,,,4,America/Puerto_Rico,FALSE,1630126155
Ballajá,Ballaja,,18.4258,-66.6268,"Puerto Rico",PR,PRI,"Puerto Rico","Puerto Rico",PR-PR,state,,371.7,,,4,America/Puerto_Rico,FALSE,1630126157
Santana,Santana,,18.4463,-66.6702,"Puerto Rico",PR,PRI,"Puerto Rico","Puerto Rico",PR-PR,state,,1034.3,,,4,America/Puerto_Rico,FALSE,1630126823
"Santa Teresita","Santa Teresita",,18.4491,-66.0452,"Puerto Rico",PR,PRI,"Puerto Rico","Puerto Rico",PR-PR,state,,11347.8,,,4,America/Puerto_Rico,FALSE,1630126822
"Santa Teresa","Santa Teresa",,18.1405,-65.8074,"Puerto Rico",PR,PRI,"Puerto Rico","Puerto Rico",PR-PR,state,,494.3,,,4,America/Puerto_Rico,FALSE,1630126821
"Santa Mónica","Santa Monica",,18.3905,-66.1741,"Puerto Rico",PR,PRI,"Puerto Rico","Puerto Rico",PR-PR,state,,3357.9,,,4,America/Puerto_Rico,FALSE,1630126815
"Santa Marta","Santa Marta",,18.0794,-67.0291,"Puerto Rico",PR,PRI,"Puerto Rico","Puerto Rico",PR-PR,state,,2204.7,,,4,America/Puerto_Rico,FALSE,1630126814
Laura,Laura,,18.0714,-65.8888,"Puerto Rico",PR,PRI,"Puerto Rico","Puerto Rico",PR-PR,state,,326.4,,,4,America/Puerto_Rico,FALSE,1630126526
Matias,Matias,,18.3697,-67.2243,"Puerto Rico",PR,PRI,"Puerto Rico","Puerto Rico",PR-PR,state,,649.3,,,4,America/Puerto_Rico,FALSE,1630126584
Matilde,Matilde,,18.2680,-66.8432,"Puerto Rico",PR,PRI,"Puerto Rico","Puerto Rico",PR-PR,state,,207.8,,,4,America/Puerto_Rico,FALSE,1630126585
"Medianía Alta","Mediania Alta",,18.4244,-65.8435,"Puerto Rico",PR,PRI,"Puerto Rico","Puerto Rico",PR-PR,state,,2096.6,,,4,America/Puerto_Rico,FALSE,1630126591
"University Gardens","University Gardens",,18.4058,-66.0652,"Puerto Rico",PR,PRI,"Puerto Rico","Puerto Rico",PR-PR,state,,3241.9,,,4,America/Puerto_Rico,FALSE,1630126866
Maragüez,Maraguez,,18.0891,-66.5788,"Puerto Rico",PR,PRI,"Puerto Rico","Puerto Rico",PR-PR,state,,0.0,,,5,America/Puerto_Rico,FALSE,1630126574
Manzanillo,Manzanillo,,17.9752,-66.5368,"Puerto Rico",PR,PRI,"Puerto Rico","Puerto Rico",PR-PR,state,,445.4,,,4,America/Puerto_Rico,FALSE,1630126572
Mantilla,Mantilla,,18.4480,-67.0138,"Puerto Rico",PR,PRI,"Puerto Rico","Puerto Rico",PR-PR,state,,917.9,,,4,America/Puerto_Rico,FALSE,1630126571
Maní,Mani,,18.2408,-67.1696,"Puerto Rico",PR,PRI,"Puerto Rico","Puerto Rico",PR-PR,state,,1651.7,,,4,America/Puerto_Rico,FALSE,1630126570
Mameyes,Mameyes,,18.3702,-65.7702,"Puerto Rico",PR,PRI,"Puerto Rico","Puerto Rico",PR-PR,state,,1236.4,,,4,America/Puerto_Rico,FALSE,1630126569
Cimarrona,Cimarrona,,17.9961,-66.1902,"Puerto Rico",PR,PRI,"Puerto Rico","Puerto Rico",PR-PR,state,,487.9,,,4,America/Puerto_Rico,FALSE,1630126253
Junio,Junio,,18.1858,-65.7860,"Puerto Rico",PR,PRI,"Puerto Rico","Puerto Rico",PR-PR,state,,6.2,,,5,America/Puerto_Rico,FALSE,1630126434
Korea,Korea,,18.3761,-65.7813,"Puerto Rico",PR,PRI,"Puerto Rico","Puerto Rico",PR-PR,state,,814.2,,,4,America/Puerto_Rico,FALSE,1630126435
"Juana Matos","Juana Matos",,18.4366,-66.1299,"Puerto Rico",PR,PRI,"Puerto Rico","Puerto Rico",PR-PR,state,,4464.3,,,4,America/Puerto_Rico,FALSE,1630126433
Joyuda,Joyuda,,18.1150,-67.1824,"Puerto Rico",PR,PRI,"Puerto Rico","Puerto Rico",PR-PR,state,,225.4,,,4,America/Puerto_Rico,FALSE,1630126432
Josefa,Josefa,,18.2758,-67.1210,"Puerto Rico",PR,PRI,"Puerto Rico","Puerto Rico",PR-PR,state,,1323.6,,,4,America/Puerto_Rico,FALSE,1630148344
"Joya de los Santos","Joya de los Santos",,18.4658,-66.7366,"Puerto Rico",PR,PRI,"Puerto Rico","Puerto Rico",PR-PR,state,,3816.8,,,4,America/Puerto_Rico,FALSE,1630126431
"La Aldea","La Aldea",,18.3769,-66.1749,"Puerto Rico",PR,PRI,"Puerto Rico","Puerto Rico",PR-PR,state,,3387.3,,,4,America/Puerto_Rico,FALSE,1630126436
Ortiga,Ortiga,,18.1658,-66.4474,"Puerto Rico",PR,PRI,"Puerto Rico","Puerto Rico",PR-PR,state,,31.5,,,4,America/Puerto_Rico,FALSE,1630126631
Oriente,Oriente,,18.4413,-66.7143,"Puerto Rico",PR,PRI,"Puerto Rico","Puerto Rico",PR-PR,state,,127.2,,,4,America/Puerto_Rico,FALSE,1630126630
"Pájaro Puertorriqueño","Pajaro Puertorriqueno",,18.3633,-66.1888,"Puerto Rico",PR,PRI,"Puerto Rico","Puerto Rico",PR-PR,state,,1591.6,,,4,America/Puerto_Rico,FALSE,1630126634
Padilla,Padilla,,18.3219,-66.3446,"Puerto Rico",PR,PRI,"Puerto Rico","Puerto Rico",PR-PR,state,,1021.6,,,4,America/Puerto_Rico,FALSE,1630126633
Ortíz,Ortiz,,18.3266,-66.3199,"Puerto Rico",PR,PRI,"Puerto Rico","Puerto Rico",PR-PR,state,,466.3,,,4,America/Puerto_Rico,FALSE,1630126632
"Playa Fortuna","Playa Fortuna",,18.3759,-65.7460,"Puerto Rico",PR,PRI,"Puerto Rico","Puerto Rico",PR-PR,state,,808.1,1275,1275,3,America/Puerto_Rico,FALSE,1630035548
"Puerto Nuevo Norte","Puerto Nuevo Norte",,18.4158,-66.0893,"Puerto Rico",PR,PRI,"Puerto Rico","Puerto Rico",PR-PR,state,,4523.3,,,4,America/Puerto_Rico,FALSE,1630126707
"Puerto Maunabo","Puerto Maunabo",,17.9922,-65.8877,"Puerto Rico",PR,PRI,"Puerto Rico","Puerto Rico",PR-PR,state,,744.4,,,4,America/Puerto_Rico,FALSE,1630126705
"Puerto Nuevo","Puerto Nuevo",,18.4116,-66.0818,"Puerto Rico",PR,PRI,"Puerto Rico","Puerto Rico",PR-PR,state,,3509.4,,,4,America/Puerto_Rico,FALSE,1630126706
"Peña Pobre","Pena Pobre",,18.2174,-65.8221,"Puerto Rico",PR,PRI,"Puerto Rico","Puerto Rico",PR-PR,state,,1328.4,959,959,3,America/Puerto_Rico,FALSE,1630035545
Patillas,Patillas,,18.0069,-66.0134,"Puerto Rico",PR,PRI,"Puerto Rico","Puerto Rico",PR-PR,state,,1001.5,2955,2955,3,America/Puerto_Rico,FALSE,1630023610
"Piedra Gorda","Piedra Gorda",,18.4342,-66.8861,"Puerto Rico",PR,PRI,"Puerto Rico","Puerto Rico",PR-PR,state,,1180.4,2084,2084,3,America/Puerto_Rico,FALSE,1630035547
Peñuelas,Penuelas,,18.0595,-66.7206,"Puerto Rico",PR,PRI,"Puerto Rico","Puerto Rico",PR-PR,state,,2121.4,5297,5297,2,America/Puerto_Rico,FALSE,1630023556
"Parcelas Nuevas","Parcelas Nuevas",,18.1400,-66.1702,"Puerto Rico",PR,PRI,"Puerto Rico","Puerto Rico",PR-PR,state,,518.5,863,863,3,America/Puerto_Rico,FALSE,1630035541
"Parcelas La Milagrosa","Parcelas La Milagrosa",,18.1716,-66.1868,"Puerto Rico",PR,PRI,"Puerto Rico","Puerto Rico",PR-PR,state,,1477.0,999,999,3,America/Puerto_Rico,FALSE,1630035487
Pastos,Pastos,,18.1194,-66.2601,"Puerto Rico",PR,PRI,"Puerto Rico","Puerto Rico",PR-PR,state,,627.4,830,830,3,America/Puerto_Rico,FALSE,1630023599
"Parcelas Peñuelas","Parcelas Penuelas",,18.0059,-66.3475,"Puerto Rico",PR,PRI,"Puerto Rico","Puerto Rico",PR-PR,state,,603.5,877,877,3,America/Puerto_Rico,FALSE,1630035542
"Ramón Pabón","Ramon Pabon",,18.3336,-66.3691,"Puerto Rico",PR,PRI,"Puerto Rico","Puerto Rico",PR-PR,state,,659.4,,,4,America/Puerto_Rico,FALSE,1630126724
Radioville,Radioville,,18.4758,-66.7513,"Puerto Rico",PR,PRI,"Puerto Rico","Puerto Rico",PR-PR,state,,1572.2,,,4,America/Puerto_Rico,FALSE,1630126720
"Rafael Arroyo","Rafael Arroyo",,18.3644,-66.5466,"Puerto Rico",PR,PRI,"Puerto Rico","Puerto Rico",PR-PR,state,,619.3,,,4,America/Puerto_Rico,FALSE,1630126721
"Ramón Colón","Ramon Colon",,18.3116,-65.9766,"Puerto Rico",PR,PRI,"Puerto Rico","Puerto Rico",PR-PR,state,,1435.9,,,4,America/Puerto_Rico,FALSE,1630126722
Quemados,Quemados,,18.1825,-65.9868,"Puerto Rico",PR,PRI,"Puerto Rico","Puerto Rico",PR-PR,state,,487.8,,,4,America/Puerto_Rico,FALSE,1630126717
"Quinta Esperanza","Quinta Esperanza",,17.9683,-66.5677,"Puerto Rico",PR,PRI,"Puerto Rico","Puerto Rico",PR-PR,state,,4.7,,,5,America/Puerto_Rico,FALSE,1630126718
"Rabo del Buey","Rabo del Buey",,18.0350,-66.2404,"Puerto Rico",PR,PRI,"Puerto Rico","Puerto Rico",PR-PR,state,,24.7,,,4,America/Puerto_Rico,FALSE,1630126719
Tío,Tio,,18.3702,-66.1752,"Puerto Rico",PR,PRI,"Puerto Rico","Puerto Rico",PR-PR,state,,2274.5,,,4,America/Puerto_Rico,FALSE,1630126851
"Caserio Doctor Gándara","Caserio Doctor Gandara",,18.0119,-66.6013,"Puerto Rico",PR,PRI,"Puerto Rico","Puerto Rico",PR-PR,state,,2719.1,,,4,America/Puerto_Rico,FALSE,1630126930
"El Pueblito","El Pueblito",,18.4286,-66.4479,"Puerto Rico",PR,PRI,"Puerto Rico","Puerto Rico",PR-PR,state,,1598.5,,,4,America/Puerto_Rico,FALSE,1630126329
"El Pulguero","El Pulguero",,18.4599,-66.4707,"Puerto Rico",PR,PRI,"Puerto Rico","Puerto Rico",PR-PR,state,,260.1,,,4,America/Puerto_Rico,FALSE,1630126331
"El Recreo","El Recreo",,18.0758,-67.0313,"Puerto Rico",PR,PRI,"Puerto Rico","Puerto Rico",PR-PR,state,,2204.7,,,4,America/Puerto_Rico,FALSE,1630126332
"El Pajuil","El Pajuil",,18.4283,-66.7880,"Puerto Rico",PR,PRI,"Puerto Rico","Puerto Rico",PR-PR,state,,1089.7,,,4,America/Puerto_Rico,FALSE,1630126326
"El Polvorín","El Polvorin",,18.4299,-66.2835,"Puerto Rico",PR,PRI,"Puerto Rico","Puerto Rico",PR-PR,state,,616.8,,,4,America/Puerto_Rico,FALSE,1630126327
"El Portón","El Porton",,18.3391,-66.1999,"Puerto Rico",PR,PRI,"Puerto Rico","Puerto Rico",PR-PR,state,,1793.9,,,4,America/Puerto_Rico,FALSE,1630126328
"El Retiro","El Retiro",,18.0766,-67.0341,"Puerto Rico",PR,PRI,"Puerto Rico","Puerto Rico",PR-PR,state,,2078.1,,,4,America/Puerto_Rico,FALSE,1630126333
"El Rosario","El Rosario",,18.0266,-66.8568,"Puerto Rico",PR,PRI,"Puerto Rico","Puerto Rico",PR-PR,state,,888.4,,,4,America/Puerto_Rico,FALSE,1630126334
"Parcelas Mandry","Parcelas Mandry",,18.0811,-66.5627,"Puerto Rico",PR,PRI,"Puerto Rico","Puerto Rico",PR-PR,state,,805.2,423,423,3,America/Puerto_Rico,FALSE,1630025229
Benítez,Benitez,,18.2726,-65.8788,"Puerto Rico",PR,PRI,"Puerto Rico","Puerto Rico",PR-PR,state,,1228.9,920,920,3,America/Puerto_Rico,FALSE,1630035475
Betances,Betances,,18.0296,-67.1335,"Puerto Rico",PR,PRI,"Puerto Rico","Puerto Rico",PR-PR,state,,1216.3,760,760,3,America/Puerto_Rico,FALSE,1630023606
Barranquitas,Barranquitas,,18.1848,-66.3102,"Puerto Rico",PR,PRI,"Puerto Rico","Puerto Rico",PR-PR,state,,1421.9,2820,2820,3,America/Puerto_Rico,FALSE,1630035619
Bartolo,Bartolo,,18.3620,-65.8414,"Puerto Rico",PR,PRI,"Puerto Rico","Puerto Rico",PR-PR,state,,977.1,1304,1304,3,America/Puerto_Rico,FALSE,1630035620
Bayamón,Bayamon,,18.3794,-66.1635,"Puerto Rico",PR,PRI,"Puerto Rico","Puerto Rico",PR-PR,state,,2404.7,168698,168698,2,America/Puerto_Rico,FALSE,1630035622
Bajadero,Bajadero,,18.4245,-66.6765,"Puerto Rico",PR,PRI,"Puerto Rico","Puerto Rico",PR-PR,state,,669.0,3539,3539,3,America/Puerto_Rico,FALSE,1630035615
Bajandas,Bajandas,,18.1601,-65.7831,"Puerto Rico",PR,PRI,"Puerto Rico","Puerto Rico",PR-PR,state,,463.9,777,777,3,America/Puerto_Rico,FALSE,1630035616
Barahona,Barahona,,18.3522,-66.4442,"Puerto Rico",PR,PRI,"Puerto Rico","Puerto Rico",PR-PR,state,,1426.2,1983,1983,3,America/Puerto_Rico,FALSE,1630023612
Barceloneta,Barceloneta,,18.4530,-66.5381,"Puerto Rico",PR,PRI,"Puerto Rico","Puerto Rico",PR-PR,state,,1412.6,3548,3548,3,America/Puerto_Rico,FALSE,1630035618
"Jardines de Caparra","Jardines de Caparra",,18.3938,-66.1302,"Puerto Rico",PR,PRI,"Puerto Rico","Puerto Rico",PR-PR,state,,5494.1,,,4,America/Puerto_Rico,FALSE,1630126419
Jácana,Jacana,,18.0800,-66.2963,"Puerto Rico",PR,PRI,"Puerto Rico","Puerto Rico",PR-PR,state,,798.3,,,4,America/Puerto_Rico,FALSE,1630126413
"La Vega","La Vega",,18.3483,-65.7688,"Puerto Rico",PR,PRI,"Puerto Rico","Puerto Rico",PR-PR,state,,515.0,,,4,America/Puerto_Rico,FALSE,1630149027
"La Trocha","La Trocha",,18.4411,-66.3816,"Puerto Rico",PR,PRI,"Puerto Rico","Puerto Rico",PR-PR,state,,1474.4,,,4,America/Puerto_Rico,FALSE,1630126486
"La Tosca","La Tosca",,18.2977,-67.2088,"Puerto Rico",PR,PRI,"Puerto Rico","Puerto Rico",PR-PR,state,,384.5,,,4,America/Puerto_Rico,FALSE,1630126485
"La Torre","La Torre",,18.4558,-65.9807,"Puerto Rico",PR,PRI,"Puerto Rico","Puerto Rico",PR-PR,state,,1164.3,,,4,America/Puerto_Rico,FALSE,1630126484
"La Zanja","La Zanja",,18.0316,-66.3129,"Puerto Rico",PR,PRI,"Puerto Rico","Puerto Rico",PR-PR,state,,0.0,,,5,America/Puerto_Rico,FALSE,1630126490
"Ramón Nevares","Ramon Nevares",,18.3986,-66.0668,"Puerto Rico",PR,PRI,"Puerto Rico","Puerto Rico",PR-PR,state,,2741.2,,,4,America/Puerto_Rico,FALSE,1630126723
"Isabel Segunda","Isabel Segunda",,18.1491,-65.4427,"Puerto Rico",PR,PRI,"Puerto Rico","Puerto Rico",PR-PR,state,,1079.0,,,4,America/Puerto_Rico,FALSE,1630126916
Destino,Destino,,18.1283,-65.4363,"Puerto Rico",PR,PRI,"Puerto Rico","Puerto Rico",PR-PR,state,,214.5,,,4,America/Puerto_Rico,FALSE,1630126915
"Colonia Luján","Colonia Lujan",,18.1214,-65.4427,"Puerto Rico",PR,PRI,"Puerto Rico","Puerto Rico",PR-PR,state,,78.7,,,4,America/Puerto_Rico,FALSE,1630126913
"Colonia Puerto Real","Colonia Puerto Real",,18.1105,-65.4815,"Puerto Rico",PR,PRI,"Puerto Rico","Puerto Rico",PR-PR,state,,57.3,,,4,America/Puerto_Rico,FALSE,1630126914
Campamento,Campamento,,18.2533,-65.9793,"Puerto Rico",PR,PRI,"Puerto Rico","Puerto Rico",PR-PR,state,,4922.2,,,4,America/Puerto_Rico,FALSE,1630126203
"San Luis","San Luis",,18.2022,-65.7113,"Puerto Rico",PR,PRI,"Puerto Rico","Puerto Rico",PR-PR,state,,246.3,,,4,America/Puerto_Rico,FALSE,1630126788
"San Martín","San Martin",,18.3933,-66.0046,"Puerto Rico",PR,PRI,"Puerto Rico","Puerto Rico",PR-PR,state,,4700.1,,,4,America/Puerto_Rico,FALSE,1630126790
"San Pedro","San Pedro",,18.3102,-65.6616,"Puerto Rico",PR,PRI,"Puerto Rico","Puerto Rico",PR-PR,state,,178.1,,,4,America/Puerto_Rico,FALSE,1630126792
"San Ramón","San Ramon",,18.0739,-67.0171,"Puerto Rico",PR,PRI,"Puerto Rico","Puerto Rico",PR-PR,state,,1314.1,,,4,America/Puerto_Rico,FALSE,1630126794
"Villa Quintero","Villa Quintero",,18.4255,-66.2350,"Puerto Rico",PR,PRI,"Puerto Rico","Puerto Rico",PR-PR,state,,1600.0,405,405,3,America/Puerto_Rico,FALSE,1630149214
Yaurel,Yaurel,,18.0300,-66.0560,"Puerto Rico",PR,PRI,"Puerto Rico","Puerto Rico",PR-PR,state,,210.0,646,646,3,America/Puerto_Rico,FALSE,1630023594
Yauco,Yauco,,18.0344,-66.8615,"Puerto Rico",PR,PRI,"Puerto Rico","Puerto Rico",PR-PR,state,,2022.3,15165,15165,2,America/Puerto_Rico,FALSE,1630035600
Cañas,Canas,,18.0025,-66.8899,"Puerto Rico",PR,PRI,"Puerto Rico","Puerto Rico",PR-PR,state,,365.6,,,4,America/Puerto_Rico,FALSE,1630126223
"Villa Hugo I","Villa Hugo I",,18.3976,-65.8908,"Puerto Rico",PR,PRI,"Puerto Rico","Puerto Rico",PR-PR,state,,3275.3,701,701,2,America/Puerto_Rico,FALSE,1630149260
Canovanillas,Canovanillas,,18.3345,-65.9039,"Puerto Rico",PR,PRI,"Puerto Rico","Puerto Rico",PR-PR,state,,150.3,264,264,3,America/Puerto_Rico,FALSE,1630149262
"Valle Hill","Valle Hill",,18.3953,-65.8940,"Puerto Rico",PR,PRI,"Puerto Rico","Puerto Rico",PR-PR,state,,3226.5,697,697,2,America/Puerto_Rico,FALSE,1630149263
"Quebrada Prieta","Quebrada Prieta",,18.2943,-65.9037,"Puerto Rico",PR,PRI,"Puerto Rico","Puerto Rico",PR-PR,state,,122.3,599,599,3,America/Puerto_Rico,FALSE,1630149264
"Monte Carlo","Monte Carlo",,18.4469,-66.3916,"Puerto Rico",PR,PRI,"Puerto Rico","Puerto Rico",PR-PR,state,,2604.4,,,4,America/Puerto_Rico,FALSE,1630126606
Marruecos,Marruecos,,18.4399,-66.0704,"Puerto Rico",PR,PRI,"Puerto Rico","Puerto Rico",PR-PR,state,,713.4,,,4,America/Puerto_Rico,FALSE,1630126581
"Dos Bocas","Dos Bocas",,18.3380,-66.6707,"Puerto Rico",PR,PRI,"Puerto Rico","Puerto Rico",PR-PR,state,,141.7,,,4,America/Puerto_Rico,FALSE,1630126300
Divisoria,Divisoria,,18.1619,-66.5104,"Puerto Rico",PR,PRI,"Puerto Rico","Puerto Rico",PR-PR,state,,77.2,,,4,America/Puerto_Rico,FALSE,1630126297
Robles,Robles,,18.1336,-66.2485,"Puerto Rico",PR,PRI,"Puerto Rico","Puerto Rico",PR-PR,state,,541.2,,,4,America/Puerto_Rico,FALSE,1630126744
"Estación Naguabo","Estacion Naguabo",,18.2041,-65.7296,"Puerto Rico",PR,PRI,"Puerto Rico","Puerto Rico",PR-PR,state,,862.1,,,4,America/Puerto_Rico,FALSE,1630126933
"Estación Santa Isabel","Estacion Santa Isabel",,17.9852,-66.3996,"Puerto Rico",PR,PRI,"Puerto Rico","Puerto Rico",PR-PR,state,,42.3,,,4,America/Puerto_Rico,FALSE,1630126934
"La Casa de Piedra","La Casa de Piedra",,18.4258,-66.9238,"Puerto Rico",PR,PRI,"Puerto Rico","Puerto Rico",PR-PR,state,,233.8,,,4,America/Puerto_Rico,FALSE,1630126445
"La Capital","La Capital",,18.0408,-66.8155,"Puerto Rico",PR,PRI,"Puerto Rico","Puerto Rico",PR-PR,state,,249.9,,,4,America/Puerto_Rico,FALSE,1630126444
"La Arena","La Arena",,18.4172,-66.1860,"Puerto Rico",PR,PRI,"Puerto Rico","Puerto Rico",PR-PR,state,,1016.3,,,4,America/Puerto_Rico,FALSE,1630126439
"La Bayamonesa","La Bayamonesa",,18.3027,-66.0635,"Puerto Rico",PR,PRI,"Puerto Rico","Puerto Rico",PR-PR,state,,638.9,,,4,America/Puerto_Rico,FALSE,1630126441
Cataño,Catano,,18.4375,-66.1440,"Puerto Rico",PR,PRI,"Puerto Rico","Puerto Rico",PR-PR,state,,1842.5,23060,23060,3,America/Puerto_Rico,FALSE,1630023554
"Punta Brava","Punta Brava",,18.0058,-66.5335,"Puerto Rico",PR,PRI,"Puerto Rico","Puerto Rico",PR-PR,state,,235.9,,,4,America/Puerto_Rico,FALSE,1630126709
"Sabana Hoyos","Sabana Hoyos",,18.4213,-66.6084,"Puerto Rico",PR,PRI,"Puerto Rico","Puerto Rico",PR-PR,state,,467.7,3154,3154,3,America/Puerto_Rico,FALSE,1630035568
