city,city_ascii,city_alt,lat,lng,country,iso2,iso3,admin_name,admin_name_ascii,admin_code,admin_type,capital,density,population,population_proper,ranking,timezone,same_name,id
Saint-Denis,Saint-Denis,,-20.8789,55.4481,Reunion,RE,REU,,,,,primary,1129.4,315080,315080,1,Indian/Reunion,FALSE,1638024662
Saint-Benoît,Saint-Benoit,,-21.0339,55.7128,Reunion,RE,REU,,,,,,172.5,35310,35310,3,Indian/Reunion,FALSE,1638823449
"La Mare","La Mare","La Mare Usine|Mare",-20.8833,55.5333,Reunion,RE,REU,,,,,,402.6,2189,2189,3,Indian/Reunion,FALSE,1638309481
Grand-Place,Grand-Place,"Grande Place",-21.0436,55.4119,Reunion,RE,REU,,,,,,339.4,130,130,3,Indian/Reunion,FALSE,1638958971
Moufia,Moufia,,-20.9134,55.4838,Reunion,RE,REU,,,,,,1129.4,,,3,Indian/Reunion,FALSE,1638000316
"Le Petit Sable","Le Petit Sable","Petit Sable",-21.0349,55.5360,Reunion,RE,REU,,,,,,67.9,,,4,Indian/Reunion,FALSE,1638890301
Mafatte,Mafatte,,-21.0614,55.4175,Reunion,RE,REU,,,,,,339.4,,,3,Indian/Reunion,FALSE,1638448823
"Le Champ Borne","Le Champ Borne",Champ-Borne,-20.9435,55.6763,Reunion,RE,REU,,,,,,1249.1,,,3,Indian/Reunion,FALSE,1638635307
Fleurimont,Fleurimont,,-21.0352,55.2684,Reunion,RE,REU,,,,,,530.2,,,3,Indian/Reunion,FALSE,1638635664
"Terrain Élisa","Terrain Elisa",,-20.9260,55.5492,Reunion,RE,REU,,,,,,402.6,,,3,Indian/Reunion,FALSE,1638000189
"Le Grand Serré","Le Grand Serre",,-21.2230,55.4090,Reunion,RE,REU,,,,,,668.8,,,3,Indian/Reunion,FALSE,1638000176
"Terrain Duparc","Terrain Duparc",,-20.9069,55.5186,Reunion,RE,REU,,,,,,402.6,,,3,Indian/Reunion,FALSE,1638000068
"Commune Bègue","Commune Begue",,-20.9531,55.6283,Reunion,RE,REU,,,,,,1249.1,,,3,Indian/Reunion,FALSE,1638991470
"Îlet Augustin","Ilet Augustin",,-21.2082,55.4514,Reunion,RE,REU,,,,,,668.8,,,3,Indian/Reunion,FALSE,1638000038
"Le Bœuf Mort","Le Boeuf Mort",,-20.9472,55.3379,Reunion,RE,REU,,,,,,339.4,,,3,Indian/Reunion,FALSE,1638000050
"Village Desprez","Village Desprez",,-20.9090,55.6133,Reunion,RE,REU,,,,,,547.9,,,3,Indian/Reunion,FALSE,1638000282
"Le Maniron","Le Maniron",,-21.2479,55.3886,Reunion,RE,REU,,,,,,405.1,,,3,Indian/Reunion,FALSE,1638679443
"Lianes Bel-Air","Lianes Bel-Air",,-21.3343,55.5999,Reunion,RE,REU,,,,,,244.8,,,3,Indian/Reunion,FALSE,1638000008
"Villa Bourbon","Villa Bourbon",,-21.0643,55.2219,Reunion,RE,REU,,,,,,530.2,,,3,Indian/Reunion,FALSE,1638000298
"Ville Blanche","Ville Blanche",,-21.3010,55.5371,Reunion,RE,REU,,,,,,545.2,,,3,Indian/Reunion,FALSE,1638000015
"La Source la Mare","La Source la Mare",,-20.9190,55.5216,Reunion,RE,REU,,,,,,402.6,,,3,Indian/Reunion,FALSE,1638000071
"Le Bois de Nèfles Entre-Deux","Le Bois de Nefles Entre-Deux",,-21.2353,55.3251,Reunion,RE,REU,,,,,,635.3,,,3,Indian/Reunion,FALSE,1638000342
L’Argamasse,L'Argamasse,,-21.2144,55.4978,Reunion,RE,REU,,,,,,107.2,,,4,Indian/Reunion,FALSE,1638000117
"Saint-Gilles les Bains","Saint-Gilles les Bains","Saint Gilles|Saint-Gilles-les Bains",-21.0489,55.2692,Reunion,RE,REU,,,,,,530.2,,,3,Indian/Reunion,FALSE,1638025901
"Les Colimaçons les Hauts","Les Colimacons les Hauts",,-21.1305,55.3052,Reunion,RE,REU,,,,,,298.7,,,3,Indian/Reunion,FALSE,1638000239
"Mare à Martin","Mare a Martin",,-21.0179,55.4975,Reunion,RE,REU,,,,,,67.9,,,4,Indian/Reunion,FALSE,1638000043
"La Poste","La Poste",,-21.0571,55.2899,Reunion,RE,REU,,,,,,530.2,,,3,Indian/Reunion,FALSE,1638000058
"La Plate Forme","La Plate Forme",,-21.1539,55.4667,Reunion,RE,REU,,,,,,69.5,,,4,Indian/Reunion,FALSE,1638000059
"Notre-Dame des Champs","Notre-Dame des Champs",,-21.0726,55.2780,Reunion,RE,REU,,,,,,530.2,,,3,Indian/Reunion,FALSE,1638000066
"Le Baril","Le Baril",Baril,-21.3679,55.7278,Reunion,RE,REU,,,,,,32.8,,,4,Indian/Reunion,FALSE,1638019092
Dimitile,Dimitile,,-21.2908,55.6133,Reunion,RE,REU,,,,,,239.0,,,3,Indian/Reunion,FALSE,1638936542
"La Fontaine","La Fontaine",,-21.1571,55.3043,Reunion,RE,REU,,,,,,299.4,,,3,Indian/Reunion,FALSE,1638435145
"La Rivière des Roches","La Riviere des Roches",,-21.0011,55.6963,Reunion,RE,REU,,,,,,167.1,,,4,Indian/Reunion,FALSE,1638104835
"Îlet à Malheur","Ilet a Malheur",,-21.0267,55.4283,Reunion,RE,REU,,,,,,339.4,,,3,Indian/Reunion,FALSE,1638306900
"La Plaine-des-Palmistes","La Plaine-des-Palmistes","La Plaine des Palmistes|Plaine des Palmistes",-21.1350,55.6256,Reunion,RE,REU,,,,,,97.6,,,4,Indian/Reunion,FALSE,1638669114
"Le Ouaki","Le Ouaki","Le Waki",-21.2750,55.4491,Reunion,RE,REU,,,,,,668.8,,,3,Indian/Reunion,FALSE,1638434032
"Maison Isautier","Maison Isautier",,-21.3145,55.5321,Reunion,RE,REU,,,,,,713.6,,,3,Indian/Reunion,FALSE,1638465347
"Bois de Pomme","Bois de Pomme",,-21.0174,55.5469,Reunion,RE,REU,,,,,,67.9,,,4,Indian/Reunion,FALSE,1638000144
"Mare Longue","Mare Longue",,-21.3651,55.7519,Reunion,RE,REU,,,,,,32.8,,,4,Indian/Reunion,FALSE,1638837410
"Camp Jacquot","Camp Jacquot",,-20.9916,55.6777,Reunion,RE,REU,,,,,,156.2,,,4,Indian/Reunion,FALSE,1638391639
"Piton Bloc","Piton Bloc",,-21.3163,55.5688,Reunion,RE,REU,,,,,,688.7,,,3,Indian/Reunion,FALSE,1638000012
"L’Étang-Salé les Hauts","L'Etang-Sale les Hauts",Étan-Salé-les-Hauts|Étang-Salé|L’Étang-Salé,-21.2661,55.3669,Reunion,RE,REU,,,,,,381.5,,,3,Indian/Reunion,FALSE,1638895607
Beaufonds,Beaufonds,"Beaufonds Usine",-21.0466,55.7213,Reunion,RE,REU,,,,,,172.5,,,4,Indian/Reunion,FALSE,1638837631
"Bérive les Bas","Berive les Bas","Bérive-les Bas",-21.3172,55.5284,Reunion,RE,REU,,,,,,883.4,,,3,Indian/Reunion,FALSE,1638711026
"Le Château","Le Chateau",,-20.9645,55.6126,Reunion,RE,REU,,,,,,1149.1,,,3,Indian/Reunion,FALSE,1638000290
"Le Quatorzième","Le Quatorzieme",,-21.2516,55.5211,Reunion,RE,REU,,,,,,545.2,,,3,Indian/Reunion,FALSE,1638605138
"La Ligne Chevalier","La Ligne Chevalier",,-21.2282,55.4453,Reunion,RE,REU,,,,,,668.8,,,3,Indian/Reunion,FALSE,1638000086
"Les Avirons","Les Avirons",Avirons,-21.2419,55.3333,Reunion,RE,REU,,,,,,724.1,,,3,Indian/Reunion,FALSE,1638530855
Piveteau,Piveteau,,-21.1291,55.2922,Reunion,RE,REU,,,,,,257.6,,,3,Indian/Reunion,FALSE,1638000276
Saint-Paul,Saint-Paul,,-21.0097,55.2697,Reunion,RE,REU,,,,,,530.2,,,3,Indian/Reunion,FALSE,1638945309
"Le Bras Creux","Le Bras Creux",,-21.2580,55.5389,Reunion,RE,REU,,,,,,545.2,,,3,Indian/Reunion,FALSE,1638355640
"Le Bras Creux","Le Bras Creux",,-21.1407,55.6118,Reunion,RE,REU,,,,,,97.6,,,4,Indian/Reunion,TRUE,1638049549
"Îlet à Guillaume","Ilet a Guillaume",,-20.9494,55.4115,Reunion,RE,REU,,,,,,1129.4,,,3,Indian/Reunion,FALSE,1638242732
"Rivière du Rempart","Riviere du Rempart",,-21.3667,55.6167,Reunion,RE,REU,,,,,,239.0,,,3,Indian/Reunion,FALSE,1638758206
"La Ravine des Citrons","La Ravine des Citrons",,-21.2419,55.4813,Reunion,RE,REU,,,,,,107.2,,,4,Indian/Reunion,FALSE,1638000104
L’Oasis,L'Oasis,,-21.0465,55.6688,Reunion,RE,REU,,,,,,172.5,,,4,Indian/Reunion,FALSE,1638268110
"Grande Fontaine","Grande Fontaine",,-21.0140,55.2788,Reunion,RE,REU,,,,,,530.2,,,3,Indian/Reunion,FALSE,1638000269
"Nos Loisirs","Nos Loisirs",,-20.8989,55.5723,Reunion,RE,REU,,,,,,402.6,,,3,Indian/Reunion,FALSE,1638000321
"Cité de Pêcheurs","Cite de Pecheurs",,-21.1828,55.2908,Reunion,RE,REU,,,,,,299.4,,,3,Indian/Reunion,FALSE,1638000155
"La Route Delisle","La Route Delisle",,-21.2154,55.3398,Reunion,RE,REU,,,,,,299.4,,,3,Indian/Reunion,FALSE,1638000351
"La Possession","La Possession",Possession,-20.9264,55.3358,Reunion,RE,REU,,,,,,339.4,,,3,Indian/Reunion,FALSE,1638316781
"Îlet Dijoux","Ilet Dijoux",,-21.1256,55.4588,Reunion,RE,REU,,,,,,69.5,,,4,Indian/Reunion,FALSE,1638000277
"Bord d’Ti Trou","Bord d'Ti Trou",,-21.2801,55.6338,Reunion,RE,REU,,,,,,239.0,,,3,Indian/Reunion,FALSE,1638000022
"La Ligne des Bambous","La Ligne des Bambous","Ligne des Bambous",-21.3028,55.4939,Reunion,RE,REU,,,,,,883.4,,,3,Indian/Reunion,FALSE,1638930937
"F. Sauger","F. Sauger",,-21.0167,55.2500,Reunion,RE,REU,,,,,,530.2,,,3,Indian/Reunion,FALSE,1638064673
"Le Camp du Gol","Le Camp du Gol","Usine du Gol|Gôl",-21.2728,55.4041,Reunion,RE,REU,,,,,,668.8,,,3,Indian/Reunion,FALSE,1638682387
"Commune Ango","Commune Ango",,-20.9435,55.6191,Reunion,RE,REU,,,,,,588.9,,,3,Indian/Reunion,FALSE,1638587238
"Maison Leroux","Maison Leroux",,-21.2018,55.8189,Reunion,RE,REU,,,,,,38.8,,,4,Indian/Reunion,FALSE,1638444107
"La Barrière","La Barriere",,-21.0201,55.2505,Reunion,RE,REU,,,,,,530.2,,,3,Indian/Reunion,FALSE,1638000024
Bruguier,Bruguier,,-20.9190,55.5507,Reunion,RE,REU,,,,,,402.6,,,3,Indian/Reunion,FALSE,1638000078
"Bassin Bœuf","Bassin Boeuf",,-21.3422,55.4867,Reunion,RE,REU,,,,,,883.4,,,3,Indian/Reunion,FALSE,1638000237
"La Source","La Source",,-20.8926,55.4474,Reunion,RE,REU,,,,,,1129.4,,,3,Indian/Reunion,FALSE,1638000148
Saint-Philippe,Saint-Philippe,"Saint Phillippe",-21.3594,55.7678,Reunion,RE,REU,,,,,,32.8,,,4,Indian/Reunion,FALSE,1638636089
"Les Jacques Cargot","Les Jacques Cargot",,-20.9165,55.5954,Reunion,RE,REU,,,,,,547.9,,,3,Indian/Reunion,FALSE,1638000296
Bellepierre,Bellepierre,,-20.9028,55.4452,Reunion,RE,REU,,,,,,1129.4,,,3,Indian/Reunion,FALSE,1638000149
"Le Cap-les Hauts","Le Cap-les Hauts",,-21.1500,55.3333,Reunion,RE,REU,,,,,,299.4,,,3,Indian/Reunion,FALSE,1638010008
"Basse Vallée","Basse Vallee",,-21.3712,55.7117,Reunion,RE,REU,,,,,,32.8,,,4,Indian/Reunion,FALSE,1638267641
"La Petite Ravine","La Petite Ravine","Petite Ravine",-21.1246,55.3019,Reunion,RE,REU,,,,,,191.4,,,4,Indian/Reunion,FALSE,1638722655
"Maison Payet","Maison Payet",,-20.9667,55.6333,Reunion,RE,REU,,,,,,1249.1,,,3,Indian/Reunion,FALSE,1638437928
Sainte-Rose,Sainte-Rose,,-21.1272,55.7922,Reunion,RE,REU,,,,,,38.8,,,4,Indian/Reunion,FALSE,1638219129
Saint-Bernard,Saint-Bernard,,-20.9104,55.4009,Reunion,RE,REU,,,,,,1129.4,,,3,Indian/Reunion,FALSE,1638211900
Sarabé,Sarabe,,-20.9778,55.6129,Reunion,RE,REU,,,,,,1249.1,,,3,Indian/Reunion,FALSE,1638000289
"La Chaloupe Saint-Leu","La Chaloupe Saint-Leu",,-21.1428,55.3152,Reunion,RE,REU,,,,,,299.4,,,3,Indian/Reunion,FALSE,1638919101
"La Souris Blanche","La Souris Blanche",,-21.1220,55.2635,Reunion,RE,REU,,,,,,168.3,,,4,Indian/Reunion,FALSE,1638000302
"Le Tampon","Le Tampon","Village du Tampon|Tampon",-21.2781,55.5153,Reunion,RE,REU,,,,,,545.2,,,3,Indian/Reunion,FALSE,1638563521
L’Ermitage,L'Ermitage,,-21.2612,55.5084,Reunion,RE,REU,,,,,,545.2,,,3,Indian/Reunion,FALSE,1638000128
L’Ermitage,L'Ermitage,,-21.0736,55.2666,Reunion,RE,REU,,,,,,530.2,,,3,Indian/Reunion,TRUE,1638000299
L’Ermitage,L'Ermitage,L’Hermitage,-21.3580,55.5771,Reunion,RE,REU,,,,,,353.2,,,3,Indian/Reunion,TRUE,1638924365
"Ravine Laverdure","Ravine Laverdure",,-20.9298,55.4504,Reunion,RE,REU,,,,,,1129.4,,,3,Indian/Reunion,FALSE,1638000371
"Îlet à Diable","Ilet a Diable",,-21.3474,55.6454,Reunion,RE,REU,,,,,,239.0,,,3,Indian/Reunion,FALSE,1638000005
"Bras Panon","Bras Panon",,-21.3706,55.6778,Reunion,RE,REU,,,,,,239.0,,,3,Indian/Reunion,FALSE,1638000001
Bebour,Bebour,,-21.1000,55.6000,Reunion,RE,REU,,,,,,172.5,,,4,Indian/Reunion,FALSE,1638834189
"La Bretagne","La Bretagne",Bretagne,-20.9201,55.4949,Reunion,RE,REU,,,,,,1129.4,,,3,Indian/Reunion,FALSE,1638289364
"Les Aigrettes","Les Aigrettes",,-21.1429,55.4561,Reunion,RE,REU,,,,,,69.5,,,4,Indian/Reunion,FALSE,1638335719
"Haut de Jean Petit","Haut de Jean Petit",,-21.3203,55.6308,Reunion,RE,REU,,,,,,239.0,,,3,Indian/Reunion,FALSE,1638000130
"Le Tévelave","Le Tevelave",,-21.2094,55.3557,Reunion,RE,REU,,,,,,722.5,,,3,Indian/Reunion,FALSE,1638500098
"Les Colimaçons","Les Colimacons",Colimaçons,-21.1392,55.2929,Reunion,RE,REU,,,,,,299.4,,,3,Indian/Reunion,FALSE,1638656064
"Commune Carron","Commune Carron",,-20.9338,55.6189,Reunion,RE,REU,,,,,,547.9,,,3,Indian/Reunion,FALSE,1638742172
"Le Portail","Le Portail",Portail,-21.2132,55.3007,Reunion,RE,REU,,,,,,299.4,,,3,Indian/Reunion,FALSE,1638925072
Domenjod,Domenjod,Demenjod,-20.9131,55.5067,Reunion,RE,REU,,,,,,1129.4,,,3,Indian/Reunion,FALSE,1638645956
"Plaine des Grègues","Plaine des Gregues",,-21.3322,55.6094,Reunion,RE,REU,,,,,,239.0,,,3,Indian/Reunion,FALSE,1638303402
"Îlet Roche à Jacquot","Ilet Roche a Jacquot",,-21.0182,55.4746,Reunion,RE,REU,,,,,,67.9,,,4,Indian/Reunion,FALSE,1638000045
"Ravine Coco","Ravine Coco",,-20.9309,55.5440,Reunion,RE,REU,,,,,,402.6,,,3,Indian/Reunion,FALSE,1638000075
"Grand Coude","Grand Coude",,-21.2931,55.6258,Reunion,RE,REU,,,,,,239.0,,,3,Indian/Reunion,FALSE,1638367033
Entre-Deux,Entre-Deux,Noël,-21.2275,55.3318,Reunion,RE,REU,,,,,,340.9,,,3,Indian/Reunion,FALSE,1638372039
Sainte-Clotilde,Sainte-Clotilde,,-20.9043,55.4783,Reunion,RE,REU,,,,,,1129.4,,,3,Indian/Reunion,FALSE,1638975411
"Le Ruisseau Terres Rouges","Le Ruisseau Terres Rouges",,-21.2624,55.4267,Reunion,RE,REU,,,,,,668.8,,,3,Indian/Reunion,FALSE,1638000195
"Les Lataniers","Les Lataniers",,-21.0983,55.2813,Reunion,RE,REU,,,,,,530.2,,,3,Indian/Reunion,FALSE,1638000062
"Bois Blanc","Bois Blanc",,-21.2453,55.3176,Reunion,RE,REU,,,,,,566.5,,,3,Indian/Reunion,FALSE,1638000162
"Bois Blanc","Bois Blanc",Bois-Blanc,-21.1984,55.8195,Reunion,RE,REU,,,,,,38.8,,,4,Indian/Reunion,TRUE,1638960927
"Bon Accueil","Bon Accueil",,-21.2153,55.4033,Reunion,RE,REU,,,,,,668.8,,,3,Indian/Reunion,FALSE,1638000175
Rivière,Riviere,,-21.2667,55.4167,Reunion,RE,REU,,,,,,668.8,,,3,Indian/Reunion,FALSE,1638143302
"Citerne Laborde","Citerne Laborde",,-21.0552,55.2866,Reunion,RE,REU,,,,,,530.2,,,3,Indian/Reunion,FALSE,1638000057
"Rivière Saint-Pierre","Riviere Saint-Pierre",,-21.0833,55.7333,Reunion,RE,REU,,,,,,172.5,,,4,Indian/Reunion,FALSE,1638412802
"Le Gol les Hauts","Le Gol les Hauts","Le Gôl|Gôl-le Haut",-21.2515,55.4352,Reunion,RE,REU,,,,,,668.8,,,3,Indian/Reunion,FALSE,1638626708
"Ravine Daniel","Ravine Daniel",,-21.0880,55.3061,Reunion,RE,REU,,,,,,521.4,,,3,Indian/Reunion,FALSE,1638000241
"Le Grand Hazier","Le Grand Hazier",,-20.9051,55.5885,Reunion,RE,REU,,,,,,547.9,,,3,Indian/Reunion,FALSE,1638000306
"Lotissement Bellevue","Lotissement Bellevue",,-21.1064,55.2519,Reunion,RE,REU,,,,,,530.2,,,3,Indian/Reunion,FALSE,1638000300
"La Cour du Piton","La Cour du Piton",Piton,-20.9680,55.3010,Reunion,RE,REU,,,,,,530.2,,,3,Indian/Reunion,FALSE,1638201886
"Maison Laclos","Maison Laclos",,-21.0951,55.4376,Reunion,RE,REU,,,,,,530.2,,,3,Indian/Reunion,FALSE,1638000181
"Îlet aux Palmistes","Ilet aux Palmistes","L’Îlet aux Palmistes",-21.3352,55.8016,Reunion,RE,REU,,,,,,32.8,,,4,Indian/Reunion,FALSE,1638002073
"La Confiance les Bas","La Confiance les Bas",,-20.9305,55.5251,Reunion,RE,REU,,,,,,402.6,,,3,Indian/Reunion,FALSE,1638000311
Aloès,Aloes,,-21.2500,55.4500,Reunion,RE,REU,,,,,,668.8,,,3,Indian/Reunion,FALSE,1638305516
"Le Cap Lelièvre","Le Cap Lelievre","Le Cap",-21.1809,55.3033,Reunion,RE,REU,,,,,,299.4,,,3,Indian/Reunion,FALSE,1638875705
"Le Chemin Barbot","Le Chemin Barbot",,-21.2337,55.5220,Reunion,RE,REU,,,,,,545.2,,,3,Indian/Reunion,FALSE,1638000125
"Îlet du Bras Sec","Ilet du Bras Sec",,-21.2247,55.5038,Reunion,RE,REU,,,,,,107.2,,,4,Indian/Reunion,FALSE,1638000054
"La Rivière des Galets","La Riviere des Galets","Rivière|La Rivière",-20.9623,55.3225,Reunion,RE,REU,,,,,,466.9,,,3,Indian/Reunion,FALSE,1638641247
"Jean Petit","Jean Petit",,-21.3386,55.6290,Reunion,RE,REU,,,,,,239.0,,,3,Indian/Reunion,FALSE,1638029080
"L’Étang Saint-Leu","L'Etang Saint-Leu",Étang,-21.1713,55.3053,Reunion,RE,REU,,,,,,299.4,,,3,Indian/Reunion,FALSE,1638121113
"Îlet Nourry","Ilet Nourry",,-20.9917,55.3941,Reunion,RE,REU,,,,,,339.4,,,3,Indian/Reunion,FALSE,1638539690
"Jacques Payet","Jacques Payet",,-21.3403,55.6840,Reunion,RE,REU,,,,,,239.0,,,3,Indian/Reunion,FALSE,1638849997
"Îlet Bois-Rouge","Ilet Bois-Rouge",,-21.0250,55.4052,Reunion,RE,REU,,,,,,340.0,,,3,Indian/Reunion,FALSE,1638394558
"Îlet à Déjeuner","Ilet a Dejeuner",,-20.9959,55.4080,Reunion,RE,REU,,,,,,339.4,,,3,Indian/Reunion,FALSE,1638964832
"Bonne Espérance","Bonne Esperance",,-21.1255,55.7692,Reunion,RE,REU,,,,,,38.8,,,4,Indian/Reunion,FALSE,1638000383
"Le Golf","Le Golf",,-20.8777,55.4222,Reunion,RE,REU,,,,,,1129.4,,,3,Indian/Reunion,FALSE,1638000147
"Chemin Sévère","Chemin Severe",,-21.0633,55.7211,Reunion,RE,REU,,,,,,172.5,,,4,Indian/Reunion,FALSE,1638000087
"Le Vingt-Septième","Le Vingt-Septieme",,-20.9311,55.3605,Reunion,RE,REU,,,,,,339.4,,,3,Indian/Reunion,FALSE,1638000199
"Le Grand Défriché","Le Grand Defriche",,-21.3343,55.6422,Reunion,RE,REU,,,,,,239.0,,,3,Indian/Reunion,FALSE,1638000010
"La Grande Ravine","La Grande Ravine",,-20.9211,55.5992,Reunion,RE,REU,,,,,,547.9,,,3,Indian/Reunion,FALSE,1638000295
"La Grande Ravine","La Grande Ravine",,-21.1258,55.2693,Reunion,RE,REU,,,,,,168.3,,,4,Indian/Reunion,TRUE,1638000240
"L’Allée Coco","L'Allee Coco",,-20.9314,55.5311,Reunion,RE,REU,,,,,,402.6,,,3,Indian/Reunion,FALSE,1638000081
Pausé,Pause,,-21.0726,55.3100,Reunion,RE,REU,,,,,,530.2,,,3,Indian/Reunion,FALSE,1638000049
"La Vigie","La Vigie",,-20.8860,55.4250,Reunion,RE,REU,,,,,,1129.4,,,3,Indian/Reunion,FALSE,1638000145
"Le Parc à Dennemont","Le Parc a Dennemont",,-21.1799,55.4427,Reunion,RE,REU,,,,,,69.5,,,4,Indian/Reunion,FALSE,1638000209
Saint-Louis,Saint-Louis,,-21.2867,55.4092,Reunion,RE,REU,,,,,,668.8,,,3,Indian/Reunion,FALSE,1638089999
Parny,Parny,,-20.9364,55.5265,Reunion,RE,REU,,,,,,402.6,,,3,Indian/Reunion,FALSE,1638000328
"Le Guillaume Jardin","Le Guillaume Jardin",,-21.0492,55.3100,Reunion,RE,REU,,,,,,530.2,,,3,Indian/Reunion,FALSE,1638000220
Duparc,Duparc,,-20.9037,55.5222,Reunion,RE,REU,,,,,,402.6,,,3,Indian/Reunion,FALSE,1638000307
"Bagatelle Pointe Canal","Bagatelle Pointe Canal",,-20.9326,55.5835,Reunion,RE,REU,,,,,,547.9,,,3,Indian/Reunion,FALSE,1638000293
"Cap Noir","Cap Noir",,-20.9938,55.3917,Reunion,RE,REU,,,,,,339.4,,,3,Indian/Reunion,FALSE,1638351520
"La Rivière de l’Est","La Riviere de l'Est","Rivière de l’Est",-21.1199,55.7592,Reunion,RE,REU,,,,,,38.8,,,4,Indian/Reunion,FALSE,1638706787
Corbeil,Corbeil,,-21.0751,55.2820,Reunion,RE,REU,,,,,,530.2,,,3,Indian/Reunion,FALSE,1638000244
"Le Grand Tampon les Hauts","Le Grand Tampon les Hauts",,-21.2801,55.5634,Reunion,RE,REU,,,,,,545.2,,,3,Indian/Reunion,FALSE,1638000018
"Les Orchidées","Les Orchidees",,-20.9088,55.5086,Reunion,RE,REU,,,,,,694.3,,,3,Indian/Reunion,FALSE,1638000069
"Canal du Brûlé","Canal du Brule",,-20.9130,55.4400,Reunion,RE,REU,,,,,,1129.4,,,3,Indian/Reunion,FALSE,1638000373
"La Pointe","La Pointe",,-21.2957,55.5177,Reunion,RE,REU,,,,,,545.2,,,3,Indian/Reunion,FALSE,1638302962
"La Pointe","La Pointe",,-21.0442,55.5304,Reunion,RE,REU,,,,,,67.9,,,4,Indian/Reunion,TRUE,1638000368
"Le Pont d’Yves","Le Pont d'Yves","Pont Dives",-21.2340,55.5051,Reunion,RE,REU,,,,,,493.7,,,3,Indian/Reunion,FALSE,1638460701
"Belle Vue","Belle Vue",,-20.9379,55.4877,Reunion,RE,REU,,,,,,1129.4,,,3,Indian/Reunion,FALSE,1638000317
"La Réunion","La Reunion","Les Cocos|Réunion",-20.9007,55.5365,Reunion,RE,REU,,,,,,402.6,,,3,Indian/Reunion,FALSE,1638185631
"La Cafrine","La Cafrine",Cafrine,-21.3510,55.5113,Reunion,RE,REU,,,,,,883.4,,,3,Indian/Reunion,FALSE,1638298888
"La Révolution","La Revolution",Révolution,-20.9164,55.5576,Reunion,RE,REU,,,,,,402.6,,,3,Indian/Reunion,FALSE,1638841955
Cambuston,Cambuston,,-20.9334,55.6476,Reunion,RE,REU,,,,,,1002.7,,,3,Indian/Reunion,FALSE,1638169402
"Rivière du Mât les Hauts","Riviere du Mat les Hauts","Rivière du Mât-les Hauts|Rivière du Mât|Rivière du Mât Usine",-20.9756,55.6475,Reunion,RE,REU,,,,,,326.2,,,3,Indian/Reunion,FALSE,1638368305
"Le Chemin Richard","Le Chemin Richard",,-21.2420,55.4241,Reunion,RE,REU,,,,,,668.8,,,3,Indian/Reunion,FALSE,1638000197
"Fleurs Jaunes les Hauts","Fleurs Jaunes les Hauts","Fleurs Jaunes-les Hauts",-21.0168,55.5316,Reunion,RE,REU,,,,,,67.9,,,4,Indian/Reunion,FALSE,1638698574
"Bras Mousseline","Bras Mousseline",,-20.9704,55.6079,Reunion,RE,REU,,,,,,1249.1,,,3,Indian/Reunion,FALSE,1638000235
"Bernica-les Bas","Bernica-les Bas",Bernica,-21.0444,55.2811,Reunion,RE,REU,,,,,,530.2,,,3,Indian/Reunion,FALSE,1638937703
"Le Palmiste Rouge","Le Palmiste Rouge",,-21.1702,55.4762,Reunion,RE,REU,,,,,,69.5,,,4,Indian/Reunion,FALSE,1638000041
"Le Baril des Hauts","Le Baril des Hauts",,-21.3610,55.7245,Reunion,RE,REU,,,,,,32.8,,,4,Indian/Reunion,FALSE,1638000036
Saint-Joseph,Saint-Joseph,,-21.3786,55.6192,Reunion,RE,REU,,,,,,239.0,,,3,Indian/Reunion,FALSE,1638817610
Menciol,Menciol,,-20.9618,55.6271,Reunion,RE,REU,,,,,,1249.1,,,3,Indian/Reunion,FALSE,1638651776
"Carreau Coton","Carreau Coton",,-20.9117,55.5186,Reunion,RE,REU,,,,,,402.6,,,3,Indian/Reunion,FALSE,1638000102
"Anse les Bas","Anse les Bas","Anse-les Bas|Orne|Orré|Orres",-21.3639,55.5413,Reunion,RE,REU,,,,,,353.2,,,3,Indian/Reunion,FALSE,1638310667
Morange,Morange,,-21.0951,55.7347,Reunion,RE,REU,,,,,,172.5,,,4,Indian/Reunion,FALSE,1638868273
"La Pente Maingard","La Pente Maingard",,-21.1795,55.3283,Reunion,RE,REU,,,,,,299.4,,,3,Indian/Reunion,FALSE,1638000348
"Le Petit Bernica","Le Petit Bernica",,-21.0274,55.2850,Reunion,RE,REU,,,,,,530.2,,,3,Indian/Reunion,FALSE,1638000251
"Ravine des Cabris","Ravine des Cabris",,-21.2650,55.5082,Reunion,RE,REU,,,,,,545.2,,,3,Indian/Reunion,FALSE,1638858138
Maingard,Maingard,,-20.9119,55.6121,Reunion,RE,REU,,,,,,547.9,,,3,Indian/Reunion,FALSE,1638000072
Bellevue,Bellevue,,-21.2514,55.4030,Reunion,RE,REU,,,,,,668.8,,,3,Indian/Reunion,FALSE,1638933012
Bellevue,Bellevue,,-20.9875,55.6333,Reunion,RE,REU,,,,,,266.2,,,3,Indian/Reunion,TRUE,1638000188
Bellevue,Bellevue,,-21.1523,55.8209,Reunion,RE,REU,,,,,,38.8,,,4,Indian/Reunion,TRUE,1638499756
"Chemin Morange","Chemin Morange",,-21.0897,55.7386,Reunion,RE,REU,,,,,,172.5,,,4,Indian/Reunion,FALSE,1638000258
"La Liberté","La Liberte",,-20.9381,55.6023,Reunion,RE,REU,,,,,,547.9,,,3,Indian/Reunion,FALSE,1638000085
"M. Lamotte","M. Lamotte",,-20.9833,55.6667,Reunion,RE,REU,,,,,,674.2,,,3,Indian/Reunion,FALSE,1638881362
"La Convalescence","La Convalescence",,-20.9235,55.4518,Reunion,RE,REU,,,,,,1129.4,,,3,Indian/Reunion,FALSE,1638000370
"Îlet Quinquina","Ilet Quinquina",,-20.9299,55.5055,Reunion,RE,REU,,,,,,1085.4,,,3,Indian/Reunion,FALSE,1638000074
"Grand Galet","Grand Galet","Le Grand Galet",-21.3108,55.6416,Reunion,RE,REU,,,,,,239.0,,,3,Indian/Reunion,FALSE,1638860624
"Fond Benjoin","Fond Benjoin",,-21.0277,55.2818,Reunion,RE,REU,,,,,,530.2,,,3,Indian/Reunion,FALSE,1638000101
"Le Petit Brûlé","Le Petit Brule",,-21.1268,55.7777,Reunion,RE,REU,,,,,,38.8,,,4,Indian/Reunion,FALSE,1638667830
"Citerne Partage","Citerne Partage",,-21.0428,55.3089,Reunion,RE,REU,,,,,,530.2,,,3,Indian/Reunion,FALSE,1638000033
"Les Grègues","Les Gregues",,-21.3710,55.6101,Reunion,RE,REU,,,,,,239.0,,,3,Indian/Reunion,FALSE,1638000006
"Les Bananes","Les Bananes",,-21.2327,55.3408,Reunion,RE,REU,,,,,,677.9,,,3,Indian/Reunion,FALSE,1638000163
"Le Ruisseau les Hauts","Le Ruisseau les Hauts","Ruisseau|Le Ruisseau",-21.2586,55.4390,Reunion,RE,REU,,,,,,668.8,,,3,Indian/Reunion,FALSE,1638119458
"Îlet des Salazes","Ilet des Salazes",,-21.1126,55.4492,Reunion,RE,REU,,,,,,106.4,,,4,Indian/Reunion,FALSE,1638000182
Pierrefonds,Pierrefonds,"Pierrefonds Usine",-21.3013,55.4297,Reunion,RE,REU,,,,,,883.4,,,3,Indian/Reunion,FALSE,1638316836
Savannah,Savannah,"Savannah Usine",-20.9866,55.2983,Reunion,RE,REU,,,,,,530.2,,,3,Indian/Reunion,FALSE,1638744096
"La Pièce Jeanne","La Piece Jeanne",,-21.2350,55.4018,Reunion,RE,REU,,,,,,668.8,,,3,Indian/Reunion,FALSE,1638000177
Bourbier-Beaulieu,Bourbier-Beaulieu,Beaulieu|Bourbier,-21.0325,55.7002,Reunion,RE,REU,,,,,,172.5,,,4,Indian/Reunion,FALSE,1638350762
"Lotissement Dioré","Lotissement Diore","Le Dioré",-20.9836,55.6191,Reunion,RE,REU,,,,,,750.0,,,3,Indian/Reunion,FALSE,1638430163
"Manapany les Bas","Manapany les Bas",,-21.3688,55.5751,Reunion,RE,REU,,,,,,353.2,,,3,Indian/Reunion,FALSE,1638000021
"La Renaissance","La Renaissance",Renaissance|Repuissance,-20.9272,55.6043,Reunion,RE,REU,,,,,,547.9,,,3,Indian/Reunion,FALSE,1638488997
"La Renaissance","La Renaissance",,-21.0300,55.2689,Reunion,RE,REU,,,,,,530.2,,,3,Indian/Reunion,TRUE,1638777137
"Mon Repos","Mon Repos",,-20.9554,55.6233,Reunion,RE,REU,,,,,,1204.9,,,3,Indian/Reunion,FALSE,1638000230
"Le Lambert les Hauts","Le Lambert les Hauts",,-21.2441,55.3740,Reunion,RE,REU,,,,,,381.5,,,3,Indian/Reunion,FALSE,1638000352
"Grand Bassin","Grand Bassin",,-21.1824,55.5340,Reunion,RE,REU,,,,,,107.2,,,4,Indian/Reunion,FALSE,1638587930
Frédeline,Fredeline,,-21.3086,55.4698,Reunion,RE,REU,,,,,,883.4,,,3,Indian/Reunion,FALSE,1638000212
"Quartier Français","Quartier Francais",Quartier-Français,-20.9325,55.6383,Reunion,RE,REU,,,,,,789.6,,,3,Indian/Reunion,FALSE,1638989477
"Le Chemin Canal","Le Chemin Canal",,-21.1781,55.2924,Reunion,RE,REU,,,,,,299.4,,,3,Indian/Reunion,FALSE,1638000347
"La Roche Marianne","La Roche Marianne",,-21.0093,55.3128,Reunion,RE,REU,,,,,,530.2,,,3,Indian/Reunion,FALSE,1638000365
"Îlet à Calebasse","Ilet a Calebasse",,-21.1797,55.4804,Reunion,RE,REU,,,,,,69.5,,,4,Indian/Reunion,FALSE,1638000211
"Le Tan Rouge","Le Tan Rouge",,-21.2027,55.3421,Reunion,RE,REU,,,,,,299.4,,,3,Indian/Reunion,FALSE,1638000172
"Les Canots","Les Canots",,-21.0278,55.3079,Reunion,RE,REU,,,,,,530.2,,,3,Indian/Reunion,FALSE,1638000250
"Les Canots","Les Canots",,-21.2497,55.3638,Reunion,RE,REU,,,,,,381.5,,,3,Indian/Reunion,TRUE,1638871917
"Le Souffleur d’Arbonne","Le Souffleur d'Arbonne",,-21.3675,55.7371,Reunion,RE,REU,,,,,,32.8,,,4,Indian/Reunion,FALSE,1638000380
"Deuxième Village","Deuxieme Village",,-21.1448,55.6194,Reunion,RE,REU,,,,,,97.6,,,4,Indian/Reunion,FALSE,1638000112
"La Bergerie","La Bergerie",,-21.2574,55.5966,Reunion,RE,REU,,,,,,545.0,,,3,Indian/Reunion,FALSE,1638000122
"Jean Petit les Bas","Jean Petit les Bas","Jean Petit-les Bas",-21.3705,55.6231,Reunion,RE,REU,,,,,,239.0,,,3,Indian/Reunion,FALSE,1638655864
Petite-Île,Petite-Ile,"Petite Île|Village de la Petite Ile",-21.3558,55.5658,Reunion,RE,REU,,,,,,353.2,,,3,Indian/Reunion,FALSE,1638360853
"Ravine des Chèvres les Bas","Ravine des Chevres les Bas","Ravine des Chèvres|Grande Ravine",-20.8954,55.5707,Reunion,RE,REU,,,,,,402.6,,,3,Indian/Reunion,FALSE,1638137892
"Les Jacques Bel-Air","Les Jacques Bel-Air",,-20.9103,55.5959,Reunion,RE,REU,,,,,,547.9,,,3,Indian/Reunion,FALSE,1638000304
"Premier Village","Premier Village",,-21.1292,55.6355,Reunion,RE,REU,,,,,,97.6,,,4,Indian/Reunion,FALSE,1638000115
Takamaka,Takamaka,,-21.3186,55.8008,Reunion,RE,REU,,,,,,32.8,,,4,Indian/Reunion,FALSE,1638519841
"Le Cap à Paul","Le Cap a Paul",,-21.0460,55.2270,Reunion,RE,REU,,,,,,530.2,,,3,Indian/Reunion,FALSE,1638000297
"Le Chemin Diale","Le Chemin Diale",,-21.1641,55.3071,Reunion,RE,REU,,,,,,299.4,,,3,Indian/Reunion,FALSE,1638000261
"Le Vingt-Huitième","Le Vingt-Huitieme",,-20.9281,55.3494,Reunion,RE,REU,,,,,,339.4,,,3,Indian/Reunion,FALSE,1638000200
"Champ Fleuri","Champ Fleuri",,-20.8897,55.4678,Reunion,RE,REU,,,,,,1129.4,,,3,Indian/Reunion,FALSE,1638000340
"Le Dix-Septième","Le Dix-Septieme",,-21.2450,55.5248,Reunion,RE,REU,,,,,,545.2,,,3,Indian/Reunion,FALSE,1638117441
"Trou Blanc","Trou Blanc",,-21.0614,55.4956,Reunion,RE,REU,,,,,,67.9,,,4,Indian/Reunion,FALSE,1638000325
"Le Bocage","Le Bocage",,-20.9495,55.6406,Reunion,RE,REU,,,,,,1097.1,,,3,Indian/Reunion,FALSE,1638000232
Refuge,Refuge,,-20.9998,55.6670,Reunion,RE,REU,,,,,,156.2,,,4,Indian/Reunion,FALSE,1638000254
"Le Chemin Dureau","Le Chemin Dureau",,-21.1257,55.6421,Reunion,RE,REU,,,,,,97.6,,,4,Indian/Reunion,FALSE,1638000132
"Îlet à Cordes","Ilet a Cordes",,-21.1541,55.4372,Reunion,RE,REU,,,,,,69.5,,,4,Indian/Reunion,FALSE,1638848748
"Le Cap Camélias","Le Cap Camelias",,-21.1715,55.3284,Reunion,RE,REU,,,,,,299.4,,,3,Indian/Reunion,FALSE,1638000174
Girofle,Girofle,,-21.3710,55.6875,Reunion,RE,REU,,,,,,239.0,,,3,Indian/Reunion,FALSE,1638284799
"Ravine des Cafres-les Bas","Ravine des Cafres-les Bas",,-21.3499,55.5083,Reunion,RE,REU,,,,,,883.4,,,3,Indian/Reunion,FALSE,1638000000
"Étang-les Hauts","Etang-les Hauts","Etanq les Hauts",-21.1333,55.3333,Reunion,RE,REU,,,,,,299.4,,,3,Indian/Reunion,FALSE,1638149242
"Grand Fond Extérieur","Grand Fond Exterieur",,-21.2359,55.4628,Reunion,RE,REU,,,,,,202.1,,,3,Indian/Reunion,FALSE,1638000107
Bel-Air,Bel-Air,"Bel Air",-21.2932,55.3975,Reunion,RE,REU,,,,,,668.8,,,3,Indian/Reunion,FALSE,1638338951
Bel-Air,Bel-Air,"Bel Air",-21.2877,55.5122,Reunion,RE,REU,,,,,,548.4,,,3,Indian/Reunion,TRUE,1638802170
Bel-Air,Bel-Air,"Bel Air",-20.9053,55.5930,Reunion,RE,REU,,,,,,547.9,,,3,Indian/Reunion,TRUE,1638068315
Bel-Air,Bel-Air,,-21.0113,55.3342,Reunion,RE,REU,,,,,,530.2,,,3,Indian/Reunion,TRUE,1638000327
"Bras des Calumets","Bras des Calumets",,-21.1606,55.6175,Reunion,RE,REU,,,,,,97.6,,,4,Indian/Reunion,FALSE,1638527173
"Moulin Maïs","Moulin Mais",,-20.9701,55.3147,Reunion,RE,REU,,,,,,530.2,,,3,Indian/Reunion,FALSE,1638000051
Vincendo,Vincendo,,-21.3710,55.6701,Reunion,RE,REU,,,,,,239.0,,,3,Indian/Reunion,FALSE,1638271770
Vincendo,Vincendo,,-20.9856,55.6447,Reunion,RE,REU,,,,,,156.2,,,4,Indian/Reunion,TRUE,1638000263
Maduran,Maduran,,-21.2084,55.2989,Reunion,RE,REU,,,,,,299.4,,,3,Indian/Reunion,FALSE,1638000157
"Saint-Gilles les Hauts","Saint-Gilles les Hauts","Saint-Gilles-les Hauts",-21.0502,55.2700,Reunion,RE,REU,,,,,,530.2,,,3,Indian/Reunion,FALSE,1638383951
Trinité,Trinite,,-21.3333,55.7667,Reunion,RE,REU,,,,,,32.8,,,4,Indian/Reunion,FALSE,1638992070
"Les Sables","Les Sables",,-21.2770,55.3731,Reunion,RE,REU,,,,,,381.5,,,3,Indian/Reunion,FALSE,1638000190
Saint-François,Saint-Francois,,-20.9170,55.4589,Reunion,RE,REU,,,,,,1129.4,,,3,Indian/Reunion,FALSE,1638877713
Saint-François,Saint-Francois,,-21.0697,55.7329,Reunion,RE,REU,,,,,,172.5,,,4,Indian/Reunion,TRUE,1638998576
"La Petite Savoie","La Petite Savoie",,-21.0551,55.3547,Reunion,RE,REU,,,,,,530.2,,,3,Indian/Reunion,FALSE,1638000357
"Mont Vert les Hauts","Mont Vert les Hauts","Montvert-les Hauts",-21.3169,55.5527,Reunion,RE,REU,,,,,,473.3,,,3,Indian/Reunion,FALSE,1638695358
"Bras Canot","Bras Canot",,-21.0709,55.2919,Reunion,RE,REU,,,,,,530.2,,,3,Indian/Reunion,FALSE,1638000243
"Bras Canot","Bras Canot",,-21.0501,55.7019,Reunion,RE,REU,,,,,,172.5,,,4,Indian/Reunion,TRUE,1638539478
"Basse Terre les Bas","Basse Terre les Bas",,-21.3272,55.4785,Reunion,RE,REU,,,,,,883.4,,,3,Indian/Reunion,FALSE,1638000215
Gillot,Gillot,,-20.9038,55.5077,Reunion,RE,REU,,,,,,1129.4,,,3,Indian/Reunion,FALSE,1638021416
Espérance,Esperance,,-20.9511,55.6080,Reunion,RE,REU,,,,,,547.9,,,3,Indian/Reunion,FALSE,1638097207
Cayenne,Cayenne,,-21.0393,55.4046,Reunion,RE,REU,,,,,,339.4,,,3,Indian/Reunion,FALSE,1638000046
Cayenne,Cayenne,,-21.1552,55.2837,Reunion,RE,REU,,,,,,299.4,,,3,Indian/Reunion,TRUE,1638000262
Sainte-Vivienne,Sainte-Vivienne,,-20.9367,55.6368,Reunion,RE,REU,,,,,,562.7,,,3,Indian/Reunion,FALSE,1638000379
"Les Quatre Cents","Les Quatre Cents","Les Quatre-Cents",-21.2707,55.4955,Reunion,RE,REU,,,,,,760.2,,,3,Indian/Reunion,FALSE,1638397507
"Le Vingt-Cinquième","Le Vingt-Cinquieme",,-20.9262,55.3663,Reunion,RE,REU,,,,,,339.4,,,3,Indian/Reunion,FALSE,1638000198
Cascades,Cascades,,-21.1500,55.8333,Reunion,RE,REU,,,,,,38.8,,,4,Indian/Reunion,FALSE,1638191710
"Lotissement de la Pointe des Châteaux","Lotissement de la Pointe des Chateaux",,-21.1459,55.2772,Reunion,RE,REU,,,,,,299.4,,,3,Indian/Reunion,FALSE,1638000238
"Le Martyr","Le Martyr",,-21.0189,55.3399,Reunion,RE,REU,,,,,,530.2,,,3,Indian/Reunion,FALSE,1638000366
"Le Trou d’Eau","Le Trou d'Eau",,-21.0992,55.2451,Reunion,RE,REU,,,,,,530.2,,,3,Indian/Reunion,FALSE,1638000095
"Bois de Nèfles","Bois de Nefles",,-20.9169,55.4749,Reunion,RE,REU,,,,,,1129.4,,,3,Indian/Reunion,FALSE,1638771896
"Bois de Nèfles","Bois de Nefles","Le Bois de Nèfles",-20.9970,55.3270,Reunion,RE,REU,,,,,,530.2,,,3,Indian/Reunion,TRUE,1638030151
"A. Dubuisson","A. Dubuisson",,-21.1738,55.3085,Reunion,RE,REU,,,,,,299.4,,,3,Indian/Reunion,FALSE,1638811193
"La Rivière","La Riviere",Rivières,-21.2661,55.4404,Reunion,RE,REU,,,,,,668.8,,,3,Indian/Reunion,FALSE,1638385451
"Îlet Cazal","Ilet Cazal",,-21.3640,55.7425,Reunion,RE,REU,,,,,,32.8,,,4,Indian/Reunion,FALSE,1638000381
Bethléem,Bethleem,,-21.0391,55.6744,Reunion,RE,REU,,,,,,172.5,,,4,Indian/Reunion,FALSE,1638010073
"Le Ruisseau","Le Ruisseau",,-21.0082,55.3201,Reunion,RE,REU,,,,,,530.2,,,3,Indian/Reunion,FALSE,1638000218
"La Palmeraie","La Palmeraie",,-20.9446,55.3374,Reunion,RE,REU,,,,,,339.4,,,3,Indian/Reunion,FALSE,1638000360
"Bras Madeleine","Bras Madeleine","Bras Magdeleine",-21.0566,55.6976,Reunion,RE,REU,,,,,,172.5,,,4,Indian/Reunion,FALSE,1638177939
"Îlet Denise","Ilet Denise",,-20.9787,55.3633,Reunion,RE,REU,,,,,,361.7,,,3,Indian/Reunion,FALSE,1638664643
"Parc Mouton","Parc Mouton",,-21.3568,55.6587,Reunion,RE,REU,,,,,,239.0,,,3,Indian/Reunion,FALSE,1638000129
"Camp des Évis","Camp des Evis",,-20.9397,55.6327,Reunion,RE,REU,,,,,,547.9,,,3,Indian/Reunion,FALSE,1638000284
Avenir,Avenir,,-20.9319,55.3359,Reunion,RE,REU,,,,,,339.4,,,3,Indian/Reunion,FALSE,1638964656
"Petit Trou","Petit Trou",,-21.0012,55.5899,Reunion,RE,REU,,,,,,485.9,,,3,Indian/Reunion,FALSE,1638000291
"Ravine du Pont-les Bas","Ravine du Pont-les Bas",,-21.3500,55.5667,Reunion,RE,REU,,,,,,353.2,,,3,Indian/Reunion,FALSE,1638832860
"Le Cap","Le Cap",,-21.2548,55.3828,Reunion,RE,REU,,,,,,381.5,,,3,Indian/Reunion,FALSE,1638000367
"Le Cap","Le Cap",,-21.0779,55.7237,Reunion,RE,REU,,,,,,172.5,,,4,Indian/Reunion,TRUE,1638266692
"Le Cap","Le Cap","Palmistes Rouges|Ilet du Palmiste Rouge",-21.1657,55.4808,Reunion,RE,REU,,,,,,69.5,,,4,Indian/Reunion,TRUE,1638013988
"Trois Mares","Trois Mares","Les Trois Mares",-21.2584,55.5007,Reunion,RE,REU,,,,,,545.2,,,3,Indian/Reunion,FALSE,1638561980
"Îlet Bananiers","Ilet Bananiers",,-21.0356,55.5377,Reunion,RE,REU,,,,,,67.9,,,4,Indian/Reunion,FALSE,1638000260
"Terre Rouge","Terre Rouge",,-21.3447,55.5040,Reunion,RE,REU,,,,,,883.4,,,3,Indian/Reunion,FALSE,1638382173
"Lianes Passage","Lianes Passage",,-21.3385,55.5867,Reunion,RE,REU,,,,,,346.1,,,3,Indian/Reunion,FALSE,1638000003
"Beaumont les Hauts","Beaumont les Hauts",,-20.9497,55.5339,Reunion,RE,REU,,,,,,402.6,,,3,Indian/Reunion,FALSE,1638000313
L’Œil-de-Bœuf,L'OEil-de-Boeuf,,-21.0723,55.2269,Reunion,RE,REU,,,,,,530.2,,,3,Indian/Reunion,FALSE,1638000034
Matouta,Matouta,,-21.3587,55.6997,Reunion,RE,REU,,,,,,239.0,,,3,Indian/Reunion,FALSE,1638232502
"La Ferme","La Ferme",,-21.2680,55.4507,Reunion,RE,REU,,,,,,538.6,,,3,Indian/Reunion,FALSE,1638000194
"Îlet à Bourse les Hauts","Ilet a Bourse les Hauts",,-21.0439,55.4291,Reunion,RE,REU,,,,,,339.4,,,3,Indian/Reunion,FALSE,1638000332
"Bourbier les Bas","Bourbier les Bas",,-21.0225,55.7026,Reunion,RE,REU,,,,,,172.5,,,4,Indian/Reunion,FALSE,1638000135
"Madame Paule","Madame Paule",,-21.0674,55.2604,Reunion,RE,REU,,,,,,530.2,,,3,Indian/Reunion,FALSE,1638000030
"Le Vingt-Sixième","Le Vingt-Sixieme",,-20.9264,55.3604,Reunion,RE,REU,,,,,,339.4,,,3,Indian/Reunion,FALSE,1638000187
"Piton Hyacinthe","Piton Hyacinthe",,-21.2216,55.5262,Reunion,RE,REU,,,,,,545.2,,,3,Indian/Reunion,FALSE,1638000123
"Le Bras de Pontho","Le Bras de Pontho",,-21.2413,55.4914,Reunion,RE,REU,,,,,,107.2,,,4,Indian/Reunion,FALSE,1638000108
"La Pente d’Orange","La Pente d'Orange",,-21.2550,55.4657,Reunion,RE,REU,,,,,,108.4,,,4,Indian/Reunion,FALSE,1638000109
"Les Jacques","Les Jacques",,-20.9033,55.5595,Reunion,RE,REU,,,,,,402.6,,,3,Indian/Reunion,FALSE,1638000322
"Les Jacques","Les Jacques",,-21.3765,55.6308,Reunion,RE,REU,,,,,,239.0,,,3,Indian/Reunion,TRUE,1638155861
"Les Jacques","Les Jacques",,-21.0708,55.7015,Reunion,RE,REU,,,,,,172.5,,,4,Indian/Reunion,TRUE,1638072940
"Les Yuccas","Les Yuccas",,-20.9458,55.6812,Reunion,RE,REU,,,,,,1249.1,,,3,Indian/Reunion,FALSE,1638000228
"Le Petit Serré","Le Petit Serre","Petit Serré",-21.2145,55.4547,Reunion,RE,REU,,,,,,668.8,,,3,Indian/Reunion,FALSE,1638978314
"Peter Both","Peter Both","Peter-boot|Îlet du Peter-Boot",-21.1722,55.4610,Reunion,RE,REU,,,,,,69.5,,,4,Indian/Reunion,FALSE,1638440828
"Petite Plaine","Petite Plaine",,-21.3214,55.6118,Reunion,RE,REU,,,,,,239.0,,,3,Indian/Reunion,FALSE,1638000009
"Bras Piton","Bras Piton",,-21.1586,55.6304,Reunion,RE,REU,,,,,,209.2,,,3,Indian/Reunion,FALSE,1638000113
"La Plaine du Bois de Nèfles","La Plaine du Bois de Nefles",,-21.2025,55.4332,Reunion,RE,REU,,,,,,668.8,,,3,Indian/Reunion,FALSE,1638000208
"Îlet Coco","Ilet Coco",,-21.0435,55.6895,Reunion,RE,REU,,,,,,172.5,,,4,Indian/Reunion,FALSE,1638000141
"La Cabane","La Cabane",,-21.0135,55.7009,Reunion,RE,REU,,,,,,172.5,,,4,Indian/Reunion,FALSE,1638000139
"Le Petit Tampon","Le Petit Tampon",,-21.2787,55.5430,Reunion,RE,REU,,,,,,545.2,,,3,Indian/Reunion,FALSE,1638240944
"Îlet Cerneau","Ilet Cerneau",,-21.0695,55.4264,Reunion,RE,REU,,,,,,339.4,,,3,Indian/Reunion,FALSE,1638000330
"Les Ramiers","Les Ramiers","Le Ramier",-21.0252,55.5325,Reunion,RE,REU,,,,,,67.9,,,4,Indian/Reunion,FALSE,1638191974
"Bras Mouton","Bras Mouton",,-21.1449,55.3009,Reunion,RE,REU,,,,,,299.4,,,3,Indian/Reunion,FALSE,1638000226
"Le Bassin Souris","Le Bassin Souris",,-21.0772,55.2933,Reunion,RE,REU,,,,,,530.2,,,3,Indian/Reunion,FALSE,1638000242
"La Forêt Dugain","La Foret Dugain",,-20.9769,55.5862,Reunion,RE,REU,,,,,,1176.4,,,3,Indian/Reunion,FALSE,1638000252
Marla,Marla,,-21.1036,55.4332,Reunion,RE,REU,,,,,,530.2,,,3,Indian/Reunion,FALSE,1638000180
"La Ravine des Cafres les Hauts","La Ravine des Cafres les Hauts","Ravine des Cafres-les Hauts",-21.3373,55.5187,Reunion,RE,REU,,,,,,883.4,,,3,Indian/Reunion,FALSE,1638277201
"La Montée Panon","La Montee Panon",,-21.0909,55.2645,Reunion,RE,REU,,,,,,530.2,,,3,Indian/Reunion,FALSE,1638000099
"La Plaine aux Sables","La Plaine aux Sables",,-21.0930,55.4207,Reunion,RE,REU,,,,,,411.3,,,3,Indian/Reunion,FALSE,1638000279
Bémahot,Bemahot,,-21.0730,55.5228,Reunion,RE,REU,,,,,,67.9,,,4,Indian/Reunion,FALSE,1638000168
"La Ravine Blanche","La Ravine Blanche","Ravine Blanche",-21.3371,55.4605,Reunion,RE,REU,,,,,,883.4,,,3,Indian/Reunion,FALSE,1638622059
"La Ravine Blanche","La Ravine Blanche",,-21.2344,55.5681,Reunion,RE,REU,,,,,,545.2,,,3,Indian/Reunion,TRUE,1638000120
"Trois Mares les Hauts","Trois Mares les Hauts","Trois Mares-les Hauts",-21.2441,55.5128,Reunion,RE,REU,,,,,,545.2,,,3,Indian/Reunion,FALSE,1638082773
"Camp de Pierrot","Camp de Pierrot",,-21.0542,55.4689,Reunion,RE,REU,,,,,,67.9,,,4,Indian/Reunion,FALSE,1638284855
"Mare Sèche","Mare Seche",,-21.1501,55.4637,Reunion,RE,REU,,,,,,69.5,,,4,Indian/Reunion,FALSE,1638000060
"Les Cocos","Les Cocos",,-21.2840,55.4366,Reunion,RE,REU,,,,,,846.1,,,3,Indian/Reunion,FALSE,1638988352
"La Croix","La Croix",,-21.0600,55.2992,Reunion,RE,REU,,,,,,530.2,,,3,Indian/Reunion,FALSE,1638000247
"La Ressource Barau","La Ressource Barau","Ressource|La Ressource",-20.9187,55.5703,Reunion,RE,REU,,,,,,402.6,,,3,Indian/Reunion,FALSE,1638211731
Desbassyns,Desbassyns,,-20.9173,55.5093,Reunion,RE,REU,,,,,,733.0,,,3,Indian/Reunion,FALSE,1638380626
"Bras des Chevrettes","Bras des Chevrettes",,-20.9670,55.6246,Reunion,RE,REU,,,,,,1249.1,,,3,Indian/Reunion,FALSE,1638987803
"Ravine Martin","Ravine Martin",,-21.1667,55.4500,Reunion,RE,REU,,,,,,69.5,,,4,Indian/Reunion,FALSE,1638676894
Chiendent,Chiendent,,-20.9370,55.5437,Reunion,RE,REU,,,,,,402.6,,,3,Indian/Reunion,FALSE,1638399072
"Ravine Ango","Ravine Ango","Ravine d’Ango",-21.3498,55.7911,Reunion,RE,REU,,,,,,32.8,,,4,Indian/Reunion,FALSE,1638794761
Mahavel,Mahavel,,-21.2758,55.4691,Reunion,RE,REU,,,,,,883.4,,,3,Indian/Reunion,FALSE,1638534174
"Rivière des Pluies","Riviere des Pluies","La Rivière des Pluies",-20.8828,55.5022,Reunion,RE,REU,,,,,,694.3,,,3,Indian/Reunion,FALSE,1638600735
"Petite Île","Petite Ile","La Petite Île",-20.8802,55.4416,Reunion,RE,REU,,,,,,1129.4,,,3,Indian/Reunion,FALSE,1638356864
"Les Brises","Les Brises",,-20.8826,55.4257,Reunion,RE,REU,,,,,,1129.4,,,3,Indian/Reunion,FALSE,1638000146
"Le Port","Le Port","La Point-aux-galets|Port des Galets|Le Port des Galets|Port de la Pointe des Galets|Port",-20.9394,55.2872,Reunion,RE,REU,,,,,,2545.3,,,2,Indian/Reunion,FALSE,1638720209
"Ravine à Marquet","Ravine a Marquet",,-20.9500,55.3333,Reunion,RE,REU,,,,,,477.6,,,3,Indian/Reunion,FALSE,1638958873
"La Petite Pointe","La Petite Pointe",,-20.9535,55.3041,Reunion,RE,REU,,,,,,2545.3,,,2,Indian/Reunion,FALSE,1638000359
Bésave,Besave,"Le Bésave",-21.3619,55.6068,Reunion,RE,REU,,,,,,239.0,,,3,Indian/Reunion,FALSE,1638351556
"Maison Moullan","Maison Moullan",,-21.0333,55.5000,Reunion,RE,REU,,,,,,67.9,,,4,Indian/Reunion,FALSE,1638557757
"Cœur de Mafate","Coeur de Mafate",,-21.0449,55.4089,Reunion,RE,REU,,,,,,339.4,,,3,Indian/Reunion,FALSE,1638000333
Bagatelle,Bagatelle,,-20.9280,55.5818,Reunion,RE,REU,,,,,,506.6,,,3,Indian/Reunion,FALSE,1638050697
Flacourt,Flacourt,,-20.9164,55.5531,Reunion,RE,REU,,,,,,402.6,,,3,Indian/Reunion,FALSE,1638658794
"La Cour","La Cour",,-21.0626,55.3245,Reunion,RE,REU,,,,,,530.2,,,3,Indian/Reunion,FALSE,1638000221
"Deux Rives","Deux Rives",,-20.9534,55.6181,Reunion,RE,REU,,,,,,1204.9,,,3,Indian/Reunion,FALSE,1638000286
Montgaillard,Montgaillard,,-20.9017,55.4669,Reunion,RE,REU,,,,,,1129.4,,,3,Indian/Reunion,FALSE,1638000341
Paniandy,Paniandy,,-20.9855,55.6564,Reunion,RE,REU,,,,,,156.2,,,4,Indian/Reunion,FALSE,1638000265
"Ravine des Chèvres","Ravine des Chevres",,-20.9258,55.5746,Reunion,RE,REU,,,,,,402.6,,,3,Indian/Reunion,FALSE,1638000294
"Dos d’Âne","Dos d'Ane",,-20.9841,55.3812,Reunion,RE,REU,,,,,,339.4,,,3,Indian/Reunion,FALSE,1638158608
"Les Camélias","Les Camelias",,-20.8948,55.4629,Reunion,RE,REU,,,,,,1129.4,,,3,Indian/Reunion,FALSE,1638257332
"Les Camélias","Les Camelias",,-21.1648,55.3284,Reunion,RE,REU,,,,,,299.4,,,3,Indian/Reunion,TRUE,1638000224
"Les Vacoas","Les Vacoas",Vacoas,-21.3167,55.8000,Reunion,RE,REU,,,,,,32.8,,,4,Indian/Reunion,FALSE,1638124530
"Chemin César","Chemin Cesar",,-21.3500,55.5833,Reunion,RE,REU,,,,,,353.2,,,3,Indian/Reunion,FALSE,1638693772
L’Éperon,L'Eperon,,-21.2471,55.4129,Reunion,RE,REU,,,,,,668.8,,,3,Indian/Reunion,FALSE,1638086992
L’Éperon,L'Eperon,Éperon,-21.0427,55.2547,Reunion,RE,REU,,,,,,530.2,,,3,Indian/Reunion,TRUE,1638640069
"Le Lambert","Le Lambert",,-21.2572,55.3751,Reunion,RE,REU,,,,,,381.5,,,3,Indian/Reunion,FALSE,1638841774
"Cap Blanc","Cap Blanc",,-21.2870,55.6500,Reunion,RE,REU,,,,,,239.0,,,3,Indian/Reunion,FALSE,1638542558
"Maison James Biget","Maison James Biget",,-21.2156,55.5211,Reunion,RE,REU,,,,,,538.7,,,3,Indian/Reunion,FALSE,1638239629
"Bois Rouge","Bois Rouge","Bois Rouqe Usine|Bois-Rouge",-20.9145,55.6377,Reunion,RE,REU,,,,,,1249.1,,,3,Indian/Reunion,FALSE,1638192319
"Bois Rouge","Bois Rouge",,-21.0217,55.2885,Reunion,RE,REU,,,,,,530.2,,,3,Indian/Reunion,TRUE,1638000249
"Îlet Fleurs Jaunes","Ilet Fleurs Jaunes",,-21.0129,55.5406,Reunion,RE,REU,,,,,,67.9,,,4,Indian/Reunion,FALSE,1638000151
"Ravine Sèche","Ravine Seche",,-21.2434,55.3547,Reunion,RE,REU,,,,,,620.6,,,3,Indian/Reunion,FALSE,1638188225
"Ligne Matouta","Ligne Matouta",,-21.3656,55.6863,Reunion,RE,REU,,,,,,239.0,,,3,Indian/Reunion,FALSE,1638000023
"Les Canaux","Les Canaux",,-21.2356,55.4172,Reunion,RE,REU,,,,,,668.8,,,3,Indian/Reunion,FALSE,1638000207
"Le Verger Hémery","Le Verger Hemery","Verger Hemery",-21.3643,55.5449,Reunion,RE,REU,,,,,,353.2,,,3,Indian/Reunion,FALSE,1638047712
Casabona,Casabona,,-21.3347,55.4671,Reunion,RE,REU,,,,,,883.4,,,3,Indian/Reunion,FALSE,1638666008
"La Ligne Paradis","La Ligne Paradis",,-21.3130,55.4737,Reunion,RE,REU,,,,,,883.4,,,3,Indian/Reunion,FALSE,1638000213
"Ravine Grosse Roche","Ravine Grosse Roche",,-21.0232,55.5356,Reunion,RE,REU,,,,,,67.9,,,4,Indian/Reunion,FALSE,1638000153
"La Butte Guinot","La Butte Guinot",,-21.2609,55.3554,Reunion,RE,REU,,,,,,381.5,,,3,Indian/Reunion,FALSE,1638000159
Saint-André,Saint-Andre,,-20.9606,55.6506,Reunion,RE,REU,,,,,,1249.1,,,3,Indian/Reunion,FALSE,1638018270
"Mare à Goyaves","Mare a Goyaves",,-21.0217,55.5361,Reunion,RE,REU,,,,,,67.9,,,4,Indian/Reunion,FALSE,1638000152
"Le Plateau","Le Plateau",,-21.3791,55.6608,Reunion,RE,REU,,,,,,239.0,,,3,Indian/Reunion,FALSE,1638000004
"Le Plateau","Le Plateau",,-21.0302,55.5056,Reunion,RE,REU,,,,,,67.9,,,4,Indian/Reunion,TRUE,1638000339
Pitou,Pitou,,-21.0146,55.6874,Reunion,RE,REU,,,,,,172.5,,,4,Indian/Reunion,FALSE,1638000140
"Les Cascades","Les Cascades",,-20.9181,55.6133,Reunion,RE,REU,,,,,,547.9,,,3,Indian/Reunion,FALSE,1638000073
"La Confiance les Hauts","La Confiance les Hauts",,-20.9459,55.5247,Reunion,RE,REU,,,,,,402.6,,,3,Indian/Reunion,FALSE,1638000314
"Ravine Renaud","Ravine Renaud",,-21.0034,55.3005,Reunion,RE,REU,,,,,,530.2,,,3,Indian/Reunion,FALSE,1638000362
"Le Cratère","Le Cratere",,-21.0504,55.6830,Reunion,RE,REU,,,,,,172.5,,,4,Indian/Reunion,FALSE,1638690193
"Le Tapage","Le Tapage",,-21.2414,55.4445,Reunion,RE,REU,,,,,,668.8,,,3,Indian/Reunion,FALSE,1638000196
"La Grande Chaloupe","La Grande Chaloupe","Grande Chaloupe",-20.8977,55.3752,Reunion,RE,REU,,,,,,1129.4,,,3,Indian/Reunion,FALSE,1638101459
"Le Brûlé","Le Brule",Brûlé,-20.9220,55.4361,Reunion,RE,REU,,,,,,1129.4,,,3,Indian/Reunion,FALSE,1638422227
"Le Brûlé","Le Brule",,-21.2500,55.3447,Reunion,RE,REU,,,,,,724.1,,,3,Indian/Reunion,TRUE,1638000161
"Saline-les Hauts","Saline-les Hauts",,-21.0926,55.3055,Reunion,RE,REU,,,,,,200.7,,,3,Indian/Reunion,FALSE,1638570052
L’Étang,L'Etang,"Etang de Saint Andre|Etang",-20.9294,55.6556,Reunion,RE,REU,,,,,,1249.1,,,3,Indian/Reunion,FALSE,1638220920
"Rivière du Mât les Bas","Riviere du Mat les Bas","Rivière du Mât-les Bas|Ravine du Mât les Bas",-20.9698,55.6892,Reunion,RE,REU,,,,,,907.8,,,3,Indian/Reunion,FALSE,1638456777
Bécabot,Becabot,"Bé Cabot",-21.0155,55.5056,Reunion,RE,REU,,,,,,67.9,,,4,Indian/Reunion,FALSE,1638919912
"La Mare","La Mare",,-20.9534,55.3539,Reunion,RE,REU,,,,,,339.4,,,3,Indian/Reunion,TRUE,1638495735
"La Mare","La Mare",,-21.2458,55.4705,Reunion,RE,REU,,,,,,107.2,,,4,Indian/Reunion,TRUE,1638000105
"Îlet à Bourse","Ilet a Bourse",,-21.0405,55.4260,Reunion,RE,REU,,,,,,339.4,,,3,Indian/Reunion,FALSE,1638000164
"La Marine","La Marine",,-20.9128,55.6231,Reunion,RE,REU,,,,,,547.9,,,3,Indian/Reunion,FALSE,1638799633
"La Marine","La Marine",,-21.0194,55.7035,Reunion,RE,REU,,,,,,172.5,,,4,Indian/Reunion,TRUE,1638000136
"La Marine","La Marine",,-21.1273,55.7854,Reunion,RE,REU,,,,,,38.8,,,4,Indian/Reunion,TRUE,1638434948
"La Marine","La Marine",,-21.3638,55.7675,Reunion,RE,REU,,,,,,32.8,,,4,Indian/Reunion,TRUE,1638000382
"Piton Sainte-Rose","Piton Sainte-Rose",Piton,-21.1564,55.8233,Reunion,RE,REU,,,,,,38.8,,,4,Indian/Reunion,FALSE,1638084319
Beaumont,Beaumont,,-20.9386,55.5309,Reunion,RE,REU,,,,,,402.6,,,3,Indian/Reunion,FALSE,1638617545
"Îlet Techer","Ilet Techer",,-21.1983,55.5182,Reunion,RE,REU,,,,,,107.2,,,4,Indian/Reunion,FALSE,1638597731
L’Entre-Deux,L'Entre-Deux,,-21.2486,55.4703,Reunion,RE,REU,,,,,,381.5,,,3,Indian/Reunion,FALSE,1638000178
"Îlet la Pluie","Ilet la Pluie",,-20.9518,55.4951,Reunion,RE,REU,,,,,,643.3,,,3,Indian/Reunion,FALSE,1638000318
Sainte-Marie,Sainte-Marie,,-20.8969,55.5492,Reunion,RE,REU,,,,,,402.6,,,3,Indian/Reunion,FALSE,1638792869
"Le Vingt-Troisième","Le Vingt-Troisieme",,-21.2244,55.5417,Reunion,RE,REU,,,,,,545.2,,,3,Indian/Reunion,FALSE,1638000124
"Îlet Tommic","Ilet Tommic",,-21.1500,55.4667,Reunion,RE,REU,,,,,,69.5,,,4,Indian/Reunion,FALSE,1638522181
"La Croisée","La Croisee",,-21.3675,55.5672,Reunion,RE,REU,,,,,,353.2,,,3,Indian/Reunion,FALSE,1638000020
"Îlet Solitude","Ilet Solitude",,-20.9659,55.3643,Reunion,RE,REU,,,,,,339.4,,,3,Indian/Reunion,FALSE,1638936953
"Maison de l’Enfance","Maison de l'Enfance",,-21.2070,55.5722,Reunion,RE,REU,,,,,,545.2,,,3,Indian/Reunion,FALSE,1638673523
"Le Déboulé","Le Deboule",,-20.9844,55.3125,Reunion,RE,REU,,,,,,530.2,,,3,Indian/Reunion,FALSE,1638000052
"Mare d’Affouches","Mare d'Affouches",,-21.0542,55.4925,Reunion,RE,REU,,,,,,67.9,,,4,Indian/Reunion,FALSE,1638000324
"Bras Sec les Bas","Bras Sec les Bas",,-21.2168,55.3533,Reunion,RE,REU,,,,,,604.4,,,3,Indian/Reunion,FALSE,1638000171
Langevin,Langevin,,-21.3817,55.6510,Reunion,RE,REU,,,,,,239.0,,,3,Indian/Reunion,FALSE,1638106944
"Ravine des Chèvres les Hauts","Ravine des Chevres les Hauts","Ravine des Chèvres-les Hauts",-20.9097,55.5694,Reunion,RE,REU,,,,,,402.6,,,3,Indian/Reunion,FALSE,1638353081
"Les Bambous","Les Bambous",,-20.9029,55.4013,Reunion,RE,REU,,,,,,1129.4,,,3,Indian/Reunion,FALSE,1638000067
"Les Bambous","Les Bambous",,-21.1328,55.8045,Reunion,RE,REU,,,,,,38.8,,,4,Indian/Reunion,TRUE,1638000092
"Grands Bois les Hauts","Grands Bois les Hauts",,-21.3569,55.5315,Reunion,RE,REU,,,,,,883.4,,,3,Indian/Reunion,FALSE,1638000384
"Plateau Caillou","Plateau Caillou",,-21.0259,55.2679,Reunion,RE,REU,,,,,,530.2,,,3,Indian/Reunion,FALSE,1638000268
"La Souris Chaude","La Souris Chaude",,-21.1191,55.2594,Reunion,RE,REU,,,,,,168.3,,,4,Indian/Reunion,FALSE,1638000301
"Îlets du Bras de Saint-Paul","Ilets du Bras de Saint-Paul",,-21.1486,55.4363,Reunion,RE,REU,,,,,,69.5,,,4,Indian/Reunion,FALSE,1638000185
L’Asile,L'Asile,,-21.3298,55.4900,Reunion,RE,REU,,,,,,883.4,,,3,Indian/Reunion,FALSE,1638000217
"Plateau Carrosse","Plateau Carrosse",,-21.0646,55.2717,Reunion,RE,REU,,,,,,530.2,,,3,Indian/Reunion,FALSE,1638000035
"La Plaine des Cafres","La Plaine des Cafres",,-21.2225,55.5550,Reunion,RE,REU,,,,,,545.2,,,3,Indian/Reunion,FALSE,1638999055
Carosse,Carosse,,-21.3556,55.5969,Reunion,RE,REU,,,,,,239.0,,,3,Indian/Reunion,FALSE,1638579235
"Franche Terre","Franche Terre",Semaines,-20.9033,55.5805,Reunion,RE,REU,,,,,,523.6,,,3,Indian/Reunion,FALSE,1638264575
Libéria,Liberia,,-21.0045,55.6729,Reunion,RE,REU,,,,,,156.2,,,4,Indian/Reunion,FALSE,1638000255
"La Réserve","La Reserve",,-20.9001,55.5626,Reunion,RE,REU,,,,,,402.6,,,3,Indian/Reunion,FALSE,1638000320
"La Vigne","La Vigne",,-20.9204,55.6161,Reunion,RE,REU,,,,,,547.9,,,3,Indian/Reunion,FALSE,1638720152
Saint-Christophe,Saint-Christophe,"L’Étang les Hauts",-21.1574,55.3248,Reunion,RE,REU,,,,,,299.4,,,3,Indian/Reunion,FALSE,1638000225
"Îlet des Orangers","Ilet des Orangers",,-21.0427,55.3926,Reunion,RE,REU,,,,,,530.1,,,3,Indian/Reunion,FALSE,1638000065
"Les Trois Mares","Les Trois Mares",,-21.1372,55.4766,Reunion,RE,REU,,,,,,69.5,,,4,Indian/Reunion,FALSE,1638000133
"La Ligne d’Équerre","La Ligne d'Equerre",,-21.3021,55.5559,Reunion,RE,REU,,,,,,665.5,,,3,Indian/Reunion,FALSE,1638000014
"La Vallée","La Vallee","Vallée Orré",-21.3033,55.4585,Reunion,RE,REU,,,,,,883.4,,,3,Indian/Reunion,FALSE,1638379327
"Les Filaos","Les Filaos",Filaos,-21.0758,55.2249,Reunion,RE,REU,,,,,,530.2,,,3,Indian/Reunion,FALSE,1638547623
"Plateau la Mare","Plateau la Mare",,-21.0129,55.4821,Reunion,RE,REU,,,,,,70.9,,,4,Indian/Reunion,FALSE,1638000303
"Petit Saint-Pierre","Petit Saint-Pierre",,-21.0880,55.7485,Reunion,RE,REU,,,,,,172.5,,,4,Indian/Reunion,FALSE,1638949746
Bellemène,Bellemene,,-21.0190,55.2949,Reunion,RE,REU,,,,,,530.2,,,3,Indian/Reunion,FALSE,1638931309
"Grand-Place les Hauts","Grand-Place les Hauts",,-21.0447,55.4152,Reunion,RE,REU,,,,,,339.4,,,3,Indian/Reunion,FALSE,1638000334
"La Montagne","La Montagne",Montagne,-20.8833,55.4333,Reunion,RE,REU,,,,,,1129.4,,,3,Indian/Reunion,FALSE,1638829094
"Bassin Plat","Bassin Plat",,-21.3264,55.4960,Reunion,RE,REU,,,,,,883.4,,,3,Indian/Reunion,FALSE,1638000236
"La Grande Ferme","La Grande Ferme",,-21.2124,55.5931,Reunion,RE,REU,,,,,,545.2,,,3,Indian/Reunion,FALSE,1638000116
"Manapany les Hauts","Manapany les Hauts","Manapany-les Hauts",-21.3369,55.5771,Reunion,RE,REU,,,,,,353.2,,,3,Indian/Reunion,FALSE,1638562086
"Commune Bègue les Bas","Commune Begue les Bas",,-20.9397,55.6378,Reunion,RE,REU,,,,,,562.7,,,3,Indian/Reunion,FALSE,1638000227
"Le Chaudron","Le Chaudron",Chaudron,-20.8919,55.4953,Reunion,RE,REU,,,,,,1129.4,,,3,Indian/Reunion,FALSE,1638493030
"Le Pavillon","Le Pavillon",,-21.0391,55.4099,Reunion,RE,REU,,,,,,339.4,,,3,Indian/Reunion,FALSE,1638000335
"Le Pavillon","Le Pavillon",Pavillon,-21.1903,55.4503,Reunion,RE,REU,,,,,,333.7,,,3,Indian/Reunion,TRUE,1638736783
Saint-Cœur,Saint-Coeur,,-21.0979,55.2878,Reunion,RE,REU,,,,,,484.1,,,3,Indian/Reunion,FALSE,1638000056
"Moka Fontaine","Moka Fontaine",,-20.9281,55.5124,Reunion,RE,REU,,,,,,465.3,,,3,Indian/Reunion,FALSE,1638000308
Beaufond,Beaufond,Beaufonds,-20.9272,55.5598,Reunion,RE,REU,,,,,,402.6,,,3,Indian/Reunion,FALSE,1638069933
Bengalis,Bengalis,,-20.9801,55.6454,Reunion,RE,REU,,,,,,326.2,,,3,Indian/Reunion,FALSE,1638000266
"La Cayenne","La Cayenne",,-21.3844,55.6110,Reunion,RE,REU,,,,,,239.0,,,3,Indian/Reunion,FALSE,1638000323
"La Cayenne","La Cayenne",,-21.0214,55.5489,Reunion,RE,REU,,,,,,67.9,,,4,Indian/Reunion,TRUE,1638000154
"La Cayenne","La Cayenne",,-21.3413,55.7982,Reunion,RE,REU,,,,,,32.8,,,4,Indian/Reunion,TRUE,1638000037
"Terrain Fleury","Terrain Fleury",,-21.2836,55.5311,Reunion,RE,REU,,,,,,545.2,,,3,Indian/Reunion,FALSE,1638000016
"Îlet Jardin","Ilet Jardin",,-21.0222,55.4292,Reunion,RE,REU,,,,,,339.4,,,3,Indian/Reunion,FALSE,1638000337
"Les Palmistes","Les Palmistes",,-21.0577,55.3112,Reunion,RE,REU,,,,,,530.2,,,3,Indian/Reunion,FALSE,1638000355
"Camp Pierrot","Camp Pierrot",,-21.0423,55.4697,Reunion,RE,REU,,,,,,67.9,,,4,Indian/Reunion,FALSE,1638000377
Marancourt,Marancourt,,-20.9178,55.6060,Reunion,RE,REU,,,,,,547.9,,,3,Indian/Reunion,FALSE,1638000283
Fiague,Fiague,Fiagues,-21.2500,55.4333,Reunion,RE,REU,,,,,,668.8,,,3,Indian/Reunion,FALSE,1638707000
"Bourg Murat","Bourg Murat",,-21.2017,55.5769,Reunion,RE,REU,,,,,,545.2,,,3,Indian/Reunion,FALSE,1638000126
Pavillon,Pavillon,,-21.0940,55.2678,Reunion,RE,REU,,,,,,530.2,,,3,Indian/Reunion,FALSE,1638000098
"Les Quatre Robinets","Les Quatre Robinets",,-21.1965,55.2910,Reunion,RE,REU,,,,,,299.4,,,3,Indian/Reunion,FALSE,1638000156
"Le Butor","Le Butor",,-20.8874,55.4707,Reunion,RE,REU,,,,,,1129.4,,,3,Indian/Reunion,FALSE,1638315773
"Le Butor","Le Butor",,-21.2229,55.3176,Reunion,RE,REU,,,,,,299.4,,,3,Indian/Reunion,TRUE,1638000169
"Le Butor","Le Butor",,-21.3828,55.6151,Reunion,RE,REU,,,,,,239.0,,,3,Indian/Reunion,TRUE,1638866911
"Le Butor","Le Butor",,-21.0370,55.7205,Reunion,RE,REU,,,,,,172.5,,,4,Indian/Reunion,TRUE,1638212877
"Le Butor","Le Butor",,-21.0262,55.5141,Reunion,RE,REU,,,,,,67.9,,,4,Indian/Reunion,TRUE,1638000375
"Bois Court","Bois Court",,-21.1967,55.5360,Reunion,RE,REU,,,,,,545.2,,,3,Indian/Reunion,FALSE,1638560798
"Bois Court","Bois Court",,-20.9201,55.5425,Reunion,RE,REU,,,,,,402.6,,,3,Indian/Reunion,TRUE,1638000077
"La Perrière","La Perriere",,-20.9950,55.3095,Reunion,RE,REU,,,,,,530.2,,,3,Indian/Reunion,FALSE,1638000364
"La Ravine du Pont","La Ravine du Pont","Ravine du Pont|Village Ravine du Pont",-21.3391,55.5621,Reunion,RE,REU,,,,,,353.2,,,3,Indian/Reunion,FALSE,1638797750
"Camp Lilas","Camp Lilas",,-21.0263,55.5430,Reunion,RE,REU,,,,,,67.9,,,4,Indian/Reunion,FALSE,1638000150
"La Fontaine-les Hauts","La Fontaine-les Hauts",,-21.1333,55.3333,Reunion,RE,REU,,,,,,299.4,,,3,Indian/Reunion,FALSE,1638662183
Longuet,Longuet,,-21.0783,55.2697,Reunion,RE,REU,,,,,,530.2,,,3,Indian/Reunion,FALSE,1638000245
L’Escalier,L'Escalier,,-21.0022,55.5736,Reunion,RE,REU,,,,,,67.9,,,4,Indian/Reunion,FALSE,1638496897
"Grand Îlet","Grand Ilet",,-21.0288,55.4730,Reunion,RE,REU,,,,,,67.9,,,4,Indian/Reunion,FALSE,1638985381
"Îlet des Lataniers","Ilet des Lataniers",,-21.0367,55.3999,Reunion,RE,REU,,,,,,503.4,,,3,Indian/Reunion,FALSE,1638124273
Monaco,Monaco,,-20.9279,55.5936,Reunion,RE,REU,,,,,,547.9,,,3,Indian/Reunion,FALSE,1638000084
"La Saline les Bains","La Saline les Bains","La Saline-les Bas",-21.0937,55.2391,Reunion,RE,REU,,,,,,530.2,,,3,Indian/Reunion,FALSE,1638539971
"Maison Henou","Maison Henou",,-21.1495,55.5978,Reunion,RE,REU,,,,,,97.6,,,4,Indian/Reunion,FALSE,1638969937
"L’Espérance les Hauts","L'Esperance les Hauts",Espérance,-20.9478,55.5168,Reunion,RE,REU,,,,,,402.6,,,3,Indian/Reunion,FALSE,1638948801
"Rue Jacquot","Rue Jacquot",,-20.9838,55.2872,Reunion,RE,REU,,,,,,530.2,,,3,Indian/Reunion,FALSE,1638000270
"Grande Terre","Grande Terre",,-21.2294,55.3288,Reunion,RE,REU,,,,,,340.9,,,3,Indian/Reunion,FALSE,1638000343
Abondance,Abondance,,-21.0346,55.6734,Reunion,RE,REU,,,,,,172.5,,,4,Indian/Reunion,FALSE,1638789210
"Îlet Haut","Ilet Haut",,-21.1889,55.4579,Reunion,RE,REU,,,,,,333.7,,,3,Indian/Reunion,FALSE,1638000210
"Macabit Bois Joli","Macabit Bois Joli",,-21.0105,55.3106,Reunion,RE,REU,,,,,,530.2,,,3,Indian/Reunion,FALSE,1638000100
"Lotissement Pelvoisin","Lotissement Pelvoisin",,-20.9734,55.6902,Reunion,RE,REU,,,,,,907.8,,,3,Indian/Reunion,FALSE,1638000234
"Maison Lelièvre","Maison Lelievre",,-21.0833,55.3167,Reunion,RE,REU,,,,,,530.2,,,3,Indian/Reunion,FALSE,1638752768
"Le Syndicat","Le Syndicat",,-21.3133,55.4344,Reunion,RE,REU,,,,,,883.4,,,3,Indian/Reunion,FALSE,1638000191
"Commune Prima","Commune Prima",,-20.8996,55.5010,Reunion,RE,REU,,,,,,1129.4,,,3,Indian/Reunion,FALSE,1638000070
Montauban,Montauban,,-20.9412,55.4945,Reunion,RE,REU,,,,,,1129.4,,,3,Indian/Reunion,FALSE,1638000319
"La Grande Montée","La Grande Montee",,-20.9256,55.5861,Reunion,RE,REU,,,,,,547.9,,,3,Indian/Reunion,FALSE,1638000082
"La Maison Martin","La Maison Martin",,-20.9692,55.5256,Reunion,RE,REU,,,,,,402.6,,,3,Indian/Reunion,FALSE,1638000315
"Le Quinzième","Le Quinzieme",,-20.9176,55.4050,Reunion,RE,REU,,,,,,1129.4,,,3,Indian/Reunion,FALSE,1638000047
"La Chapelle","La Chapelle",,-21.2219,55.3440,Reunion,RE,REU,,,,,,707.9,,,3,Indian/Reunion,FALSE,1638000170
"Plateau Sisahaye","Plateau Sisahaye",,-21.0599,55.5266,Reunion,RE,REU,,,,,,67.9,,,4,Indian/Reunion,FALSE,1638000166
Bruniquel,Bruniquel,,-21.0831,55.2377,Reunion,RE,REU,,,,,,530.2,,,3,Indian/Reunion,FALSE,1638000026
Casabois,Casabois,"Le Cazabois",-21.0379,55.4644,Reunion,RE,REU,,,,,,67.9,,,4,Indian/Reunion,FALSE,1638884170
"Tan Rouge","Tan Rouge",,-21.0625,55.2968,Reunion,RE,REU,,,,,,530.2,,,3,Indian/Reunion,FALSE,1638000246
L’Îlet,L'Ilet,,-21.3235,55.6016,Reunion,RE,REU,,,,,,239.0,,,3,Indian/Reunion,FALSE,1638838904
"La Ressource","La Ressource",,-20.9347,55.5326,Reunion,RE,REU,,,,,,402.6,,,3,Indian/Reunion,FALSE,1638000312
Harmonie,Harmonie,,-21.0138,55.7011,Reunion,RE,REU,,,,,,172.5,,,4,Indian/Reunion,FALSE,1638286638
Marepine,Marepine,,-20.8885,55.5184,Reunion,RE,REU,,,,,,402.6,,,3,Indian/Reunion,FALSE,1638566480
"Pierre Paillard","Pierre Paillard",,-21.1949,55.3115,Reunion,RE,REU,,,,,,299.4,,,3,Indian/Reunion,FALSE,1638000346
"Le Colosse","Le Colosse",Colosse,-20.9359,55.6724,Reunion,RE,REU,,,,,,1249.1,,,3,Indian/Reunion,FALSE,1638832163
"Le Bélier","Le Belier",,-21.0439,55.4619,Reunion,RE,REU,,,,,,67.9,,,4,Indian/Reunion,FALSE,1638984988
"Les Cafés","Les Cafes",,-20.9010,55.5684,Reunion,RE,REU,,,,,,402.6,,,3,Indian/Reunion,FALSE,1638000305
Sainte-Suzanne,Sainte-Suzanne,,-20.9056,55.6072,Reunion,RE,REU,,,,,,547.9,,,3,Indian/Reunion,FALSE,1638950991
Apollon,Apollon,,-20.9433,55.5176,Reunion,RE,REU,,,,,,402.6,,,3,Indian/Reunion,FALSE,1638000079
Sainte-Thérèse,Sainte-Therese,,-20.9520,55.3430,Reunion,RE,REU,,,,,,339.4,,,3,Indian/Reunion,FALSE,1638469755
"L’Espérance les Bas","L'Esperance les Bas",,-20.9393,55.5203,Reunion,RE,REU,,,,,,402.6,,,3,Indian/Reunion,FALSE,1638000080
"Mare à Vieille Place","Mare a Vieille Place",,-21.0273,55.5084,Reunion,RE,REU,,,,,,67.9,,,4,Indian/Reunion,FALSE,1638125393
"Le Verger","Le Verger",,-20.9476,55.3167,Reunion,RE,REU,,,,,,2120.3,,,2,Indian/Reunion,FALSE,1638000331
"Les Makes","Les Makes",Makes,-21.2078,55.4055,Reunion,RE,REU,,,,,,668.8,,,3,Indian/Reunion,FALSE,1638387941
"Moulin Cader","Moulin Cader",,-20.8842,55.4087,Reunion,RE,REU,,,,,,1129.4,,,3,Indian/Reunion,FALSE,1638000186
"Bras Marron","Bras Marron",,-21.0602,55.5048,Reunion,RE,REU,,,,,,67.9,,,4,Indian/Reunion,FALSE,1638000326
Charrié,Charrie,,-21.3321,55.5679,Reunion,RE,REU,,,,,,353.2,,,3,Indian/Reunion,FALSE,1638000013
Villèle,Villele,,-21.0570,55.2600,Reunion,RE,REU,,,,,,530.2,,,3,Indian/Reunion,FALSE,1638000274
"Ravine des Figues","Ravine des Figues",,-20.9223,55.5366,Reunion,RE,REU,,,,,,402.6,,,3,Indian/Reunion,FALSE,1638000076
"Le Radier","Le Radier",,-21.0324,55.5134,Reunion,RE,REU,,,,,,67.9,,,4,Indian/Reunion,FALSE,1638000280
Condé,Conde,,-21.2932,55.5084,Reunion,RE,REU,,,,,,683.4,,,3,Indian/Reunion,FALSE,1638805556
Réunion,Reunion,,-21.0667,55.2667,Reunion,RE,REU,,,,,,530.2,,,3,Indian/Reunion,FALSE,1638999659
"Sans Souci","Sans Souci",,-20.9779,55.3374,Reunion,RE,REU,,,,,,523.5,,,3,Indian/Reunion,FALSE,1638000205
Cambaie,Cambaie,,-20.9646,55.2902,Reunion,RE,REU,,,,,,734.4,,,3,Indian/Reunion,FALSE,1638000272
"Le Goyave","Le Goyave","La Goyave",-21.3709,55.6173,Reunion,RE,REU,,,,,,239.0,,,3,Indian/Reunion,FALSE,1638742200
"Îlet du Bois Rouge","Ilet du Bois Rouge",,-21.1234,55.4556,Reunion,RE,REU,,,,,,69.5,,,4,Indian/Reunion,FALSE,1638000184
Manapany,Manapany,,-21.3760,55.6008,Reunion,RE,REU,,,,,,239.0,,,3,Indian/Reunion,FALSE,1638152101
Surprise,Surprise,,-21.1513,55.3021,Reunion,RE,REU,,,,,,299.4,,,3,Indian/Reunion,FALSE,1638787987
"Chemin Acadine","Chemin Acadine",,-21.0948,55.2784,Reunion,RE,REU,,,,,,530.2,,,3,Indian/Reunion,FALSE,1638000097
"Fond Maurice","Fond Maurice","Le Fond de Maurice",-21.2489,55.3504,Reunion,RE,REU,,,,,,620.6,,,3,Indian/Reunion,FALSE,1638039711
"Maison Rouge","Maison Rouge",,-21.2660,55.4119,Reunion,RE,REU,,,,,,668.8,,,3,Indian/Reunion,FALSE,1638552320
"Îlet Morin","Ilet Morin",,-21.0084,55.5643,Reunion,RE,REU,,,,,,83.3,,,4,Indian/Reunion,FALSE,1638415700
"Fond de Rond-Point","Fond de Rond-Point",,-21.0552,55.5202,Reunion,RE,REU,,,,,,67.9,,,4,Indian/Reunion,FALSE,1638000167
"Les Orangers","Les Orangers",,-21.1122,55.7512,Reunion,RE,REU,,,,,,74.4,,,4,Indian/Reunion,FALSE,1638864559
"Îlet Méon","Ilet Meon",,-21.1219,55.4478,Reunion,RE,REU,,,,,,69.5,,,4,Indian/Reunion,FALSE,1638000278
"La Petite Ferme","La Petite Ferme",,-21.2294,55.5760,Reunion,RE,REU,,,,,,545.2,,,3,Indian/Reunion,FALSE,1638000119
"Bois Noirs","Bois Noirs",,-21.2895,55.4622,Reunion,RE,REU,,,,,,883.4,,,3,Indian/Reunion,FALSE,1638000329
"Bois Noirs","Bois Noirs","Sous les Bois Noirs",-21.3790,55.6393,Reunion,RE,REU,,,,,,239.0,,,3,Indian/Reunion,TRUE,1638738159
Cocâtre,Cocatre,,-21.1162,55.3021,Reunion,RE,REU,,,,,,168.3,,,4,Indian/Reunion,FALSE,1638000055
"Bois d’Olives","Bois d'Olives","Le Bois d’Olive|Bois d’Olive",-21.2983,55.4531,Reunion,RE,REU,,,,,,883.4,,,3,Indian/Reunion,FALSE,1638369625
"Piton des Goyaves","Piton des Goyaves",,-21.3241,55.5576,Reunion,RE,REU,,,,,,473.3,,,3,Indian/Reunion,FALSE,1638000011
"Basse Terre les Hauts","Basse Terre les Hauts",,-21.3200,55.4793,Reunion,RE,REU,,,,,,883.4,,,3,Indian/Reunion,FALSE,1638000214
Sainte-Marguerite,Sainte-Marguerite,,-21.0900,55.7165,Reunion,RE,REU,,,,,,172.5,,,4,Indian/Reunion,FALSE,1638000259
"Terre Sainte","Terre Sainte",,-21.3483,55.4852,Reunion,RE,REU,,,,,,883.4,,,3,Indian/Reunion,FALSE,1638167376
"Les Canots les Hauts","Les Canots les Hauts",,-21.2388,55.3723,Reunion,RE,REU,,,,,,381.5,,,3,Indian/Reunion,FALSE,1638000353
Jupiter,Jupiter,,-20.9160,55.5791,Reunion,RE,REU,,,,,,517.5,,,3,Indian/Reunion,FALSE,1638000378
"Bras Fusil","Bras Fusil",,-21.0511,55.7121,Reunion,RE,REU,,,,,,172.5,,,4,Indian/Reunion,FALSE,1638000088
"Chemin Crescence","Chemin Crescence",,-21.0589,55.2865,Reunion,RE,REU,,,,,,530.2,,,3,Indian/Reunion,FALSE,1638000094
"Manapany les Bains","Manapany les Bains","Manapany-les Bains",-21.3748,55.5936,Reunion,RE,REU,,,,,,239.0,,,3,Indian/Reunion,FALSE,1638748961
"Lotissement Bras Pistolet","Lotissement Bras Pistolet",,-20.9674,55.5872,Reunion,RE,REU,,,,,,695.3,,,3,Indian/Reunion,FALSE,1638000292
"Le Rond","Le Rond",,-21.3163,55.6068,Reunion,RE,REU,,,,,,239.0,,,3,Indian/Reunion,FALSE,1638724006
"Les Deux Bras","Les Deux Bras",,-21.0010,55.3913,Reunion,RE,REU,,,,,,398.8,,,3,Indian/Reunion,FALSE,1638894982
"Passe à Jacques","Passe a Jacques",,-21.0374,55.6760,Reunion,RE,REU,,,,,,172.5,,,4,Indian/Reunion,FALSE,1638000257
"La Pente","La Pente",,-21.0456,55.5263,Reunion,RE,REU,,,,,,67.9,,,4,Indian/Reunion,FALSE,1638000369
"Le Guillaume","Le Guillaume",,-21.0379,55.2989,Reunion,RE,REU,,,,,,530.2,,,3,Indian/Reunion,FALSE,1638972542
"Le Hangar","Le Hangar",,-20.9907,55.3188,Reunion,RE,REU,,,,,,530.2,,,3,Indian/Reunion,FALSE,1638000206
"Le Douzième","Le Douzieme",,-21.2576,55.5223,Reunion,RE,REU,,,,,,545.2,,,3,Indian/Reunion,FALSE,1638000127
"Les Casernes","Les Casernes",,-21.3302,55.4819,Reunion,RE,REU,,,,,,883.4,,,3,Indian/Reunion,FALSE,1638000216
"Les Tamarins","Les Tamarins",,-21.2477,55.5508,Reunion,RE,REU,,,,,,545.2,,,3,Indian/Reunion,FALSE,1638000121
"Le Bois de Nèfles","Le Bois de Nefles",,-21.2777,55.4359,Reunion,RE,REU,,,,,,669.8,,,3,Indian/Reunion,FALSE,1638000193
Patelin,Patelin,"Le Patelin",-20.9715,55.6764,Reunion,RE,REU,,,,,,1229.0,,,3,Indian/Reunion,FALSE,1638347154
"Les Lianes","Les Lianes",,-21.3451,55.6020,Reunion,RE,REU,,,,,,239.0,,,3,Indian/Reunion,FALSE,1638540060
"La Rivière du Mât","La Riviere du Mat",,-20.9813,55.6406,Reunion,RE,REU,,,,,,832.7,,,3,Indian/Reunion,FALSE,1638000264
"Les Trois Frères","Les Trois Freres",,-20.9080,55.5978,Reunion,RE,REU,,,,,,547.9,,,3,Indian/Reunion,FALSE,1638041426
"Le Cœur Saignant","Le Coeur Saignant",,-20.9484,55.3058,Reunion,RE,REU,,,,,,2545.3,,,2,Indian/Reunion,FALSE,1638000358
Salazie,Salazie,"Salazie Village",-21.0275,55.5400,Reunion,RE,REU,,,,,,67.9,,,4,Indian/Reunion,FALSE,1638065253
"Grande Ravine","Grande Ravine",,-21.1133,55.3003,Reunion,RE,REU,,,,,,168.3,,,4,Indian/Reunion,FALSE,1638544411
"Les Six-Cents","Les Six-Cents","Six Cents",-21.2667,55.5167,Reunion,RE,REU,,,,,,545.2,,,3,Indian/Reunion,FALSE,1638529787
"Bras Sec les Hauts","Bras Sec les Hauts",,-21.2131,55.3629,Reunion,RE,REU,,,,,,665.1,,,3,Indian/Reunion,FALSE,1638000350
"Bras Pistolet","Bras Pistolet",,-20.9612,55.6063,Reunion,RE,REU,,,,,,676.8,,,3,Indian/Reunion,FALSE,1638000287
"La Passerelle","La Passerelle","La Passarelle",-21.3405,55.6456,Reunion,RE,REU,,,,,,239.0,,,3,Indian/Reunion,FALSE,1638446172
"La Butte","La Butte",,-20.9229,55.6199,Reunion,RE,REU,,,,,,547.9,,,3,Indian/Reunion,FALSE,1638000093
"L’Ermitage les Bains","L'Ermitage les Bains","L’Ermitage-les Bas|Hermitage|L’Hermitage|L’Hermitage-les Bas",-21.0818,55.2278,Reunion,RE,REU,,,,,,530.2,,,3,Indian/Reunion,FALSE,1638224353
"Îlet Rosier Blanc","Ilet Rosier Blanc",,-20.9725,55.3635,Reunion,RE,REU,,,,,,339.4,,,3,Indian/Reunion,FALSE,1638000053
"Îlet Marron","Ilet Marron",,-21.2018,55.5140,Reunion,RE,REU,,,,,,107.2,,,4,Indian/Reunion,FALSE,1638910292
"La Convenance","La Convenance","Convenance|Convenance Ancienne Usine",-20.8948,55.5652,Reunion,RE,REU,,,,,,402.6,,,3,Indian/Reunion,FALSE,1638702463
"La Convenance","La Convenance",,-21.0329,55.6829,Reunion,RE,REU,,,,,,172.5,,,4,Indian/Reunion,TRUE,1638000138
"Abondance les Hauts","Abondance les Hauts",,-21.0435,55.6612,Reunion,RE,REU,,,,,,172.5,,,4,Indian/Reunion,FALSE,1638000142
Bellecombe,Bellecombe,,-21.2253,55.3357,Reunion,RE,REU,,,,,,677.9,,,3,Indian/Reunion,FALSE,1638000344
Bain,Bain,,-21.0500,55.5167,Reunion,RE,REU,,,,,,67.9,,,4,Indian/Reunion,FALSE,1638014850
"Les Chicots","Les Chicots",,-21.1145,55.7492,Reunion,RE,REU,,,,,,164.2,,,4,Indian/Reunion,FALSE,1638042277
"La Confiance","La Confiance",Confiance,-21.0674,55.7028,Reunion,RE,REU,,,,,,172.5,,,4,Indian/Reunion,FALSE,1638649026
"Le Barrage","Le Barrage",,-21.1001,55.2742,Reunion,RE,REU,,,,,,418.0,,,3,Indian/Reunion,FALSE,1638052992
"Le Serré","Le Serre",,-21.2687,55.4643,Reunion,RE,REU,,,,,,199.2,,,4,Indian/Reunion,FALSE,1638000111
"La Saline","La Saline",,-21.3239,55.4517,Reunion,RE,REU,,,,,,883.4,,,3,Indian/Reunion,FALSE,1638000387
"La Saline","La Saline",Saline,-21.0843,55.2689,Reunion,RE,REU,,,,,,530.2,,,3,Indian/Reunion,TRUE,1638761552
"Le Bras Long","Le Bras Long",,-21.2343,55.4718,Reunion,RE,REU,,,,,,107.2,,,4,Indian/Reunion,FALSE,1638000106
"Îlet Aurélien Dijoux","Ilet Aurelien Dijoux","Aurélien Dijoux",-21.2074,55.5135,Reunion,RE,REU,,,,,,107.2,,,4,Indian/Reunion,FALSE,1638141285
"Le Dassy","Le Dassy",,-21.2569,55.4869,Reunion,RE,REU,,,,,,600.3,,,3,Indian/Reunion,FALSE,1638000110
Sainte-Anne,Sainte-Anne,"Village Sainte Anne",-21.0865,55.7459,Reunion,RE,REU,,,,,,172.5,,,4,Indian/Reunion,FALSE,1638802747
"Îlet Cimandal","Ilet Cimandal",,-21.0659,55.4243,Reunion,RE,REU,,,,,,339.4,,,3,Indian/Reunion,FALSE,1638000179
"Montée Sano","Montee Sano",,-20.9447,55.5444,Reunion,RE,REU,,,,,,402.6,,,3,Indian/Reunion,FALSE,1638000310
"Moka de Palmas","Moka de Palmas",,-20.9325,55.5161,Reunion,RE,REU,,,,,,465.3,,,3,Indian/Reunion,FALSE,1638000309
"Anse les Hauts","Anse les Hauts","Anse-les Hauts",-21.3372,55.5494,Reunion,RE,REU,,,,,,353.2,,,3,Indian/Reunion,FALSE,1638254208
L’Établissement,L'Etablissement,,-21.3710,55.5853,Reunion,RE,REU,,,,,,305.6,,,3,Indian/Reunion,FALSE,1638000388
"Hell Bourg","Hell Bourg",Hell-Bourg,-21.0649,55.5195,Reunion,RE,REU,,,,,,67.9,,,4,Indian/Reunion,FALSE,1638341775
"Bras de Ponteau","Bras de Ponteau",,-21.2167,55.4833,Reunion,RE,REU,,,,,,107.2,,,4,Indian/Reunion,FALSE,1638869933
"Mare à Poule d’Eau","Mare a Poule d'Eau",,-21.0476,55.5309,Reunion,RE,REU,,,,,,67.9,,,4,Indian/Reunion,FALSE,1638000165
"Notre-Dame de la Paix","Notre-Dame de la Paix",,-21.2454,55.5939,Reunion,RE,REU,,,,,,545.2,,,3,Indian/Reunion,FALSE,1638000118
L’Affouche,L'Affouche,,-20.9769,55.2982,Reunion,RE,REU,,,,,,530.2,,,3,Indian/Reunion,FALSE,1638000271
"Les Remparts","Les Remparts",,-21.1363,55.6050,Reunion,RE,REU,,,,,,97.6,,,4,Indian/Reunion,FALSE,1638000114
"La Crête","La Crete",,-21.3350,55.6549,Reunion,RE,REU,,,,,,239.0,,,3,Indian/Reunion,FALSE,1638108473
"La Grande Ravine des Lataniers","La Grande Ravine des Lataniers",,-20.9404,55.3526,Reunion,RE,REU,,,,,,339.4,,,3,Indian/Reunion,FALSE,1638000002
"La Caroline","La Caroline",,-21.0014,55.6516,Reunion,RE,REU,,,,,,156.2,,,4,Indian/Reunion,FALSE,1638030280
Marocain,Marocain,,-21.1433,55.8154,Reunion,RE,REU,,,,,,38.8,,,4,Indian/Reunion,FALSE,1638000040
"Le Tremblet","Le Tremblet",Tremblet,-21.3040,55.8012,Reunion,RE,REU,,,,,,32.8,,,4,Indian/Reunion,FALSE,1638612486
Bérive,Berive,,-21.3073,55.5370,Reunion,RE,REU,,,,,,545.2,,,3,Indian/Reunion,FALSE,1638643177
"Îlet Lautret","Ilet Lautret",,-20.9648,55.3613,Reunion,RE,REU,,,,,,339.4,,,3,Indian/Reunion,FALSE,1638000203
"Bac en Fer","Bac en Fer",,-21.1860,55.3287,Reunion,RE,REU,,,,,,299.4,,,3,Indian/Reunion,FALSE,1638000349
"La Petite France","La Petite France",,-21.0425,55.3248,Reunion,RE,REU,,,,,,530.2,,,3,Indian/Reunion,FALSE,1638000219
"Ruisseau Blanc","Ruisseau Blanc",,-20.8957,55.4112,Reunion,RE,REU,,,,,,1129.4,,,3,Indian/Reunion,FALSE,1638000048
"Chemin de Ceinture","Chemin de Ceinture",,-21.0819,55.6929,Reunion,RE,REU,,,,,,172.5,,,4,Indian/Reunion,FALSE,1638000090
"La Grande Montagne","La Grande Montagne",,-20.9373,55.3392,Reunion,RE,REU,,,,,,339.4,,,3,Indian/Reunion,FALSE,1638000201
"Grands Bois","Grands Bois","Grand Bois",-21.3593,55.5256,Reunion,RE,REU,,,,,,834.2,,,3,Indian/Reunion,FALSE,1638393794
"La Ravine à Malheur","La Ravine a Malheur","Ravine à Malheur",-20.9230,55.3663,Reunion,RE,REU,,,,,,339.4,,,3,Indian/Reunion,FALSE,1638653464
"Chemin de Bras Canot","Chemin de Bras Canot",,-21.0433,55.7152,Reunion,RE,REU,,,,,,172.5,,,4,Indian/Reunion,FALSE,1638000256
"La Pointe au Sel","La Pointe au Sel",,-21.1990,55.2834,Reunion,RE,REU,,,,,,299.4,,,3,Indian/Reunion,FALSE,1638000345
"Roche Plate","Roche Plate",,-21.0689,55.4055,Reunion,RE,REU,,,,,,530.2,,,3,Indian/Reunion,FALSE,1638000064
"Roche Plate","Roche Plate","Îlet de Roche Plate",-21.2481,55.6155,Reunion,RE,REU,,,,,,239.0,,,3,Indian/Reunion,TRUE,1638862213
"Roche Plate","Roche Plate",,-21.0343,55.4903,Reunion,RE,REU,,,,,,67.9,,,4,Indian/Reunion,TRUE,1638000042
Saint-Pierre,Saint-Pierre,,-21.3419,55.4778,Reunion,RE,REU,,,,,,883.4,,,3,Indian/Reunion,FALSE,1638944716
Stella,Stella,"Stella Matutina",-21.2020,55.2959,Reunion,RE,REU,,,,,,299.4,,,3,Indian/Reunion,FALSE,1638556921
"Le Pont Neuf","Le Pont Neuf",,-21.2839,55.4296,Reunion,RE,REU,,,,,,745.4,,,3,Indian/Reunion,FALSE,1638000192
Cilaos,Cilaos,,-21.1353,55.4711,Reunion,RE,REU,,,,,,69.5,,,4,Indian/Reunion,FALSE,1638633030
"Le Bernica","Le Bernica",,-21.0460,55.2839,Reunion,RE,REU,,,,,,530.2,,,3,Indian/Reunion,FALSE,1638000248
"La Colline","La Colline",,-20.8952,55.4398,Reunion,RE,REU,,,,,,1129.4,,,3,Indian/Reunion,FALSE,1638000131
"La Ravine Glissante","La Ravine Glissante","Ravine Glissante",-21.1381,55.8066,Reunion,RE,REU,,,,,,38.8,,,4,Indian/Reunion,FALSE,1638337816
"Ravine Creuse","Ravine Creuse",,-20.9659,55.6657,Reunion,RE,REU,,,,,,1249.1,,,3,Indian/Reunion,FALSE,1638596401
"Mon Caprice","Mon Caprice",,-21.3037,55.4978,Reunion,RE,REU,,,,,,883.4,,,3,Indian/Reunion,FALSE,1638976302
"Le Dix-Neuvième","Le Dix-Neuvieme",,-21.2360,55.5430,Reunion,RE,REU,,,,,,545.2,,,3,Indian/Reunion,FALSE,1638387055
"Domaine d’Anjou","Domaine d'Anjou",,-21.0437,55.2227,Reunion,RE,REU,,,,,,530.2,,,3,Indian/Reunion,FALSE,1638000027
"Grand Canal","Grand Canal",,-20.9526,55.6865,Reunion,RE,REU,,,,,,1249.1,,,3,Indian/Reunion,FALSE,1638000267
"Ligne Bambous","Ligne Bambous",,-21.0451,55.3038,Reunion,RE,REU,,,,,,530.2,,,3,Indian/Reunion,FALSE,1638000356
Cabanon,Cabanon,,-21.0730,55.7108,Reunion,RE,REU,,,,,,172.5,,,4,Indian/Reunion,FALSE,1638000089
"Bras de Fer","Bras de Fer",,-20.9640,55.5975,Reunion,RE,REU,,,,,,554.1,,,3,Indian/Reunion,FALSE,1638000253
Bouillon,Bouillon,,-21.0096,55.2882,Reunion,RE,REU,,,,,,530.2,,,3,Indian/Reunion,FALSE,1638000361
"Les Sables Blancs","Les Sables Blancs",,-21.3528,55.7865,Reunion,RE,REU,,,,,,32.8,,,4,Indian/Reunion,FALSE,1638892640
Niagara,Niagara,,-20.9207,55.6038,Reunion,RE,REU,,,,,,547.9,,,3,Indian/Reunion,FALSE,1638000083
"Résidence Champagne","Residence Champagne",,-21.0268,55.2303,Reunion,RE,REU,,,,,,530.2,,,3,Indian/Reunion,FALSE,1638000273
"L’Étang-Salé les Bains","L'Etang-Sale les Bains","Étang-Salé les Bains",-21.2705,55.3363,Reunion,RE,REU,,,,,,381.5,,,3,Indian/Reunion,FALSE,1638121698
"Grande Anse","Grande Anse",,-21.3693,55.5544,Reunion,RE,REU,,,,,,353.2,,,3,Indian/Reunion,FALSE,1638395239
Macassis,Macassis,,-20.9364,55.4468,Reunion,RE,REU,,,,,,1129.4,,,3,Indian/Reunion,FALSE,1638000372
Pichète,Pichete,,-20.9606,55.3456,Reunion,RE,REU,,,,,,339.4,,,3,Indian/Reunion,FALSE,1638872980
Délices,Delices,"Le Délice",-20.9352,55.6316,Reunion,RE,REU,,,,,,547.9,,,3,Indian/Reunion,FALSE,1638618522
"La Trinité","La Trinite",,-20.8955,55.4695,Reunion,RE,REU,,,,,,1129.4,,,3,Indian/Reunion,FALSE,1638000063
L’Hermitage,L'Hermitage,,-20.9701,55.6026,Reunion,RE,REU,,,,,,1249.1,,,3,Indian/Reunion,FALSE,1638000288
"Grand Fond","Grand Fond","Grand Fonds",-21.0400,55.2217,Reunion,RE,REU,,,,,,530.2,,,3,Indian/Reunion,FALSE,1638629377
"Grand Fond","Grand Fond",,-21.1955,55.3018,Reunion,RE,REU,,,,,,299.4,,,3,Indian/Reunion,TRUE,1638579156
"Îlet Albert","Ilet Albert",,-20.9990,55.3883,Reunion,RE,REU,,,,,,339.4,,,3,Indian/Reunion,FALSE,1638000281
"La Balance","La Balance",,-21.3263,55.4456,Reunion,RE,REU,,,,,,883.4,,,3,Indian/Reunion,FALSE,1638000386
"Montgaillard les Hauts","Montgaillard les Hauts",,-20.9082,55.4668,Reunion,RE,REU,,,,,,1129.4,,,3,Indian/Reunion,FALSE,1638000374
"Bassin Martin","Bassin Martin",,-21.3071,55.5182,Reunion,RE,REU,,,,,,656.7,,,3,Indian/Reunion,FALSE,1638221822
"Îlet Furcy","Ilet Furcy","Îlet Ronde",-21.2426,55.4550,Reunion,RE,REU,,,,,,668.8,,,3,Indian/Reunion,FALSE,1638330918
"La Paix","La Paix",,-21.0243,55.6703,Reunion,RE,REU,,,,,,166.7,,,4,Indian/Reunion,FALSE,1638124240
Bras-Panon,Bras-Panon,,-20.9953,55.6761,Reunion,RE,REU,,,,,,156.2,,,4,Indian/Reunion,FALSE,1638730418
"Le Grand Pourpier","Le Grand Pourpier","Le Pourpier",-20.9730,55.3096,Reunion,RE,REU,,,,,,530.2,,,3,Indian/Reunion,FALSE,1638227135
"Îlet à Vidot","Ilet a Vidot",,-21.3181,55.6259,Reunion,RE,REU,,,,,,239.0,,,3,Indian/Reunion,FALSE,1638299497
"Îlet à Vidot","Ilet a Vidot",,-21.0644,55.5092,Reunion,RE,REU,,,,,,67.9,,,4,Indian/Reunion,TRUE,1638000338
Armagnac,Armagnac,,-21.0364,55.2223,Reunion,RE,REU,,,,,,530.2,,,3,Indian/Reunion,FALSE,1638000275
"Îlet Leroux","Ilet Leroux",,-21.2120,55.8120,Reunion,RE,REU,,,,,,38.8,,,4,Indian/Reunion,FALSE,1638000025
"La Ravine des Cabris","La Ravine des Cabris","Ravine des Cabris",-21.2861,55.4701,Reunion,RE,REU,,,,,,883.4,,,3,Indian/Reunion,FALSE,1638074312
Aurère,Aurere,,-21.0206,55.4236,Reunion,RE,REU,,,,,,339.4,,,3,Indian/Reunion,FALSE,1638924469
"Le Plate","Le Plate",Plate,-21.2045,55.3337,Reunion,RE,REU,,,,,,299.4,,,3,Indian/Reunion,FALSE,1638031260
"Sainte-Anne-les Hauts","Sainte-Anne-les Hauts",,-21.0833,55.7167,Reunion,RE,REU,,,,,,172.5,,,4,Indian/Reunion,FALSE,1638655280
"Îlet Chicot","Ilet Chicot",,-21.1230,55.4485,Reunion,RE,REU,,,,,,69.5,,,4,Indian/Reunion,FALSE,1638000183
"Le Petit Matarum","Le Petit Matarum",,-21.1322,55.4796,Reunion,RE,REU,,,,,,69.5,,,4,Indian/Reunion,FALSE,1638000134
"Lotissement Dodin","Lotissement Dodin",,-20.9427,55.3349,Reunion,RE,REU,,,,,,339.4,,,3,Indian/Reunion,FALSE,1638000202
"Mont Vert les Bas","Mont Vert les Bas","Montvert-les Bas|Montvert|Village de Montvert",-21.3325,55.5303,Reunion,RE,REU,,,,,,883.4,,,3,Indian/Reunion,FALSE,1638959131
Beauvallon,Beauvallon,,-21.0098,55.6956,Reunion,RE,REU,,,,,,172.5,,,4,Indian/Reunion,FALSE,1638516867
Anse,Anse,"Village de l’Anse",-21.3381,55.5482,Reunion,RE,REU,,,,,,353.2,,,3,Indian/Reunion,FALSE,1638027155
"Le Désert","Le Desert",Désert,-20.9659,55.6331,Reunion,RE,REU,,,,,,1249.1,,,3,Indian/Reunion,FALSE,1638465847
"Le Bocage New York","Le Bocage New York",,-20.9541,55.6419,Reunion,RE,REU,,,,,,1249.1,,,3,Indian/Reunion,FALSE,1638000233
"Grand Fond les Hauts","Grand Fond les Hauts",,-21.1964,55.3282,Reunion,RE,REU,,,,,,299.4,,,3,Indian/Reunion,FALSE,1638000173
"Îlet Savannah","Ilet Savannah",,-20.9727,55.3283,Reunion,RE,REU,,,,,,415.1,,,3,Indian/Reunion,FALSE,1638000204
"Les Trois-Bassins","Les Trois-Bassins","Trois Bassins",-21.1058,55.2950,Reunion,RE,REU,,,,,,168.3,,,4,Indian/Reunion,FALSE,1638056410
"Bras Sec","Bras Sec",,-21.1416,55.4901,Reunion,RE,REU,,,,,,69.5,,,4,Indian/Reunion,FALSE,1638000061
"Le Grand Tampon les Bas","Le Grand Tampon les Bas",,-21.2929,55.5389,Reunion,RE,REU,,,,,,545.2,,,3,Indian/Reunion,FALSE,1638000017
"Le Chemin Neuf","Le Chemin Neuf",,-21.3710,55.5596,Reunion,RE,REU,,,,,,353.2,,,3,Indian/Reunion,FALSE,1638000019
"Roche Maigre","Roche Maigre","Bois de Nèfles",-21.2718,55.4157,Reunion,RE,REU,,,,,,668.8,,,3,Indian/Reunion,FALSE,1638432646
"Boucan Canot","Boucan Canot",,-21.0283,55.2273,Reunion,RE,REU,,,,,,530.2,,,3,Indian/Reunion,FALSE,1638544507
"Le Onzième","Le Onzieme",,-21.2642,55.5236,Reunion,RE,REU,,,,,,545.2,,,3,Indian/Reunion,FALSE,1638657204
"Bac Rouge","Bac Rouge",,-21.0390,55.3118,Reunion,RE,REU,,,,,,530.2,,,3,Indian/Reunion,FALSE,1638000031
"Les Affouches","Les Affouches",,-20.9198,55.3981,Reunion,RE,REU,,,,,,1129.4,,,3,Indian/Reunion,FALSE,1638000039
"La Nouvelle","La Nouvelle",,-21.0765,55.4229,Reunion,RE,REU,,,,,,339.4,,,3,Indian/Reunion,FALSE,1638115321
"La Rue Marchande","La Rue Marchande",,-20.9502,55.6231,Reunion,RE,REU,,,,,,1204.9,,,3,Indian/Reunion,FALSE,1638000229
"Le Bois de Nèfles Piton","Le Bois de Nefles Piton",,-21.2244,55.3039,Reunion,RE,REU,,,,,,299.4,,,3,Indian/Reunion,FALSE,1638000158
"Ma Pensée","Ma Pensee",,-20.9930,55.6926,Reunion,RE,REU,,,,,,156.2,,,4,Indian/Reunion,FALSE,1638422392
"Lotissement Cross","Lotissement Cross",,-21.0595,55.3069,Reunion,RE,REU,,,,,,530.2,,,3,Indian/Reunion,FALSE,1638000354
"La Plaine","La Plaine",,-20.9813,55.3281,Reunion,RE,REU,,,,,,530.2,,,3,Indian/Reunion,FALSE,1638431942
"La Plaine","La Plaine",,-21.2585,55.3587,Reunion,RE,REU,,,,,,381.5,,,3,Indian/Reunion,TRUE,1638000160
"La Providence","La Providence",,-20.8945,55.4574,Reunion,RE,REU,,,,,,1129.4,,,3,Indian/Reunion,FALSE,1638117591
"Le Moulin à Eau","Le Moulin a Eau",,-20.9987,55.3054,Reunion,RE,REU,,,,,,530.2,,,3,Indian/Reunion,FALSE,1638000363
"Le Piton Saint-Leu","Le Piton Saint-Leu","Piton|Village du Piton",-21.2197,55.3110,Reunion,RE,REU,,,,,,299.4,,,3,Indian/Reunion,FALSE,1638308470
Montvert,Montvert,,-21.0988,55.3054,Reunion,RE,REU,,,,,,200.7,,,3,Indian/Reunion,FALSE,1638000222
"Mare à Citrons","Mare a Citrons",,-21.0353,55.5299,Reunion,RE,REU,,,,,,67.9,,,4,Indian/Reunion,FALSE,1638477299
"Îlet Payet","Ilet Payet",,-21.0037,55.6034,Reunion,RE,REU,,,,,,156.2,,,4,Indian/Reunion,FALSE,1638000143
Moka,Moka,,-20.9325,55.5134,Reunion,RE,REU,,,,,,465.3,,,3,Indian/Reunion,FALSE,1638606363
"La Montée de Villeneuve","La Montee de Villeneuve",,-21.3543,55.5146,Reunion,RE,REU,,,,,,883.4,,,3,Indian/Reunion,FALSE,1638000385
L’Union,L'Union,Union,-20.9997,55.6724,Reunion,RE,REU,,,,,,156.2,,,4,Indian/Reunion,FALSE,1638566132
"Îlet Flamand","Ilet Flamand",,-20.9833,55.4667,Reunion,RE,REU,,,,,,1129.4,,,3,Indian/Reunion,FALSE,1638247389
Mathurin,Mathurin,,-21.0203,55.4876,Reunion,RE,REU,,,,,,67.9,,,4,Indian/Reunion,FALSE,1638000044
"Bourbier les Hauts","Bourbier les Hauts",,-21.0311,55.6913,Reunion,RE,REU,,,,,,172.5,,,4,Indian/Reunion,FALSE,1638000137
"La Ruche","La Ruche",,-20.9592,55.5992,Reunion,RE,REU,,,,,,554.1,,,3,Indian/Reunion,FALSE,1638000231
"Maison Blanche","Maison Blanche",,-21.0372,55.2884,Reunion,RE,REU,,,,,,530.2,,,3,Indian/Reunion,FALSE,1638000028
Saint-Leu,Saint-Leu,,-21.1664,55.2869,Reunion,RE,REU,,,,,,299.4,,,3,Indian/Reunion,FALSE,1638457412
Cambourg,Cambourg,,-21.1143,55.7275,Reunion,RE,REU,,,,,,172.5,,,4,Indian/Reunion,FALSE,1638000091
"Le Grainoire","Le Grainoire",,-21.0954,55.2890,Reunion,RE,REU,,,,,,484.1,,,3,Indian/Reunion,FALSE,1638000096
"Les Coquillages","Les Coquillages",,-21.0318,55.2286,Reunion,RE,REU,,,,,,530.2,,,3,Indian/Reunion,FALSE,1638000029
"Îlet Sud","Ilet Sud",,-21.0253,55.4241,Reunion,RE,REU,,,,,,339.4,,,3,Indian/Reunion,FALSE,1638000336
"La Chatoire","La Chatoire",,-21.2762,55.5013,Reunion,RE,REU,,,,,,625.4,,,3,Indian/Reunion,FALSE,1638596005
