city,city_ascii,city_alt,lat,lng,country,iso2,iso3,admin_name,admin_name_ascii,admin_code,admin_type,capital,density,population,population_proper,ranking,timezone,same_name,id
Johannesburg,Johannesburg,,-26.2044,28.0456,"South Africa",ZA,ZAF,Gauteng,Gauteng,ZA-GP,,admin,2697.6,8500000,4434827,1,Africa/Johannesburg,FALSE,1710550792
"Cape Town","Cape Town",Kaapstad,-33.9253,18.4239,"South Africa",ZA,ZAF,"Western Cape","Western Cape",ZA-WC,province,primary,1938.3,4770313,4770313,1,Africa/Johannesburg,FALSE,1710680650
Soweto,Soweto,Mpanzaville,-26.2678,27.8585,"South Africa",ZA,ZAF,Gauteng,Gauteng,ZA-GP,,,6358.1,1271628,1271628,1,Africa/Johannesburg,FALSE,1710627007
Gqeberha,Gqeberha,"Port Elizabeth",-33.9581,25.6000,"South Africa",ZA,ZAF,"Eastern Cape","Eastern Cape",ZA-EC,province,,3854.8,967677,967677,2,Africa/Johannesburg,FALSE,1710918997
Pietermaritzburg,Pietermaritzburg,Maritzburg|Pietermaritsburg,-29.6167,30.3833,"South Africa",ZA,ZAF,KwaZulu-Natal,KwaZulu-Natal,ZA-KZN,,admin,3199.2,839327,839327,2,Africa/Johannesburg,FALSE,1710690280
Durban,Durban,"Port Natal",-29.8833,31.0500,"South Africa",ZA,ZAF,KwaZulu-Natal,KwaZulu-Natal,ZA-KZN,,,2375.5,838634,536644,2,Africa/Johannesburg,FALSE,1710149138
Pretoria,Pretoria,,-25.7461,28.1881,"South Africa",ZA,ZAF,Gauteng,Gauteng,ZA-GP,,primary,1078.0,741651,741651,1,Africa/Johannesburg,FALSE,1710176249
Rustenburg,Rustenburg,,-25.6667,27.2428,"South Africa",ZA,ZAF,"North West","North West",ZA-NW,province,,1945.9,549575,549575,2,Africa/Johannesburg,FALSE,1710326039
Newcastle,Newcastle,,-27.7464,29.9328,"South Africa",ZA,ZAF,KwaZulu-Natal,KwaZulu-Natal,ZA-KZN,,,651.0,507710,507710,2,Africa/Johannesburg,FALSE,1710031016
"East London","East London",Oos-Londen,-33.0175,27.9047,"South Africa",ZA,ZAF,"Eastern Cape","Eastern Cape",ZA-EC,province,,3054.7,478676,478676,2,Africa/Johannesburg,FALSE,1710178149
Katlehong,Katlehong,,-26.3333,28.1500,"South Africa",ZA,ZAF,Gauteng,Gauteng,ZA-GP,,,8451.8,467890,467890,2,Africa/Johannesburg,FALSE,1710975690
Khayelitsha,Khayelitsha,,-34.0403,18.6778,"South Africa",ZA,ZAF,"Western Cape","Western Cape",ZA-WC,province,,10120.1,391749,391749,2,Africa/Johannesburg,FALSE,1710736316
Randburg,Randburg,,-26.0936,28.0064,"South Africa",ZA,ZAF,Gauteng,Gauteng,ZA-GP,,,2006.5,337053,337053,2,Africa/Johannesburg,FALSE,1710279034
Roodepoort,Roodepoort,Roodeport-Maraisburg,-26.1625,27.8725,"South Africa",ZA,ZAF,Gauteng,Gauteng,ZA-GP,,,2021.2,326416,326416,2,Africa/Johannesburg,FALSE,1710090212
"Mitchells Plain","Mitchells Plain",,-34.0506,18.6181,"South Africa",ZA,ZAF,"Western Cape","Western Cape",ZA-WC,province,,7095.2,310485,310485,2,Africa/Johannesburg,FALSE,1710549821
Boksburg,Boksburg,,-26.2125,28.2625,"South Africa",ZA,ZAF,Gauteng,Gauteng,ZA-GP,,,1603.5,260321,260321,2,Africa/Johannesburg,FALSE,1710932183
Bloemfontein,Bloemfontein,,-29.1167,26.2167,"South Africa",ZA,ZAF,"Free State","Free State",ZA-FS,province,primary,1084.7,256185,256185,1,Africa/Johannesburg,FALSE,1710495933
Germiston,Germiston,,-26.2178,28.1672,"South Africa",ZA,ZAF,Gauteng,Gauteng,ZA-GP,,,1785.9,255863,255863,2,Africa/Johannesburg,FALSE,1710366382
Centurion,Centurion,Verwoerdburg,-25.8603,28.1894,"South Africa",ZA,ZAF,Gauteng,Gauteng,ZA-GP,,,598.9,236580,236580,2,Africa/Johannesburg,FALSE,1710138774
Kimberley,Kimberley,,-28.7383,24.7639,"South Africa",ZA,ZAF,"Northern Cape","Northern Cape",ZA-NC,province,admin,2490.7,225160,225160,2,Africa/Johannesburg,FALSE,1710282622
Sandton,Sandton,,-26.1070,28.0517,"South Africa",ZA,ZAF,Gauteng,Gauteng,ZA-GP,,,1549.5,222415,222415,2,Africa/Johannesburg,FALSE,1710113163
Klerksdorp,Klerksdorp,,-26.8667,26.6667,"South Africa",ZA,ZAF,"North West","North West",ZA-NW,province,,1759.9,186515,186515,2,Africa/Johannesburg,FALSE,1710416691
Bethelsdorp,Bethelsdorp,,-33.8833,25.5000,"South Africa",ZA,ZAF,"Eastern Cape","Eastern Cape",ZA-EC,province,,4970.3,182012,182012,2,Africa/Johannesburg,FALSE,1710792781
"Kempton Park","Kempton Park",,-26.1000,28.2333,"South Africa",ZA,ZAF,Gauteng,Gauteng,ZA-GP,,,1151.1,171575,171575,2,Africa/Johannesburg,FALSE,1710287070
Nqutu,Nqutu,Ngutu,-28.2320,30.5660,"South Africa",ZA,ZAF,KwaZulu-Natal,KwaZulu-Natal,ZA-KZN,,,507.5,170307,170307,2,Africa/Johannesburg,FALSE,1710983407
Kroonstad,Kroonstad,,-27.6500,27.2333,"South Africa",ZA,ZAF,"Free State","Free State",ZA-FS,province,,1894.1,168762,168762,2,Africa/Johannesburg,FALSE,1710508288
Benoni,Benoni,,-26.1883,28.3206,"South Africa",ZA,ZAF,Gauteng,Gauteng,ZA-GP,,,904.5,158777,158777,2,Africa/Johannesburg,FALSE,1710880986
George,George,,-33.9667,22.4500,"South Africa",ZA,ZAF,"Western Cape","Western Cape",ZA-WC,province,,2033.5,157394,157394,2,Africa/Johannesburg,FALSE,1710164136
Potchefstroom,Potchefstroom,,-26.7150,27.1033,"South Africa",ZA,ZAF,"North West","North West",ZA-NW,province,,807.8,148804,148804,2,Africa/Johannesburg,FALSE,1710838885
Pinetown,Pinetown,,-29.8167,30.8500,"South Africa",ZA,ZAF,KwaZulu-Natal,KwaZulu-Natal,ZA-KZN,,,1671.8,144026,144026,2,Africa/Johannesburg,FALSE,1710417771
Krugersdorp,Krugersdorp,,-26.1000,27.7667,"South Africa",ZA,ZAF,Gauteng,Gauteng,ZA-GP,,,568.9,140643,140643,2,Africa/Johannesburg,FALSE,1710772829
Mthatha,Mthatha,Umtata,-31.5800,28.7900,"South Africa",ZA,ZAF,"Eastern Cape","Eastern Cape",ZA-EC,province,,1074.8,137772,137772,2,Africa/Johannesburg,FALSE,1710651314
Polokwane,Polokwane,Pietersburg,-23.9000,29.4500,"South Africa",ZA,ZAF,Limpopo,Limpopo,ZA-LP,province,admin,1217.0,130028,130028,2,Africa/Johannesburg,FALSE,1710908010
Springs,Springs,,-26.2547,28.4428,"South Africa",ZA,ZAF,Gauteng,Gauteng,ZA-GP,,,662.7,121610,121610,2,Africa/Johannesburg,FALSE,1710058382
Alberton,Alberton,,-26.2672,28.1219,"South Africa",ZA,ZAF,Gauteng,Gauteng,ZA-GP,,,1575.1,121536,121536,2,Africa/Johannesburg,FALSE,1710738396
Upington,Upington,,-28.4500,21.2500,"South Africa",ZA,ZAF,"Northern Cape","Northern Cape",ZA-NC,province,,208.7,121189,121189,2,Africa/Johannesburg,FALSE,1710210449
Winterveld,Winterveld,"Winterveld Agricultural Settlement",-25.4200,27.9490,"South Africa",ZA,ZAF,"North West","North West",ZA-NW,province,,235.0,120826,120826,2,Africa/Johannesburg,FALSE,1710631370
Parow,Parow,,-33.9000,18.6000,"South Africa",ZA,ZAF,"Western Cape","Western Cape",ZA-WC,province,,4411.4,119462,119462,2,Africa/Johannesburg,FALSE,1710483674
Paarl,Paarl,,-33.7242,18.9558,"South Africa",ZA,ZAF,"Western Cape","Western Cape",ZA-WC,province,,1723.8,112045,112045,2,Africa/Johannesburg,FALSE,1710440011
Empangeni,Empangeni,,-28.7500,31.9000,"South Africa",ZA,ZAF,KwaZulu-Natal,KwaZulu-Natal,ZA-KZN,,,714.3,110340,110340,2,Africa/Johannesburg,FALSE,1710623921
Witbank,Witbank,,-25.8770,29.2010,"South Africa",ZA,ZAF,Mpumalanga,Mpumalanga,ZA-MP,province,,661.6,108673,108673,2,Africa/Johannesburg,FALSE,1710724527
Uitenhage,Uitenhage,,-33.7667,25.4000,"South Africa",ZA,ZAF,"Eastern Cape","Eastern Cape",ZA-EC,province,,1375.4,103639,103639,2,Africa/Johannesburg,FALSE,1710276157
KwaDukuza,KwaDukuza,"Stanger Station|Stanger",-29.3333,31.2917,"South Africa",ZA,ZAF,KwaZulu-Natal,KwaZulu-Natal,ZA-KZN,,,988.8,101224,101224,2,Africa/Johannesburg,FALSE,1710530492
Vereeniging,Vereeniging,,-26.6736,27.9319,"South Africa",ZA,ZAF,Gauteng,Gauteng,ZA-GP,,,526.1,99000,99000,3,Africa/Johannesburg,FALSE,1710271883
Worcester,Worcester,,-33.6450,19.4436,"South Africa",ZA,ZAF,"Western Cape","Western Cape",ZA-WC,province,,1326.5,97098,97098,3,Africa/Johannesburg,FALSE,1710498245
Vanderbijlpark,Vanderbijlpark,,-26.6992,27.8356,"South Africa",ZA,ZAF,Gauteng,Gauteng,ZA-GP,,,538.4,95840,95840,3,Africa/Johannesburg,FALSE,1710733212
Grahamstown,Grahamstown,Grahamstad,-33.2996,26.5200,"South Africa",ZA,ZAF,"Eastern Cape","Eastern Cape",ZA-EC,province,,1052.3,91548,91548,3,Africa/Johannesburg,FALSE,1710671857
Oudtshoorn,Oudtshoorn,,-33.5833,22.2000,"South Africa",ZA,ZAF,"Western Cape","Western Cape",ZA-WC,province,,2415.5,90822,90822,2,Africa/Johannesburg,FALSE,1710502855
Midrand,Midrand,,-25.9992,28.1264,"South Africa",ZA,ZAF,Gauteng,Gauteng,ZA-GP,,,96.3,87387,87387,3,Africa/Johannesburg,FALSE,1710101627
Middelburg,Middelburg,Middelberg,-25.7684,29.4783,"South Africa",ZA,ZAF,Mpumalanga,Mpumalanga,ZA-MP,province,,744.0,87348,87348,3,Africa/Johannesburg,FALSE,1710495632
Ermelo,Ermelo,,-26.5333,29.9833,"South Africa",ZA,ZAF,Mpumalanga,Mpumalanga,ZA-MP,province,,1767.1,83865,83865,3,Africa/Johannesburg,FALSE,1710683808
Randfontein,Randfontein,,-26.1797,27.7042,"South Africa",ZA,ZAF,Gauteng,Gauteng,ZA-GP,,,431.8,80492,80492,3,Africa/Johannesburg,FALSE,1710137724
Stellenbosch,Stellenbosch,,-33.9367,18.8614,"South Africa",ZA,ZAF,"Western Cape","Western Cape",ZA-WC,province,,7655.7,77476,77476,2,Africa/Johannesburg,FALSE,1710221701
Sasolburg,Sasolburg,,-26.8142,27.8286,"South Africa",ZA,ZAF,"Free State","Free State",ZA-FS,province,,1302.9,76349,76349,3,Africa/Johannesburg,FALSE,1710432260
Brakpan,Brakpan,,-26.2353,28.3700,"South Africa",ZA,ZAF,Gauteng,Gauteng,ZA-GP,,,399.8,73080,73080,3,Africa/Johannesburg,FALSE,1710291121
"Thaba Nchu","Thaba Nchu",Thabantsjoe,-29.2000,26.8333,"South Africa",ZA,ZAF,"Free State","Free State",ZA-FS,province,,1926.8,70118,70118,3,Africa/Johannesburg,FALSE,1710265010
Kwamhlanga,Kwamhlanga,,-25.4320,28.7080,"South Africa",ZA,ZAF,Gauteng,Gauteng,ZA-GP,,,1543.6,69853,69853,3,Africa/Johannesburg,FALSE,1710251411
Thohoyandou,Thohoyandou,,-22.9500,30.4833,"South Africa",ZA,ZAF,Limpopo,Limpopo,ZA-LP,province,,1629.6,69453,69453,3,Africa/Johannesburg,FALSE,1710219075
Queenstown,Queenstown,,-31.9000,26.8833,"South Africa",ZA,ZAF,"Eastern Cape","Eastern Cape",ZA-EC,province,,965.9,68872,68872,3,Africa/Johannesburg,FALSE,1710110028
Virginia,Virginia,,-28.1064,26.8622,"South Africa",ZA,ZAF,"Free State","Free State",ZA-FS,province,,806.4,66208,66208,3,Africa/Johannesburg,FALSE,1710992750
Ladysmith,Ladysmith,,-28.5597,29.7806,"South Africa",ZA,ZAF,KwaZulu-Natal,KwaZulu-Natal,ZA-KZN,,,770.9,64855,64855,3,Africa/Johannesburg,FALSE,1710998347
Welkom,Welkom,,-27.9831,26.7208,"South Africa",ZA,ZAF,"Free State","Free State",ZA-FS,province,,382.6,64130,64130,3,Africa/Johannesburg,FALSE,1710480365
Odendaalsrus,Odendaalsrus,"Odendaalrus|Odendaals Rust|Odendaalrust",-27.8667,26.6833,"South Africa",ZA,ZAF,"Free State","Free State",ZA-FS,province,,1514.1,63743,63743,3,Africa/Johannesburg,FALSE,1710700901
Bethal,Bethal,,-26.4500,29.4500,"South Africa",ZA,ZAF,Mpumalanga,Mpumalanga,ZA-MP,province,,1170.2,60779,60779,3,Africa/Johannesburg,FALSE,1710328253
"Mossel Bay","Mossel Bay",Mosselbaai,-34.1833,22.1333,"South Africa",ZA,ZAF,"Western Cape","Western Cape",ZA-WC,province,,1398.8,59031,59031,3,Africa/Johannesburg,FALSE,1710597106
"Richards Bay","Richards Bay",Richardsbaai,-28.7694,32.0594,"South Africa",ZA,ZAF,KwaZulu-Natal,KwaZulu-Natal,ZA-KZN,,,8.1,57387,57387,3,Africa/Johannesburg,FALSE,1710347129
Wellington,Wellington,,-33.6333,18.9833,"South Africa",ZA,ZAF,"Western Cape","Western Cape",ZA-WC,province,,1841.6,55543,55543,3,Africa/Johannesburg,FALSE,1710214412
Meyerton,Meyerton,,-26.5583,28.0197,"South Africa",ZA,ZAF,Gauteng,Gauteng,ZA-GP,,,306.7,55283,55283,3,Africa/Johannesburg,FALSE,1710264343
Queensburgh,Queensburgh,,-29.8667,30.9333,"South Africa",ZA,ZAF,KwaZulu-Natal,KwaZulu-Natal,ZA-KZN,,,2397.1,54846,54846,2,Africa/Johannesburg,FALSE,1710379982
Phuthaditjhaba,Phuthaditjhaba,Phutaditjhaba,-28.5333,28.8167,"South Africa",ZA,ZAF,"Free State","Free State",ZA-FS,province,,2293.8,54661,54661,2,Africa/Johannesburg,FALSE,1710416802
Brits,Brits,,-25.6344,27.7811,"South Africa",ZA,ZAF,"North West","North West",ZA-NW,province,,466.5,53511,53511,3,Africa/Johannesburg,FALSE,1710468143
Harrismith,Harrismith,,-28.2833,29.1333,"South Africa",ZA,ZAF,"Free State","Free State",ZA-FS,province,,380.2,52765,52765,3,Africa/Johannesburg,FALSE,1710810520
Kokstad,Kokstad,,-30.5539,29.4269,"South Africa",ZA,ZAF,KwaZulu-Natal,KwaZulu-Natal,ZA-KZN,,,999.8,51561,51561,3,Africa/Johannesburg,FALSE,1710099997
Knysna,Knysna,"De Nysna",-34.0356,23.0489,"South Africa",ZA,ZAF,"Western Cape","Western Cape",ZA-WC,province,,469.6,51078,51078,3,Africa/Johannesburg,FALSE,1710311704
Edenvale,Edenvale,,-26.1411,28.1528,"South Africa",ZA,ZAF,Gauteng,Gauteng,ZA-GP,,,2460.9,49292,49292,2,Africa/Johannesburg,FALSE,1710512085
Vryheid,Vryheid,,-27.7669,30.8000,"South Africa",ZA,ZAF,KwaZulu-Natal,KwaZulu-Natal,ZA-KZN,,,972.4,47365,47365,3,Africa/Johannesburg,FALSE,1710716158
Kuilsrivier,Kuilsrivier,"Kuils River",-33.9414,18.7066,"South Africa",ZA,ZAF,"Western Cape","Western Cape",ZA-WC,province,,1171.2,46686,46686,3,Africa/Johannesburg,FALSE,1710421112
Bothaville,Bothaville,,-27.3833,26.6167,"South Africa",ZA,ZAF,"Free State","Free State",ZA-FS,province,,1070.5,46030,46030,3,Africa/Johannesburg,FALSE,1710618746
Parys,Parys,,-26.9000,27.4500,"South Africa",ZA,ZAF,"Free State","Free State",ZA-FS,province,,1968.6,45868,45868,3,Africa/Johannesburg,FALSE,1710211313
Grabouw,Grabouw,,-34.1500,19.0167,"South Africa",ZA,ZAF,"Western Cape","Western Cape",ZA-WC,province,,1809.5,44593,44593,3,Africa/Johannesburg,FALSE,1710958841
Musina,Musina,Messina,-22.3381,30.0417,"South Africa",ZA,ZAF,Limpopo,Limpopo,ZA-LP,province,,390.2,42678,42678,3,Africa/Johannesburg,FALSE,1710956370
Schweizer-Reineke,Schweizer-Reineke,Schweizer-Reneke,-27.1833,25.3333,"South Africa",ZA,ZAF,"North West","North West",ZA-NW,province,,372.0,41226,41226,3,Africa/Johannesburg,FALSE,1710776654
Secunda,Secunda,,-26.5161,29.2028,"South Africa",ZA,ZAF,Mpumalanga,Mpumalanga,ZA-MP,province,,43.3,40198,40198,3,Africa/Johannesburg,FALSE,1710520670
Despatch,Despatch,,-33.8015,25.4768,"South Africa",ZA,ZAF,"Eastern Cape","Eastern Cape",ZA-EC,province,,2016.2,39619,39619,2,Africa/Johannesburg,FALSE,1710356281
Vredenburg,Vredenburg,,-32.9064,17.9958,"South Africa",ZA,ZAF,"Western Cape","Western Cape",ZA-WC,province,,2791.4,38382,38382,2,Africa/Johannesburg,FALSE,1710121734
Nigel,Nigel,,-26.4203,28.4683,"South Africa",ZA,ZAF,Gauteng,Gauteng,ZA-GP,,,275.5,38318,38318,3,Africa/Johannesburg,FALSE,1710146906
Mmabatho,Mmabatho,Mabatho|Mbabatho,-25.8500,25.6333,"South Africa",ZA,ZAF,"North West","North West",ZA-NW,province,,2073.5,38297,38297,2,Africa/Johannesburg,FALSE,1710524815
Lydenburg,Lydenburg,,-25.0960,30.4460,"South Africa",ZA,ZAF,Mpumalanga,Mpumalanga,ZA-MP,province,,2152.4,37258,37258,2,Africa/Johannesburg,FALSE,1710237640
Siyabuswa,Siyabuswa,,-25.1167,29.0500,"South Africa",ZA,ZAF,Mpumalanga,Mpumalanga,ZA-MP,province,,2478.6,36882,36882,2,Africa/Johannesburg,FALSE,1710133459
Makan,Makan,,-25.6050,27.9100,"South Africa",ZA,ZAF,"North West","North West",ZA-NW,province,,504.0,36605,36605,3,Africa/Johannesburg,FALSE,1710187131
Namakgale,Namakgale,,-23.9380,31.0280,"South Africa",ZA,ZAF,Limpopo,Limpopo,ZA-LP,province,,2803.8,36365,36365,2,Africa/Johannesburg,FALSE,1710935117
Malmesbury,Malmesbury,,-33.4500,18.7333,"South Africa",ZA,ZAF,"Western Cape","Western Cape",ZA-WC,province,,1909.4,35897,35897,3,Africa/Johannesburg,FALSE,1710868778
Graaff-Reinet,Graaff-Reinet,"Graaf Reinet",-32.2522,24.5406,"South Africa",ZA,ZAF,"Eastern Cape","Eastern Cape",ZA-EC,province,,175.2,35672,35672,3,Africa/Johannesburg,FALSE,1710616617
"Port Shepstone","Port Shepstone",,-30.7500,30.4500,"South Africa",ZA,ZAF,KwaZulu-Natal,KwaZulu-Natal,ZA-KZN,,,937.2,35633,35633,3,Africa/Johannesburg,FALSE,1710443227
Lebowakgomo,Lebowakgomo,,-24.3050,29.5650,"South Africa",ZA,ZAF,Limpopo,Limpopo,ZA-LP,province,,1366.3,35087,35087,3,Africa/Johannesburg,FALSE,1710999076
Dundee,Dundee,,-28.1725,30.2314,"South Africa",ZA,ZAF,KwaZulu-Natal,KwaZulu-Natal,ZA-KZN,,,718.6,34924,34924,3,Africa/Johannesburg,FALSE,1710402130
Phokeng,Phokeng,,-25.5833,27.1333,"South Africa",ZA,ZAF,"North West","North West",ZA-NW,province,,1009.2,34597,34597,3,Africa/Johannesburg,FALSE,1710162596
"Beaufort West","Beaufort West",Beaufort-Wes,-32.3500,22.5833,"South Africa",ZA,ZAF,"Western Cape","Western Cape",ZA-WC,province,,603.3,34085,34085,3,Africa/Johannesburg,FALSE,1710940488
Mankoeng,Mankoeng,,-23.8860,29.7180,"South Africa",ZA,ZAF,Limpopo,Limpopo,ZA-LP,province,,5.6,33738,33738,3,Africa/Johannesburg,FALSE,1710970576
Acornhoek,Acornhoek,,-24.5930,31.0970,"South Africa",ZA,ZAF,Limpopo,Limpopo,ZA-LP,province,,862.1,33529,33529,3,Africa/Johannesburg,FALSE,1710315598
Ceres,Ceres,,-33.3667,19.3167,"South Africa",ZA,ZAF,"Western Cape","Western Cape",ZA-WC,province,,411.7,33224,33224,3,Africa/Johannesburg,FALSE,1710538694
"Plettenberg Bay","Plettenberg Bay",Formosa|Plettenbergbaai,-34.0500,23.3667,"South Africa",ZA,ZAF,"Western Cape","Western Cape",ZA-WC,province,,801.1,31804,31804,3,Africa/Johannesburg,FALSE,1710852785
Westville,Westville,,-29.8310,30.9250,"South Africa",ZA,ZAF,KwaZulu-Natal,KwaZulu-Natal,ZA-KZN,,,991.8,30508,30508,3,Africa/Johannesburg,FALSE,1710233007
Postmasburg,Postmasburg,,-28.3279,23.0706,"South Africa",ZA,ZAF,"Northern Cape","Northern Cape",ZA-NC,province,,189.9,30089,30089,3,Africa/Johannesburg,FALSE,1710958727
Kloof,Kloof,,-29.7833,30.8333,"South Africa",ZA,ZAF,KwaZulu-Natal,KwaZulu-Natal,ZA-KZN,,,860.7,29704,29704,3,Africa/Johannesburg,FALSE,1710132769
Ulundi,Ulundi,,-28.3167,31.4167,"South Africa",ZA,ZAF,KwaZulu-Natal,KwaZulu-Natal,ZA-KZN,,,2836.6,29132,29132,2,Africa/Johannesburg,FALSE,1710823263
Humansdorp,Humansdorp,,-34.0333,24.7667,"South Africa",ZA,ZAF,"Eastern Cape","Eastern Cape",ZA-EC,province,,840.3,28990,28990,3,Africa/Johannesburg,FALSE,1710228362
Mondlo,Mondlo,,-27.9670,30.7220,"South Africa",ZA,ZAF,KwaZulu-Natal,KwaZulu-Natal,ZA-KZN,,,2582.4,28871,28871,2,Africa/Johannesburg,FALSE,1710353186
Thabazimbi,Thabazimbi,,-24.6000,27.4000,"South Africa",ZA,ZAF,Limpopo,Limpopo,ZA-LP,province,,179.3,28847,28847,3,Africa/Johannesburg,FALSE,1710123508
Saldanha,Saldanha,"Hoedjes Bay|Hoedjesbaai|Hoetjes Bay",-32.9978,17.9456,"South Africa",ZA,ZAF,"Western Cape","Western Cape",ZA-WC,province,,1621.1,28142,28142,3,Africa/Johannesburg,FALSE,1710078862
Heilbron,Heilbron,,-27.2836,27.9708,"South Africa",ZA,ZAF,"Free State","Free State",ZA-FS,province,,1548.4,27407,27407,3,Africa/Johannesburg,FALSE,1710690190
"Jeffrey’s Bay","Jeffrey's Bay",Jeffreysbaai,-34.0333,24.9167,"South Africa",ZA,ZAF,"Eastern Cape","Eastern Cape",ZA-EC,province,,1303.8,27107,27107,3,Africa/Johannesburg,FALSE,1710277177
Wesselsbron,Wesselsbron,,-27.8500,26.3667,"South Africa",ZA,ZAF,"Free State","Free State",ZA-FS,province,,342.5,26807,26807,3,Africa/Johannesburg,FALSE,1710874843
Margate,Margate,"Berkleys|Margate No. 4",-30.8500,30.3667,"South Africa",ZA,ZAF,KwaZulu-Natal,KwaZulu-Natal,ZA-KZN,,,917.0,26785,26785,3,Africa/Johannesburg,FALSE,1710711260
Dinokana,Dinokana,Linokana,-25.4470,25.8630,"South Africa",ZA,ZAF,"North West","North West",ZA-NW,province,,671.3,26409,26409,3,Africa/Johannesburg,FALSE,1710563315
Lichtenburg,Lichtenburg,,-26.1500,26.1667,"South Africa",ZA,ZAF,"North West","North West",ZA-NW,province,,241.9,26338,26338,3,Africa/Johannesburg,FALSE,1710444843
Frankfort,Frankfort,,-27.2833,28.5167,"South Africa",ZA,ZAF,"Free State","Free State",ZA-FS,province,,1250.9,26144,26144,3,Africa/Johannesburg,FALSE,1710386625
Giyani,Giyani,Giyane,-23.3100,30.7064,"South Africa",ZA,ZAF,Limpopo,Limpopo,ZA-LP,province,,1330.3,25954,25954,3,Africa/Johannesburg,FALSE,1710329384
Mathibestad,Mathibestad,Mathibestat,-25.2760,28.1780,"South Africa",ZA,ZAF,"North West","North West",ZA-NW,province,,1080.1,25945,25945,3,Africa/Johannesburg,FALSE,1710645736
"Port Alfred","Port Alfred","The Kowie|Kowie",-33.5917,26.8875,"South Africa",ZA,ZAF,"Eastern Cape","Eastern Cape",ZA-EC,province,,554.9,25859,25859,3,Africa/Johannesburg,FALSE,1710920478
Mpophomeni,Mpophomeni,,-29.5670,30.1820,"South Africa",ZA,ZAF,KwaZulu-Natal,KwaZulu-Natal,ZA-KZN,,,5618.3,25732,25732,2,Africa/Johannesburg,FALSE,1710050186
"Fort Beaufort","Fort Beaufort",,-32.7789,26.6353,"South Africa",ZA,ZAF,"Eastern Cape","Eastern Cape",ZA-EC,province,,310.0,25668,25668,3,Africa/Johannesburg,FALSE,1710185168
"Louis Trichardt","Louis Trichardt",,-23.0500,29.9000,"South Africa",ZA,ZAF,Limpopo,Limpopo,ZA-LP,province,,449.5,25360,25360,3,Africa/Johannesburg,FALSE,1710514527
Stutterheim,Stutterheim,,-32.5667,27.4167,"South Africa",ZA,ZAF,"Eastern Cape","Eastern Cape",ZA-EC,province,,203.2,24673,24673,3,Africa/Johannesburg,FALSE,1710990071
Hennenman,Hennenman,,-27.9667,27.0333,"South Africa",ZA,ZAF,"Free State","Free State",ZA-FS,province,,626.0,24355,24355,3,Africa/Johannesburg,FALSE,1710476156
Volksrust,Volksrust,Volkrust,-27.3667,29.8833,"South Africa",ZA,ZAF,Mpumalanga,Mpumalanga,ZA-MP,province,,954.8,24281,24281,3,Africa/Johannesburg,FALSE,1710664906
"uMhlanga Rocks","uMhlanga Rocks","Umhlanga Rocks",-29.7333,31.0708,"South Africa",ZA,ZAF,KwaZulu-Natal,KwaZulu-Natal,ZA-KZN,,,1447.0,24238,24238,3,Africa/Johannesburg,FALSE,1710763964
"Jan Kempdorp","Jan Kempdorp","Jan Kemp|Andalusia",-27.9194,24.8361,"South Africa",ZA,ZAF,"North West","North West",ZA-NW,province,,321.1,24220,24220,3,Africa/Johannesburg,FALSE,1710866811
"De Aar","De Aar",,-30.6500,24.0167,"South Africa",ZA,ZAF,"Northern Cape","Northern Cape",ZA-NC,province,,282.2,23760,23760,3,Africa/Johannesburg,FALSE,1710551900
Bultfontein,Bultfontein,,-28.2869,26.1506,"South Africa",ZA,ZAF,"Free State","Free State",ZA-FS,province,,531.0,23365,23365,3,Africa/Johannesburg,FALSE,1710911314
Ka-Bungeni,Ka-Bungeni,Bongene,-23.2060,30.2240,"South Africa",ZA,ZAF,Limpopo,Limpopo,ZA-LP,province,,618.5,23000,23000,3,Africa/Johannesburg,FALSE,1710486553
Carletonville,Carletonville,,-26.3581,27.3981,"South Africa",ZA,ZAF,Gauteng,Gauteng,ZA-GP,,,654.5,23000,23000,3,Africa/Johannesburg,FALSE,1710257170
Warrenton,Warrenton,,-28.1114,24.8497,"South Africa",ZA,ZAF,"Northern Cape","Northern Cape",ZA-NC,province,,712.6,22588,22588,3,Africa/Johannesburg,FALSE,1710333461
Nkowakowa,Nkowakowa,,-23.8860,30.2930,"South Africa",ZA,ZAF,Limpopo,Limpopo,ZA-LP,province,,1385.3,22484,22484,3,Africa/Johannesburg,FALSE,1710288921
Hartbeespoort,Hartbeespoort,Hartebeestpoort,-25.7442,27.8994,"South Africa",ZA,ZAF,"North West","North West",ZA-NW,province,,177.7,22374,22374,3,Africa/Johannesburg,FALSE,1710638628
Estcourt,Estcourt,,-29.0000,29.8833,"South Africa",ZA,ZAF,KwaZulu-Natal,KwaZulu-Natal,ZA-KZN,,,363.4,22071,22071,3,Africa/Johannesburg,FALSE,1710338494
Robertson,Robertson,,-33.8000,19.8833,"South Africa",ZA,ZAF,"Western Cape","Western Cape",ZA-WC,province,,964.8,21929,21929,3,Africa/Johannesburg,FALSE,1710095226
Pampierstad,Pampierstad,Pampierstat,-27.7760,24.6900,"South Africa",ZA,ZAF,"North West","North West",ZA-NW,province,,2089.2,21707,21707,2,Africa/Johannesburg,FALSE,1710316384
Howick,Howick,,-29.4667,30.2333,"South Africa",ZA,ZAF,KwaZulu-Natal,KwaZulu-Natal,ZA-KZN,,,738.0,21639,21639,3,Africa/Johannesburg,FALSE,1710825371
Hammanskraal,Hammanskraal,,-25.4000,28.2833,"South Africa",ZA,ZAF,"North West","North West",ZA-NW,province,,2808.6,21345,21345,2,Africa/Johannesburg,FALSE,1710452315
Vryburg,Vryburg,,-26.9586,24.7322,"South Africa",ZA,ZAF,"North West","North West",ZA-NW,province,,329.7,21182,21182,3,Africa/Johannesburg,FALSE,1710969597
Bronkhorstspruit,Bronkhorstspruit,Erasmus,-25.8050,28.7464,"South Africa",ZA,ZAF,Gauteng,Gauteng,ZA-GP,,,1570.5,20769,20769,3,Africa/Johannesburg,FALSE,1710969025
Reitz,Reitz,,-27.8000,28.4333,"South Africa",ZA,ZAF,"Free State","Free State",ZA-FS,province,,785.3,20183,20183,3,Africa/Johannesburg,FALSE,1710297221
"Barkly West","Barkly West",Barkly-Wes,-28.5381,24.5186,"South Africa",ZA,ZAF,"Northern Cape","Northern Cape",ZA-NC,province,,275.0,20105,20105,3,Africa/Johannesburg,FALSE,1710486468
Douglas,Douglas,,-29.0500,23.7667,"South Africa",ZA,ZAF,"Northern Cape","Northern Cape",ZA-NC,province,,232.4,20083,20083,3,Africa/Johannesburg,FALSE,1710291647
Indwe,Indwe,,-31.4660,27.3330,"South Africa",ZA,ZAF,"Eastern Cape","Eastern Cape",ZA-EC,province,,17.7,20000,20000,3,Africa/Johannesburg,FALSE,1710759876
Itsoseng,Itsoseng,,-26.0830,25.8820,"South Africa",ZA,ZAF,"North West","North West",ZA-NW,province,,2815.1,19959,19959,2,Africa/Johannesburg,FALSE,1710690742
Garsfontein,Garsfontein,,-25.7913,28.2935,"South Africa",ZA,ZAF,Gauteng,Gauteng,ZA-GP,,,2671.4,19501,19501,2,Africa/Johannesburg,FALSE,1710375555
Deneysville,Deneysville,Denysville,-26.8950,28.0983,"South Africa",ZA,ZAF,"Free State","Free State",ZA-FS,province,,424.4,19479,19479,3,Africa/Johannesburg,FALSE,1710356992
Setlagode,Setlagode,Setlagodi|Setlagoli|Setlago,-26.2870,25.1170,"South Africa",ZA,ZAF,"North West","North West",ZA-NW,province,,632.0,19452,19452,3,Africa/Johannesburg,FALSE,1710918056
Allanridge,Allanridge,,-27.7544,26.6367,"South Africa",ZA,ZAF,"Free State","Free State",ZA-FS,province,,610.0,19337,19337,3,Africa/Johannesburg,FALSE,1710862550
Ganyesa,Ganyesa,Genesa|Genyesa,-26.5908,24.1594,"South Africa",ZA,ZAF,"North West","North West",ZA-NW,province,,898.9,19290,19290,3,Africa/Johannesburg,FALSE,1710514594
Ballitoville,Ballitoville,,-29.5333,31.2167,"South Africa",ZA,ZAF,KwaZulu-Natal,KwaZulu-Natal,ZA-KZN,,,868.0,19234,19234,3,Africa/Johannesburg,FALSE,1710448341
"Somerset East","Somerset East",Somerset-Oos,-32.7167,25.5833,"South Africa",ZA,ZAF,"Eastern Cape","Eastern Cape",ZA-EC,province,,258.6,18825,18825,3,Africa/Johannesburg,FALSE,1710266553
Middelburg,Middelburg,,-31.4939,25.0172,"South Africa",ZA,ZAF,"Eastern Cape","Eastern Cape",ZA-EC,province,,417.4,18681,18681,3,Africa/Johannesburg,FALSE,1710010705
Taung,Taung,Taungs,-27.5625,24.7481,"South Africa",ZA,ZAF,"North West","North West",ZA-NW,province,,881.4,18289,18289,3,Africa/Johannesburg,FALSE,1710112658
Vredendal,Vredendal,,-31.6644,18.5061,"South Africa",ZA,ZAF,"Western Cape","Western Cape",ZA-WC,province,,787.3,18170,18170,3,Africa/Johannesburg,TRUE,1710903827
Stilfontein,Stilfontein,,-26.8428,26.7744,"South Africa",ZA,ZAF,"North West","North West",ZA-NW,province,,129.2,17942,17942,3,Africa/Johannesburg,FALSE,1710755167
Mooirivier,Mooirivier,"Mooi River",-29.2000,29.9833,"South Africa",ZA,ZAF,KwaZulu-Natal,KwaZulu-Natal,ZA-KZN,,,1292.1,17779,17779,3,Africa/Johannesburg,FALSE,1710613879
Vrede,Vrede,,-27.4300,29.1600,"South Africa",ZA,ZAF,"Free State","Free State",ZA-FS,province,,353.1,17689,17689,3,Africa/Johannesburg,FALSE,1710018018
Glencoe,Glencoe,,-28.1833,30.1500,"South Africa",ZA,ZAF,KwaZulu-Natal,KwaZulu-Natal,ZA-KZN,,,660.2,17548,17548,3,Africa/Johannesburg,FALSE,1710982965
Swellendam,Swellendam,,-34.0231,20.4400,"South Africa",ZA,ZAF,"Western Cape","Western Cape",ZA-WC,province,,237.6,17537,17537,3,Africa/Johannesburg,FALSE,1710416218
Villiers,Villiers,,-27.0333,28.6000,"South Africa",ZA,ZAF,"Free State","Free State",ZA-FS,province,,367.3,17315,17315,3,Africa/Johannesburg,FALSE,1710177732
Colesberg,Colesberg,"Colesberg Town|Colesberg Dorp",-30.7167,25.1000,"South Africa",ZA,ZAF,"Northern Cape","Northern Cape",ZA-NC,province,,96.5,16869,16869,3,Africa/Johannesburg,FALSE,1710885210
Kingsborough,Kingsborough,Kingsburgh,-30.0833,30.8667,"South Africa",ZA,ZAF,KwaZulu-Natal,KwaZulu-Natal,ZA-KZN,,,1405.0,16368,16368,3,Africa/Johannesburg,FALSE,1710907180
Bethlehem,Bethlehem,,-28.2240,28.3110,"South Africa",ZA,ZAF,"Free State","Free State",ZA-FS,province,,584.0,16236,16236,3,Africa/Johannesburg,FALSE,1710750307
eMuziwezinto,eMuziwezinto,Umzinto,-30.3167,30.6667,"South Africa",ZA,ZAF,KwaZulu-Natal,KwaZulu-Natal,ZA-KZN,,,381.4,16205,16205,3,Africa/Johannesburg,FALSE,1710277194
Riversdale,Riversdale,Riversdal,-34.0969,21.2622,"South Africa",ZA,ZAF,"Western Cape","Western Cape",ZA-WC,province,,161.0,16176,16176,3,Africa/Johannesburg,FALSE,1710864327
Bethulie,Bethulie,,-30.4667,25.9667,"South Africa",ZA,ZAF,"Free State","Free State",ZA-FS,province,,432.4,16000,16000,3,Africa/Johannesburg,FALSE,1710614025
Turffontein,Turffontein,,-26.2446,28.0397,"South Africa",ZA,ZAF,Gauteng,Gauteng,ZA-GP,,,6040.7,15887,15887,2,Africa/Johannesburg,FALSE,1710103722
Bredasdorp,Bredasdorp,,-34.5333,20.0417,"South Africa",ZA,ZAF,"Western Cape","Western Cape",ZA-WC,province,,617.3,15524,15524,3,Africa/Johannesburg,FALSE,1710282172
Kinross,Kinross,,-26.4167,29.0833,"South Africa",ZA,ZAF,Mpumalanga,Mpumalanga,ZA-MP,province,,441.8,15246,15246,3,Africa/Johannesburg,FALSE,1710559931
Kriel,Kriel,,-26.2550,29.2630,"South Africa",ZA,ZAF,Mpumalanga,Mpumalanga,ZA-MP,province,,1.9,15237,15237,3,Africa/Johannesburg,FALSE,1710547158
Montagu,Montagu,,-33.7833,20.1167,"South Africa",ZA,ZAF,"Western Cape","Western Cape",ZA-WC,province,,464.0,15176,15176,3,Africa/Johannesburg,FALSE,1710489752
Alice,Alice,,-32.7892,26.8350,"South Africa",ZA,ZAF,"Eastern Cape","Eastern Cape",ZA-EC,province,,1537.4,15143,15143,3,Africa/Johannesburg,FALSE,1710093776
Mahikeng,Mahikeng,Mafikeng|Mafeking,-25.8656,25.6436,"South Africa",ZA,ZAF,"North West","North West",ZA-NW,province,admin,1254.1,15117,15117,2,Africa/Johannesburg,FALSE,1710965423
Makapanstad,Makapanstad,Makapaanstat|Makapaanstad,-25.2390,28.1160,"South Africa",ZA,ZAF,"North West","North West",ZA-NW,province,,737.2,15076,15076,3,Africa/Johannesburg,FALSE,1710456011
Eshowe,Eshowe,,-28.8883,31.4483,"South Africa",ZA,ZAF,KwaZulu-Natal,KwaZulu-Natal,ZA-KZN,,,808.8,14744,14744,3,Africa/Johannesburg,FALSE,1710174822
Vredefort,Vredefort,,-27.0167,27.3833,"South Africa",ZA,ZAF,"Free State","Free State",ZA-FS,province,,212.8,14619,14619,3,Africa/Johannesburg,FALSE,1710724426
Tzaneen,Tzaneen,,-23.8333,30.1667,"South Africa",ZA,ZAF,Limpopo,Limpopo,ZA-LP,province,,657.5,14571,14571,3,Africa/Johannesburg,FALSE,1710120942
Edenburg,Edenburg,,-29.7347,25.9369,"South Africa",ZA,ZAF,"Free State","Free State",ZA-FS,province,,351.8,14566,14566,3,Africa/Johannesburg,FALSE,1710160465
Breyten,Breyten,Breyton,-26.3000,29.9833,"South Africa",ZA,ZAF,Mpumalanga,Mpumalanga,ZA-MP,province,,3174.1,14347,14347,2,Africa/Johannesburg,FALSE,1710458798
Morokweng,Morokweng,Morokwen,-26.1270,23.7750,"South Africa",ZA,ZAF,"North West","North West",ZA-NW,province,,590.0,14260,14260,3,Africa/Johannesburg,TRUE,1710258346
Prieska,Prieska,,-29.6683,22.7439,"South Africa",ZA,ZAF,"Northern Cape","Northern Cape",ZA-NC,province,,72.9,14246,14246,3,Africa/Johannesburg,FALSE,1710649877
Primrose,Primrose,,-26.1833,28.1667,"South Africa",ZA,ZAF,Gauteng,Gauteng,ZA-GP,,,3089.0,14024,14024,2,Africa/Johannesburg,FALSE,1710333435
Bedfordview,Bedfordview,,-26.1794,28.1361,"South Africa",ZA,ZAF,Gauteng,Gauteng,ZA-GP,,,1261.0,13959,13959,3,Africa/Johannesburg,FALSE,1710039739
eManzimtoti,eManzimtoti,Amanzimtoti,-30.0500,30.8833,"South Africa",ZA,ZAF,KwaZulu-Natal,KwaZulu-Natal,ZA-KZN,,,1503.0,13813,13813,3,Africa/Johannesburg,FALSE,1710134242
Koppies,Koppies,Kopjes,-27.2333,27.5833,"South Africa",ZA,ZAF,"Free State","Free State",ZA-FS,province,,141.0,13803,13803,3,Africa/Johannesburg,FALSE,1710515880
Kirkwood,Kirkwood,,-33.4003,25.4425,"South Africa",ZA,ZAF,"Eastern Cape","Eastern Cape",ZA-EC,province,,1917.1,13765,13765,3,Africa/Johannesburg,FALSE,1710628933
Daniëlskuil,Danielskuil,,-28.2000,23.5833,"South Africa",ZA,ZAF,"Northern Cape","Northern Cape",ZA-NC,province,,77.9,13597,13597,3,Africa/Johannesburg,FALSE,1710982703
Orkney,Orkney,Eastleigh,-26.9789,26.6692,"South Africa",ZA,ZAF,"North West","North West",ZA-NW,province,,817.7,13435,13435,3,Africa/Johannesburg,FALSE,1710136226
Makwassie,Makwassie,Maquassi,-27.3167,25.9833,"South Africa",ZA,ZAF,"North West","North West",ZA-NW,province,,273.2,13351,13351,3,Africa/Johannesburg,FALSE,1710051570
Hillcrest,Hillcrest,,-29.7800,30.7628,"South Africa",ZA,ZAF,KwaZulu-Natal,KwaZulu-Natal,ZA-KZN,,,621.7,13329,13329,3,Africa/Johannesburg,FALSE,1710122351
Ashton,Ashton,,-33.8347,20.0547,"South Africa",ZA,ZAF,"Western Cape","Western Cape",ZA-WC,province,,567.0,13325,13325,3,Africa/Johannesburg,FALSE,1710554296
Okkerneutboom,Okkerneutboom,,-24.5950,31.1390,"South Africa",ZA,ZAF,Limpopo,Limpopo,ZA-LP,province,,681.5,13324,13324,3,Africa/Johannesburg,FALSE,1710148389
Phalaborwa,Phalaborwa,Palabora,-23.9333,31.1167,"South Africa",ZA,ZAF,Limpopo,Limpopo,ZA-LP,province,,67.8,13108,13108,3,Africa/Johannesburg,FALSE,1710768568
Kuruman,Kuruman,,-27.4500,23.4333,"South Africa",ZA,ZAF,"Northern Cape","Northern Cape",ZA-NC,province,,139.8,13057,13057,3,Africa/Johannesburg,FALSE,1710332978
Caledon,Caledon,,-34.2300,19.4283,"South Africa",ZA,ZAF,"Western Cape","Western Cape",ZA-WC,province,,720.9,13020,13020,3,Africa/Johannesburg,FALSE,1710038887
Fouriesburg,Fouriesburg,,-28.6227,28.2109,"South Africa",ZA,ZAF,"Free State","Free State",ZA-FS,province,,231.2,12974,12974,3,Africa/Johannesburg,FALSE,1710689900
Pretoria-Noord,Pretoria-Noord,"Pretoria North",-25.6731,28.1733,"South Africa",ZA,ZAF,Gauteng,Gauteng,ZA-GP,,,2105.8,12972,12972,2,Africa/Johannesburg,FALSE,1710539287
Elandsdoorn,Elandsdoorn,,-25.2880,29.1960,"South Africa",ZA,ZAF,Mpumalanga,Mpumalanga,ZA-MP,province,,1434.7,12941,12941,3,Africa/Johannesburg,FALSE,1710800977
"Petrus Steyn","Petrus Steyn",,-27.6500,28.1333,"South Africa",ZA,ZAF,"Free State","Free State",ZA-FS,province,,152.2,12893,12893,3,Africa/Johannesburg,FALSE,1710440827
Moorreesburg,Moorreesburg,,-33.1500,18.6667,"South Africa",ZA,ZAF,"Western Cape","Western Cape",ZA-WC,province,,463.2,12877,12877,3,Africa/Johannesburg,FALSE,1710940552
Springbok,Springbok,"Springbok Fontein",-29.6667,17.8833,"South Africa",ZA,ZAF,"Northern Cape","Northern Cape",ZA-NC,province,,340.5,12790,12790,3,Africa/Johannesburg,FALSE,1710894218
Casteel,Casteel,,-24.7247,31.0201,"South Africa",ZA,ZAF,Mpumalanga,Mpumalanga,ZA-MP,province,,939.0,12752,12752,3,Africa/Johannesburg,FALSE,1710483135
Buffelshoek,Buffelshoek,,-24.6308,31.1383,"South Africa",ZA,ZAF,Limpopo,Limpopo,ZA-LP,province,,1085.7,12703,12703,3,Africa/Johannesburg,FALSE,1710314015
Groutville,Groutville,Aldinville,-29.3880,31.2450,"South Africa",ZA,ZAF,KwaZulu-Natal,KwaZulu-Natal,ZA-KZN,,,1601.8,12638,12638,3,Africa/Johannesburg,FALSE,1710077829
Summerstrand,Summerstrand,,-33.9914,25.6569,"South Africa",ZA,ZAF,"Eastern Cape","Eastern Cape",ZA-EC,province,,1584.7,12614,12614,3,Africa/Johannesburg,FALSE,1710926578
"New Germany","New Germany",,-29.8000,30.8833,"South Africa",ZA,ZAF,KwaZulu-Natal,KwaZulu-Natal,ZA-KZN,,,66.9,12592,12592,3,Africa/Johannesburg,FALSE,1710344867
"Jeppe’s Reef","Jeppe's Reef",,-25.7200,31.4770,"South Africa",ZA,ZAF,Mpumalanga,Mpumalanga,ZA-MP,province,,1687.5,12589,12589,3,Africa/Johannesburg,FALSE,1710919073
Dysselsdorp,Dysselsdorp,Oysseldorp|Dysseldorp,-33.5667,22.4333,"South Africa",ZA,ZAF,"Western Cape","Western Cape",ZA-WC,province,,1007.6,12544,12544,3,Africa/Johannesburg,FALSE,1710175783
Matatiele,Matatiele,,-30.3422,28.8061,"South Africa",ZA,ZAF,KwaZulu-Natal,KwaZulu-Natal,ZA-KZN,,,1113.0,12466,12466,3,Africa/Johannesburg,FALSE,1710858358
eXobho,eXobho,Ixopo,-30.1572,30.0647,"South Africa",ZA,ZAF,KwaZulu-Natal,KwaZulu-Natal,ZA-KZN,,,1148.5,12461,12461,3,Africa/Johannesburg,FALSE,1710624745
Amersfoort,Amersfoort,,-27.0078,29.8711,"South Africa",ZA,ZAF,Mpumalanga,Mpumalanga,ZA-MP,province,,721.8,12335,12335,3,Africa/Johannesburg,FALSE,1710004486
Adelaide,Adelaide,,-32.7078,26.2956,"South Africa",ZA,ZAF,"Eastern Cape","Eastern Cape",ZA-EC,province,,304.8,12191,12191,3,Africa/Johannesburg,FALSE,1710819752
Lenyenye,Lenyenye,,-23.9720,30.2690,"South Africa",ZA,ZAF,Limpopo,Limpopo,ZA-LP,province,,1373.3,12099,12099,3,Africa/Johannesburg,FALSE,1710678244
Piketberg,Piketberg,Piquetberg|Piketburg,-32.9000,18.7667,"South Africa",ZA,ZAF,"Western Cape","Western Cape",ZA-WC,province,,909.9,12075,12075,3,Africa/Johannesburg,FALSE,1710229097
Keimoes,Keimoes,Gordonia,-28.7000,20.9667,"South Africa",ZA,ZAF,"Northern Cape","Northern Cape",ZA-NC,province,,456.6,12000,12000,3,Africa/Johannesburg,FALSE,1710895781
Barberton,Barberton,,-25.7861,31.0531,"South Africa",ZA,ZAF,Mpumalanga,Mpumalanga,ZA-MP,province,,317.9,11997,11997,3,Africa/Johannesburg,FALSE,1710775369
Hankey,Hankey,,-33.8314,24.8808,"South Africa",ZA,ZAF,"Eastern Cape","Eastern Cape",ZA-EC,province,,559.5,11761,11761,3,Africa/Johannesburg,FALSE,1710584710
Gansbaai,Gansbaai,"Gans Bay",-34.5828,19.3522,"South Africa",ZA,ZAF,"Western Cape","Western Cape",ZA-WC,province,,932.3,11598,11598,3,Africa/Johannesburg,FALSE,1710726795
Molteno,Molteno,,-31.3961,26.3631,"South Africa",ZA,ZAF,"Eastern Cape","Eastern Cape",ZA-EC,province,,286.8,11553,11553,3,Africa/Johannesburg,FALSE,1710419587
"Saint Helena Bay","Saint Helena Bay","Saint Helenabaai",-32.7583,18.0278,"South Africa",ZA,ZAF,"Western Cape","Western Cape",ZA-WC,province,,136.1,11529,11529,3,Africa/Johannesburg,FALSE,1710255294
Kathu,Kathu,,-27.7000,23.0500,"South Africa",ZA,ZAF,"Northern Cape","Northern Cape",ZA-NC,province,,739.7,11510,11510,3,Africa/Johannesburg,FALSE,1710811489
"Mount Fletcher","Mount Fletcher",,-30.6920,28.5030,"South Africa",ZA,ZAF,"Eastern Cape","Eastern Cape",ZA-EC,province,,1244.6,11488,11488,3,Africa/Johannesburg,FALSE,1710227236
Gonubie,Gonubie,"Gonubie Mouth|Conubie Mouth",-32.9430,28.0080,"South Africa",ZA,ZAF,"Eastern Cape","Eastern Cape",ZA-EC,province,,1134.6,11471,11471,3,Africa/Johannesburg,FALSE,1710831729
Mogogelo,Mogogelo,,-25.3540,28.1380,"South Africa",ZA,ZAF,"North West","North West",ZA-NW,province,,2462.3,11425,11425,2,Africa/Johannesburg,FALSE,1710098983
Scottburgh,Scottburgh,Scottsburgh|Scottburg,-30.2833,30.7500,"South Africa",ZA,ZAF,KwaZulu-Natal,KwaZulu-Natal,ZA-KZN,,,479.1,11403,11403,3,Africa/Johannesburg,FALSE,1710536127
"Vaal Reefs","Vaal Reefs","Vaal Reef",-26.9290,26.7360,"South Africa",ZA,ZAF,"North West","North West",ZA-NW,province,,1844.7,11345,11345,3,Africa/Johannesburg,FALSE,1710816410
"De Doorns","De Doorns",,-33.4833,19.6833,"South Africa",ZA,ZAF,"Western Cape","Western Cape",ZA-WC,province,,1483.9,11278,11278,3,Africa/Johannesburg,FALSE,1710197485
Riebeeckstad,Riebeeckstad,,-27.9188,26.8188,"South Africa",ZA,ZAF,"Free State","Free State",ZA-FS,province,,852.3,11268,11268,3,Africa/Johannesburg,FALSE,1710099889
Ventersburg,Ventersburg,,-28.0833,27.1333,"South Africa",ZA,ZAF,"Free State","Free State",ZA-FS,province,,520.4,11260,11260,3,Africa/Johannesburg,FALSE,1710599801
Bhisho,Bhisho,Bisho,-32.8494,27.4381,"South Africa",ZA,ZAF,"Eastern Cape","Eastern Cape",ZA-EC,province,admin,1385.1,11192,11192,2,Africa/Johannesburg,FALSE,1710672530
Langeloop,Langeloop,,-25.6840,31.6350,"South Africa",ZA,ZAF,Mpumalanga,Mpumalanga,ZA-MP,province,,1482.9,11122,11122,3,Africa/Johannesburg,FALSE,1710475278
Ekuvukeni,Ekuvukeni,,-28.4660,30.1570,"South Africa",ZA,ZAF,KwaZulu-Natal,KwaZulu-Natal,ZA-KZN,,,3475.7,11018,11018,2,Africa/Johannesburg,FALSE,1710179210
Velddrif,Velddrif,Velddrift,-32.7833,18.1667,"South Africa",ZA,ZAF,"Western Cape","Western Cape",ZA-WC,province,,1242.1,11017,11017,3,Africa/Johannesburg,FALSE,1710031295
Sannieshof,Sannieshof,,-26.5333,25.8000,"South Africa",ZA,ZAF,"North West","North West",ZA-NW,province,,162.6,11016,11016,3,Africa/Johannesburg,FALSE,1710190393
Warden,Warden,,-27.8539,28.9667,"South Africa",ZA,ZAF,"Free State","Free State",ZA-FS,province,,645.7,10977,10977,3,Africa/Johannesburg,FALSE,1710026045
Mogwase,Mogwase,,-25.2760,27.2160,"South Africa",ZA,ZAF,"North West","North West",ZA-NW,province,,550.6,10743,10743,3,Africa/Johannesburg,FALSE,1710295342
Delareyville,Delareyville,,-26.6833,25.4667,"South Africa",ZA,ZAF,"North West","North West",ZA-NW,province,,291.0,10630,10630,3,Africa/Johannesburg,FALSE,1710957895
Groot-Brakrivier,Groot-Brakrivier,"Great Brak River",-34.0425,22.2314,"South Africa",ZA,ZAF,"Western Cape","Western Cape",ZA-WC,province,,122.7,10619,10619,3,Africa/Johannesburg,FALSE,1710820658
Standerton,Standerton,Standerston,-26.9500,29.2500,"South Africa",ZA,ZAF,Mpumalanga,Mpumalanga,ZA-MP,province,,604.3,10611,10611,3,Africa/Johannesburg,FALSE,1710222465
Hartswater,Hartswater,,-27.7667,24.8167,"South Africa",ZA,ZAF,"Northern Cape","Northern Cape",ZA-NC,province,,971.7,10465,10465,3,Africa/Johannesburg,FALSE,1710445940
Darling,Darling,,-33.3833,18.3833,"South Africa",ZA,ZAF,"Western Cape","Western Cape",ZA-WC,province,,324.9,10420,10420,3,Africa/Johannesburg,FALSE,1710629684
Koffiefontein,Koffiefontein,,-29.4081,25.0022,"South Africa",ZA,ZAF,"Free State","Free State",ZA-FS,province,,282.3,10402,10402,3,Africa/Johannesburg,FALSE,1710585904
Delportshoop,Delportshoop,"Delport’s Hope|Delpoorts Hope",-28.4167,24.3000,"South Africa",ZA,ZAF,"Northern Cape","Northern Cape",ZA-NC,province,,152.6,10346,10346,3,Africa/Johannesburg,FALSE,1710045327
Hopetown,Hopetown,,-29.6258,24.0856,"South Africa",ZA,ZAF,"Northern Cape","Northern Cape",ZA-NC,province,,138.9,10259,10259,3,Africa/Johannesburg,FALSE,1710937752
Westonaria,Westonaria,,-26.3178,27.6506,"South Africa",ZA,ZAF,Gauteng,Gauteng,ZA-GP,,,811.0,10259,10259,3,Africa/Johannesburg,FALSE,1710232150
Olifantshoek,Olifantshoek,,-27.9333,22.7333,"South Africa",ZA,ZAF,"Northern Cape","Northern Cape",ZA-NC,province,,153.7,10233,10233,3,Africa/Johannesburg,FALSE,1710366238
Evander,Evander,,-26.4719,29.1100,"South Africa",ZA,ZAF,Mpumalanga,Mpumalanga,ZA-MP,province,,427.5,10166,10166,3,Africa/Johannesburg,FALSE,1710356044
Alexandria,Alexandria,,-33.6533,26.4083,"South Africa",ZA,ZAF,"Eastern Cape","Eastern Cape",ZA-EC,province,,1769.3,10085,10085,3,Africa/Johannesburg,FALSE,1710000053
Villiersdorp,Villiersdorp,,-33.9908,19.2894,"South Africa",ZA,ZAF,"Western Cape","Western Cape",ZA-WC,province,,869.9,10004,10004,3,Africa/Johannesburg,FALSE,1710014567
"Barkly East","Barkly East","Barkley East|Barkly-Oos",-30.9681,27.5933,"South Africa",ZA,ZAF,"Eastern Cape","Eastern Cape",ZA-EC,province,,594.4,9986,9986,3,Africa/Johannesburg,FALSE,1710127191
Koloti,Koloti,,-23.7460,29.3070,"South Africa",ZA,ZAF,Limpopo,Limpopo,ZA-LP,province,,920.7,9953,9953,3,Africa/Johannesburg,FALSE,1710600831
Kraaipan,Kraaipan,,-26.2940,25.2970,"South Africa",ZA,ZAF,"North West","North West",ZA-NW,province,,315.6,9933,9933,3,Africa/Johannesburg,FALSE,1710969974
Ga-Kgapane,Ga-Kgapane,,-23.6490,30.2260,"South Africa",ZA,ZAF,Limpopo,Limpopo,ZA-LP,province,,2579.4,9879,9879,2,Africa/Johannesburg,FALSE,1710661361
Ncora,Ncora,,-31.7938,27.7579,"South Africa",ZA,ZAF,"Eastern Cape","Eastern Cape",ZA-EC,province,,54.8,9755,9755,3,Africa/Johannesburg,FALSE,1710489656
Sitebe,Sitebe,iSithebe,-29.0890,31.4320,"South Africa",ZA,ZAF,KwaZulu-Natal,KwaZulu-Natal,ZA-KZN,,,13.1,9564,9564,3,Africa/Johannesburg,FALSE,1710271440
Wepener,Wepener,,-29.7333,27.0333,"South Africa",ZA,ZAF,"Free State","Free State",ZA-FS,province,,247.5,9553,9553,3,Africa/Johannesburg,FALSE,1710058517
Harding,Harding,,-30.5833,29.8833,"South Africa",ZA,ZAF,KwaZulu-Natal,KwaZulu-Natal,ZA-KZN,,,379.0,9544,9544,3,Africa/Johannesburg,FALSE,1710525967
Kakamas,Kakamas,,-28.8000,20.6500,"South Africa",ZA,ZAF,"Northern Cape","Northern Cape",ZA-NC,province,,628.2,9538,9538,3,Africa/Johannesburg,FALSE,1710730130
Fochville,Fochville,,-26.4833,27.4833,"South Africa",ZA,ZAF,"North West","North West",ZA-NW,province,,836.0,9497,9497,3,Africa/Johannesburg,FALSE,1710135294
Hertzogville,Hertzogville,,-28.1333,25.5000,"South Africa",ZA,ZAF,"Free State","Free State",ZA-FS,province,,420.7,9423,9423,3,Africa/Johannesburg,FALSE,1710261471
Mabeskraal,Mabeskraal,Mabieskraal,-25.1960,26.8030,"South Africa",ZA,ZAF,"North West","North West",ZA-NW,province,,461.8,9282,9282,3,Africa/Johannesburg,FALSE,1710486295
Boekenhouthoek,Boekenhouthoek,,-25.3030,29.0150,"South Africa",ZA,ZAF,Mpumalanga,Mpumalanga,ZA-MP,province,,1530.2,9166,9166,3,Africa/Johannesburg,FALSE,1710855523
Sabie,Sabie,,-25.0978,30.7792,"South Africa",ZA,ZAF,Mpumalanga,Mpumalanga,ZA-MP,province,,166.2,9148,9148,3,Africa/Johannesburg,FALSE,1710972784
Steynsrus,Steynsrus,Steynsrust,-27.9500,27.5667,"South Africa",ZA,ZAF,"Free State","Free State",ZA-FS,province,,1138.3,9106,9106,3,Africa/Johannesburg,FALSE,1710821875
Zeerust,Zeerust,,-25.5333,26.0833,"South Africa",ZA,ZAF,"North West","North West",ZA-NW,province,,159.3,9093,9093,3,Africa/Johannesburg,FALSE,1710873477
Bonnievale,Bonnievale,,-33.9275,20.1006,"South Africa",ZA,ZAF,"Western Cape","Western Cape",ZA-WC,province,,335.9,9092,9092,3,Africa/Johannesburg,FALSE,1710844520
Greytown,Greytown,,-29.0667,30.5833,"South Africa",ZA,ZAF,KwaZulu-Natal,KwaZulu-Natal,ZA-KZN,,,1913.7,9090,9090,3,Africa/Johannesburg,FALSE,1710074467
Mbuzini,Mbuzini,,-25.9333,31.9333,"South Africa",ZA,ZAF,Mpumalanga,Mpumalanga,ZA-MP,province,,1041.3,9070,9070,3,Africa/Johannesburg,FALSE,1710271791
Tulbagh,Tulbagh,,-33.2850,19.1378,"South Africa",ZA,ZAF,"Western Cape","Western Cape",ZA-WC,province,,194.9,8969,8969,3,Africa/Johannesburg,FALSE,1710401390
Machadodorp,Machadodorp,,-25.6667,30.2500,"South Africa",ZA,ZAF,Mpumalanga,Mpumalanga,ZA-MP,province,,266.4,8835,8835,3,Africa/Johannesburg,FALSE,1710722599
Cofimvaba,Cofimvaba,,-32.0025,27.5806,"South Africa",ZA,ZAF,"Eastern Cape","Eastern Cape",ZA-EC,province,,414.5,8783,8783,3,Africa/Johannesburg,FALSE,1710247329
Doornkop,Doornkop,,-26.2328,27.7833,"South Africa",ZA,ZAF,Gauteng,Gauteng,ZA-GP,,,6992.0,8740,8740,2,Africa/Johannesburg,FALSE,1710749845
Cullinan,Cullinan,,-25.6728,28.5208,"South Africa",ZA,ZAF,Gauteng,Gauteng,ZA-GP,,,156.2,8693,8693,3,Africa/Johannesburg,FALSE,1710780636
Gillitts,Gillitts,Gillitts-Emberton,-29.7972,30.7944,"South Africa",ZA,ZAF,KwaZulu-Natal,KwaZulu-Natal,ZA-KZN,,,750.5,8661,8661,3,Africa/Johannesburg,FALSE,1710616584
Cradock,Cradock,,-32.1650,25.6175,"South Africa",ZA,ZAF,"Eastern Cape","Eastern Cape",ZA-EC,province,,72.8,8626,8626,3,Africa/Johannesburg,FALSE,1710933404
Boshof,Boshof,,-28.5500,25.2333,"South Africa",ZA,ZAF,"Free State","Free State",ZA-FS,province,,92.8,8509,8509,3,Africa/Johannesburg,FALSE,1710704433
Umzimkulu,Umzimkulu,,-30.2630,29.9400,"South Africa",ZA,ZAF,"Eastern Cape","Eastern Cape",ZA-EC,province,,1845.9,8399,8399,3,Africa/Johannesburg,FALSE,1710390621
Magogong,Magogong,,-27.6540,24.8150,"South Africa",ZA,ZAF,"North West","North West",ZA-NW,province,,643.5,8327,8327,3,Africa/Johannesburg,FALSE,1710658797
Langebaan,Langebaan,"Laangebaan Village",-33.0917,18.0333,"South Africa",ZA,ZAF,"Western Cape","Western Cape",ZA-WC,province,,411.4,8297,8297,3,Africa/Johannesburg,FALSE,1710962715
Sedgefield,Sedgefield,,-34.0214,22.8033,"South Africa",ZA,ZAF,"Western Cape","Western Cape",ZA-WC,province,,1055.5,8286,8286,3,Africa/Johannesburg,FALSE,1710778897
Kestell,Kestell,,-28.3167,28.7000,"South Africa",ZA,ZAF,"Free State","Free State",ZA-FS,province,,116.2,8269,8269,3,Africa/Johannesburg,FALSE,1710884419
Heidelberg,Heidelberg,,-34.0833,20.9500,"South Africa",ZA,ZAF,"Western Cape","Western Cape",ZA-WC,province,,348.6,8259,8259,3,Africa/Johannesburg,FALSE,1710803799
"Victoria West","Victoria West",Victoria-Wes,-31.4031,23.1206,"South Africa",ZA,ZAF,"Northern Cape","Northern Cape",ZA-NC,province,,104.5,8254,8254,3,Africa/Johannesburg,FALSE,1710503422
Hawston,Hawston,,-34.3833,19.1333,"South Africa",ZA,ZAF,"Western Cape","Western Cape",ZA-WC,province,,1766.5,8214,8214,3,Africa/Johannesburg,FALSE,1710751369
Buffelspruit,Buffelspruit,,-25.6580,31.5160,"South Africa",ZA,ZAF,Mpumalanga,Mpumalanga,ZA-MP,province,,1734.0,8202,8202,3,Africa/Johannesburg,FALSE,1710612370
Rayton,Rayton,,-25.7394,28.5289,"South Africa",ZA,ZAF,Gauteng,Gauteng,ZA-GP,,,55.9,8166,8166,3,Africa/Johannesburg,FALSE,1710635709
Touwsrivier,Touwsrivier,"Touws River",-33.3378,20.0336,"South Africa",ZA,ZAF,"Western Cape","Western Cape",ZA-WC,province,,375.9,8126,8126,3,Africa/Johannesburg,FALSE,1710519604
Komga,Komga,Komgha,-32.5770,27.8880,"South Africa",ZA,ZAF,"Eastern Cape","Eastern Cape",ZA-EC,province,,137.1,8090,8090,3,Africa/Johannesburg,FALSE,1710034473
Lorraine,Lorraine,,-33.9725,25.4981,"South Africa",ZA,ZAF,"Eastern Cape","Eastern Cape",ZA-EC,province,,1896.7,8004,8004,3,Africa/Johannesburg,FALSE,1710593072
Bizana,Bizana,,-30.8510,29.8380,"South Africa",ZA,ZAF,"Eastern Cape","Eastern Cape",ZA-EC,province,,330.5,7974,7974,3,Africa/Johannesburg,FALSE,1710679072
Dibeng,Dibeng,Deben,-27.5833,22.8833,"South Africa",ZA,ZAF,"Northern Cape","Northern Cape",ZA-NC,province,,864.3,7848,7848,3,Africa/Johannesburg,FALSE,1710991403
Noupoort,Noupoort,Naauwpoort,-31.1833,24.9500,"South Africa",ZA,ZAF,"Northern Cape","Northern Cape",ZA-NC,province,,769.4,7848,7848,3,Africa/Johannesburg,FALSE,1710813869
Saron,Saron,,-33.1810,19.0100,"South Africa",ZA,ZAF,"Western Cape","Western Cape",ZA-WC,province,,3682.2,7843,7843,2,Africa/Johannesburg,FALSE,1710632918
Melmoth,Melmoth,,-28.5833,31.3833,"South Africa",ZA,ZAF,KwaZulu-Natal,KwaZulu-Natal,ZA-KZN,,,584.9,7814,7814,3,Africa/Johannesburg,FALSE,1710462843
Bosfontein,Bosfontein,,-25.7440,31.6260,"South Africa",ZA,ZAF,Mpumalanga,Mpumalanga,ZA-MP,province,,1282.6,7811,7811,3,Africa/Johannesburg,FALSE,1710980558
Tsolo,Tsolo,,-31.3167,28.7500,"South Africa",ZA,ZAF,"Eastern Cape","Eastern Cape",ZA-EC,province,,166.8,7794,7794,3,Africa/Johannesburg,FALSE,1710344278
Breidbach,Breidbach,,-32.8833,27.4333,"South Africa",ZA,ZAF,"Eastern Cape","Eastern Cape",ZA-EC,province,,3119.3,7767,7767,2,Africa/Johannesburg,FALSE,1710313268
Willowmore,Willowmore,,-33.2833,23.4833,"South Africa",ZA,ZAF,"Eastern Cape","Eastern Cape",ZA-EC,province,,353.2,7678,7678,3,Africa/Johannesburg,FALSE,1710301391
Clanwilliam,Clanwilliam,Clanwillian,-32.1786,18.8911,"South Africa",ZA,ZAF,"Western Cape","Western Cape",ZA-WC,province,,502.6,7674,7674,3,Africa/Johannesburg,FALSE,1710888535
Nongoma,Nongoma,,-27.8833,31.6333,"South Africa",ZA,ZAF,KwaZulu-Natal,KwaZulu-Natal,ZA-KZN,,,897.5,7629,7629,3,Africa/Johannesburg,FALSE,1710236860
Hlobane,Hlobane,,-27.7100,30.9990,"South Africa",ZA,ZAF,KwaZulu-Natal,KwaZulu-Natal,ZA-KZN,,,446.6,7628,7628,3,Africa/Johannesburg,FALSE,1710206449
Welverdiend,Welverdiend,,-24.5810,31.3430,"South Africa",ZA,ZAF,Limpopo,Limpopo,ZA-LP,province,,1242.0,7601,7601,3,Africa/Johannesburg,FALSE,1710157537
Wolwekraal,Wolwekraal,,-25.1530,28.9610,"South Africa",ZA,ZAF,Mpumalanga,Mpumalanga,ZA-MP,province,,1521.7,7426,7426,3,Africa/Johannesburg,FALSE,1710790595
Delmas,Delmas,,-26.1500,28.6833,"South Africa",ZA,ZAF,Mpumalanga,Mpumalanga,ZA-MP,province,,846.6,7399,7399,3,Africa/Johannesburg,FALSE,1710699906
"Mount Edgecombe","Mount Edgecombe",,-29.7210,31.0500,"South Africa",ZA,ZAF,KwaZulu-Natal,KwaZulu-Natal,ZA-KZN,,,878.1,7323,7323,3,Africa/Johannesburg,FALSE,1710201704
Steynsburg,Steynsburg,,-31.2964,25.8228,"South Africa",ZA,ZAF,"Eastern Cape","Eastern Cape",ZA-EC,province,,414.5,7212,7212,3,Africa/Johannesburg,FALSE,1710271118
Citrusdal,Citrusdal,,-32.5894,19.0147,"South Africa",ZA,ZAF,"Western Cape","Western Cape",ZA-WC,province,,1527.0,7177,7177,3,Africa/Johannesburg,FALSE,1710007154
Sterkstroom,Sterkstroom,,-31.5667,26.5500,"South Africa",ZA,ZAF,"Eastern Cape","Eastern Cape",ZA-EC,province,,339.6,7165,7165,3,Africa/Johannesburg,FALSE,1710657387
Aberdeen,Aberdeen,,-32.4833,24.0667,"South Africa",ZA,ZAF,"Eastern Cape","Eastern Cape",ZA-EC,province,,465.1,7162,7162,3,Africa/Johannesburg,FALSE,1710796048
Memel,Memel,,-27.6833,29.5667,"South Africa",ZA,ZAF,"Free State","Free State",ZA-FS,province,,167.9,7142,7142,3,Africa/Johannesburg,FALSE,1710850086
Ladismith,Ladismith,,-33.4833,21.2667,"South Africa",ZA,ZAF,"Western Cape","Western Cape",ZA-WC,province,,276.2,7127,7127,3,Africa/Johannesburg,FALSE,1710208689
Porterville,Porterville,,-33.0000,18.9833,"South Africa",ZA,ZAF,"Western Cape","Western Cape",ZA-WC,province,,884.3,7057,7057,3,Africa/Johannesburg,FALSE,1710211314
"Prince Albert","Prince Albert","Prins Albert",-33.2253,22.0300,"South Africa",ZA,ZAF,"Western Cape","Western Cape",ZA-WC,province,,187.1,7054,7054,3,Africa/Johannesburg,FALSE,1710451876
Welbedacht,Welbedacht,,-25.4880,25.9740,"South Africa",ZA,ZAF,"North West","North West",ZA-NW,province,,298.1,6888,6888,3,Africa/Johannesburg,FALSE,1710034928
Wakkerstroom,Wakkerstroom,,-27.3597,30.1372,"South Africa",ZA,ZAF,Mpumalanga,Mpumalanga,ZA-MP,province,,78.1,6852,6852,3,Africa/Johannesburg,FALSE,1710637017
"Prince Alfred Hamlet","Prince Alfred Hamlet","Prince Alfreds Hamlet",-33.2899,19.3271,"South Africa",ZA,ZAF,"Western Cape","Western Cape",ZA-WC,province,,780.1,6810,6810,3,Africa/Johannesburg,FALSE,1710490843
Amsterdam,Amsterdam,,-26.6170,30.6670,"South Africa",ZA,ZAF,Mpumalanga,Mpumalanga,ZA-MP,province,,832.6,6769,6769,3,Africa/Johannesburg,FALSE,1710577014
Kleinmond,Kleinmond,Kleinmondstrand,-34.3400,19.0200,"South Africa",ZA,ZAF,"Western Cape","Western Cape",ZA-WC,province,,930.4,6634,6634,3,Africa/Johannesburg,FALSE,1710397289
Carnarvon,Carnarvon,,-30.9667,22.1333,"South Africa",ZA,ZAF,"Northern Cape","Northern Cape",ZA-NC,province,,60.8,6612,6612,3,Africa/Johannesburg,FALSE,1710331786
"Jane Furse","Jane Furse","Jane Furse Settlement",-24.7610,29.8770,"South Africa",ZA,ZAF,Limpopo,Limpopo,ZA-LP,province,,816.6,6533,6533,3,Africa/Johannesburg,FALSE,1710909629
Tweeling,Tweeling,,-27.5500,28.5167,"South Africa",ZA,ZAF,"Free State","Free State",ZA-FS,province,,1405.4,6465,6465,3,Africa/Johannesburg,FALSE,1710102775
Hopefield,Hopefield,,-33.0656,18.3508,"South Africa",ZA,ZAF,"Western Cape","Western Cape",ZA-WC,province,,199.3,6460,6460,3,Africa/Johannesburg,FALSE,1710210038
"Port Saint John’s","Port Saint John's",Umzimvubu,-31.6288,29.5369,"South Africa",ZA,ZAF,"Eastern Cape","Eastern Cape",ZA-EC,province,,802.1,6441,6441,3,Africa/Johannesburg,FALSE,1710506018
Griekwastad,Griekwastad,Klaarwater|Griquatown,-28.8500,23.2500,"South Africa",ZA,ZAF,"Northern Cape","Northern Cape",ZA-NC,province,,82.7,6428,6428,3,Africa/Johannesburg,FALSE,1710060691
"La Lucia","La Lucia",,-29.7500,31.0580,"South Africa",ZA,ZAF,KwaZulu-Natal,KwaZulu-Natal,ZA-KZN,,,506.2,6414,6414,3,Africa/Johannesburg,FALSE,1710750541
Colenso,Colenso,,-28.7367,29.8264,"South Africa",ZA,ZAF,KwaZulu-Natal,KwaZulu-Natal,ZA-KZN,,,653.8,6388,6388,3,Africa/Johannesburg,FALSE,1710491673
Burgersfort,Burgersfort,,-24.6667,30.3167,"South Africa",ZA,ZAF,Mpumalanga,Mpumalanga,ZA-MP,province,,226.7,6369,6369,3,Africa/Johannesburg,FALSE,1710892754
Magaliesburg,Magaliesburg,,-26.0086,27.5461,"South Africa",ZA,ZAF,Gauteng,Gauteng,ZA-GP,,,556.2,6363,6363,3,Africa/Johannesburg,FALSE,1710014591
Okiep,Okiep,O’Okiep,-29.5958,17.8808,"South Africa",ZA,ZAF,"Northern Cape","Northern Cape",ZA-NC,province,,163.2,6304,6304,3,Africa/Johannesburg,FALSE,1710804643
Vanrhynsdorp,Vanrhynsdorp,"Van Rhynsdorf",-31.6167,18.7333,"South Africa",ZA,ZAF,"Western Cape","Western Cape",ZA-WC,province,,1047.1,6272,6272,3,Africa/Johannesburg,FALSE,1710187274
Windsorton,Windsorton,"Windsorton Dorp|Windsorton Village",-28.3333,24.7167,"South Africa",ZA,ZAF,"Northern Cape","Northern Cape",ZA-NC,province,,5.3,6250,6250,3,Africa/Johannesburg,FALSE,1710690530
Klawer,Klawer,Klarer|Klaver,-31.7833,18.6167,"South Africa",ZA,ZAF,"Western Cape","Western Cape",ZA-WC,province,,972.5,6234,6234,3,Africa/Johannesburg,FALSE,1710292909
Elsburg,Elsburg,,-26.2450,28.1970,"South Africa",ZA,ZAF,Gauteng,Gauteng,ZA-GP,,,2043.0,6231,6231,2,Africa/Johannesburg,FALSE,1710860927
"Waterval Boven","Waterval Boven",Waterval-Bo,-25.6500,30.3333,"South Africa",ZA,ZAF,Mpumalanga,Mpumalanga,ZA-MP,province,,158.9,6178,6178,3,Africa/Johannesburg,FALSE,1710077538
Wilderness,Wilderness,Wildernis,-33.9833,22.5833,"South Africa",ZA,ZAF,"Western Cape","Western Cape",ZA-WC,province,,166.7,6164,6164,3,Africa/Johannesburg,FALSE,1710468416
Boesmansriviermond,Boesmansriviermond,"Boesmansrivermond|Bushmans River Village",-33.7000,26.6660,"South Africa",ZA,ZAF,"Eastern Cape","Eastern Cape",ZA-EC,province,,44.2,6147,6147,3,Africa/Johannesburg,FALSE,1710463851
"Lambert’s Bay","Lambert's Bay",Lambertsbaai,-32.0833,18.3000,"South Africa",ZA,ZAF,"Western Cape","Western Cape",ZA-WC,province,,133.8,6120,6120,3,Africa/Johannesburg,FALSE,1710515323
Lothair,Lothair,,-26.3833,30.4333,"South Africa",ZA,ZAF,Mpumalanga,Mpumalanga,ZA-MP,province,,86.4,6099,6099,3,Africa/Johannesburg,FALSE,1710302370
"Port Nolloth","Port Nolloth",,-29.2500,16.8667,"South Africa",ZA,ZAF,"Northern Cape","Northern Cape",ZA-NC,province,,200.9,6092,6092,3,Africa/Johannesburg,FALSE,1710557915
Olifantshoek,Olifantshoek,,-23.3400,30.2770,"South Africa",ZA,ZAF,Limpopo,Limpopo,ZA-LP,province,,1016.3,5976,5976,3,Africa/Johannesburg,FALSE,1710485327
"Henley on Klip","Henley on Klip",,-26.5353,28.0611,"South Africa",ZA,ZAF,Gauteng,Gauteng,ZA-GP,,,516.6,5874,5874,3,Africa/Johannesburg,FALSE,1710698855
Tweespruit,Tweespruit,,-29.1856,27.0289,"South Africa",ZA,ZAF,"Free State","Free State",ZA-FS,province,,76.9,5791,5791,3,Africa/Johannesburg,FALSE,1710450466
Joubertina,Joubertina,,-33.8250,23.8578,"South Africa",ZA,ZAF,"Eastern Cape","Eastern Cape",ZA-EC,province,,206.2,5752,5752,3,Africa/Johannesburg,FALSE,1710605252
Jagersfontein,Jagersfontein,,-29.7619,25.4267,"South Africa",ZA,ZAF,"Free State","Free State",ZA-FS,province,,125.9,5729,5729,3,Africa/Johannesburg,FALSE,1710453413
Cookhouse,Cookhouse,Kookhuis,-32.7453,25.8047,"South Africa",ZA,ZAF,"Eastern Cape","Eastern Cape",ZA-EC,province,,111.9,5707,5707,3,Africa/Johannesburg,FALSE,1710018017
Dzarani,Dzarani,Dzanani,-22.8780,30.1530,"South Africa",ZA,ZAF,Limpopo,Limpopo,ZA-LP,province,,203.6,5673,5673,3,Africa/Johannesburg,FALSE,1710130532
Laingsburg,Laingsburg,,-33.1950,20.8592,"South Africa",ZA,ZAF,"Western Cape","Western Cape",ZA-WC,province,,7.8,5667,5667,3,Africa/Johannesburg,FALSE,1710436175
Genadendal,Genadendal,,-34.0333,19.5500,"South Africa",ZA,ZAF,"Western Cape","Western Cape",ZA-WC,province,,1426.4,5663,5663,3,Africa/Johannesburg,FALSE,1710684087
Jansenville,Jansenville,,-32.6000,24.6667,"South Africa",ZA,ZAF,"Eastern Cape","Eastern Cape",ZA-EC,province,,225.4,5612,5612,3,Africa/Johannesburg,FALSE,1710144100
Hermanus,Hermanus,,-34.4167,19.2500,"South Africa",ZA,ZAF,"Western Cape","Western Cape",ZA-WC,province,,329.4,5610,5610,3,Africa/Johannesburg,FALSE,1710409701
eManguzi,eManguzi,Maputa|Manguzi,-26.9960,32.7520,"South Africa",ZA,ZAF,KwaZulu-Natal,KwaZulu-Natal,ZA-KZN,,,981.2,5534,5534,3,Africa/Johannesburg,FALSE,1710177714
Botrivier,Botrivier,"Bot River",-34.2258,19.2050,"South Africa",ZA,ZAF,"Western Cape","Western Cape",ZA-WC,province,,2852.3,5505,5505,2,Africa/Johannesburg,FALSE,1710088344
Dealesville,Dealesville,Dealsville,-28.6667,25.7667,"South Africa",ZA,ZAF,"Free State","Free State",ZA-FS,province,,185.8,5446,5446,3,Africa/Johannesburg,FALSE,1710361577
Ficksburg,Ficksburg,,-28.8737,27.8781,"South Africa",ZA,ZAF,"Free State","Free State",ZA-FS,province,,107.1,5400,5400,3,Africa/Johannesburg,FALSE,1710011492
Oberholzer,Oberholzer,,-26.3470,27.3820,"South Africa",ZA,ZAF,Gauteng,Gauteng,ZA-GP,,,1310.0,5397,5397,3,Africa/Johannesburg,FALSE,1710983035
Dannhauser,Dannhauser,,-28.0000,30.0500,"South Africa",ZA,ZAF,KwaZulu-Natal,KwaZulu-Natal,ZA-KZN,,,605.5,5389,5389,3,Africa/Johannesburg,FALSE,1710977298
Nababeep,Nababeep,Nababiep|Nabaiep,-29.5900,17.7840,"South Africa",ZA,ZAF,"Northern Cape","Northern Cape",ZA-NC,province,,43.6,5374,5374,3,Africa/Johannesburg,FALSE,1710955261
"Mount Ayliff","Mount Ayliff","Mount Alyff|Maxesibeni",-30.8092,29.3669,"South Africa",ZA,ZAF,"Eastern Cape","Eastern Cape",ZA-EC,province,,1616.6,5367,5367,3,Africa/Johannesburg,FALSE,1710800737
Trompsburg,Trompsburg,,-30.0167,25.7667,"South Africa",ZA,ZAF,"Free State","Free State",ZA-FS,province,,329.5,5338,5338,3,Africa/Johannesburg,FALSE,1710622416
Izingolweni,Izingolweni,Zingolweni,-30.7750,30.1270,"South Africa",ZA,ZAF,KwaZulu-Natal,KwaZulu-Natal,ZA-KZN,,,823.3,5294,5294,3,Africa/Johannesburg,FALSE,1710571221
Utrecht,Utrecht,,-27.6600,30.3300,"South Africa",ZA,ZAF,KwaZulu-Natal,KwaZulu-Natal,ZA-KZN,,,91.6,5290,5290,3,Africa/Johannesburg,FALSE,1710230265
Patensie,Patensie,Patentie,-33.7589,24.8147,"South Africa",ZA,ZAF,"Eastern Cape","Eastern Cape",ZA-EC,province,,200.3,5263,5263,3,Africa/Johannesburg,FALSE,1710097289
"Mount Frere","Mount Frere",Kwabhaca,-30.9167,28.9833,"South Africa",ZA,ZAF,"Eastern Cape","Eastern Cape",ZA-EC,province,,1487.8,5252,5252,3,Africa/Johannesburg,FALSE,1710180209
Riviersonderend,Riviersonderend,"Rivier Zonder End",-34.1503,19.9144,"South Africa",ZA,ZAF,"Western Cape","Western Cape",ZA-WC,province,,941.7,5245,5245,3,Africa/Johannesburg,FALSE,1710437145
Burgersdorp,Burgersdorp,Burghersdorp|Burgersdorf,-30.9922,26.3247,"South Africa",ZA,ZAF,"Eastern Cape","Eastern Cape",ZA-EC,province,,187.8,5241,5241,3,Africa/Johannesburg,FALSE,1710839053
Petrusville,Petrusville,,-30.0833,24.6500,"South Africa",ZA,ZAF,"Northern Cape","Northern Cape",ZA-NC,province,,88.9,5211,5211,3,Africa/Johannesburg,FALSE,1710133097
Oranjeville,Oranjeville,,-26.9833,28.2000,"South Africa",ZA,ZAF,"Free State","Free State",ZA-FS,province,,602.8,5166,5166,3,Africa/Johannesburg,FALSE,1710005108
"Kenton on Sea","Kenton on Sea",Kariega,-33.6830,26.6590,"South Africa",ZA,ZAF,"Eastern Cape","Eastern Cape",ZA-EC,province,,995.0,5154,5154,3,Africa/Johannesburg,FALSE,1710252007
Onrus,Onrus,Onrustrivier|Onrust,-34.4122,19.1700,"South Africa",ZA,ZAF,"Western Cape","Western Cape",ZA-WC,province,,475.6,5151,5151,3,Africa/Johannesburg,FALSE,1710903983
Britstown,Britstown,,-30.5833,23.5000,"South Africa",ZA,ZAF,"Northern Cape","Northern Cape",ZA-NC,province,,82.2,5145,5145,3,Africa/Johannesburg,FALSE,1710324473
Ga-Ramokoka,Ga-Ramokoka,Ramokokstad|Ramakokstad|Ramakoks,-25.1570,27.4380,"South Africa",ZA,ZAF,"North West","North West",ZA-NW,province,,808.3,5141,5141,3,Africa/Johannesburg,FALSE,1710195502
Richmond,Richmond,,-31.4133,23.9467,"South Africa",ZA,ZAF,"Northern Cape","Northern Cape",ZA-NC,province,,61.6,5122,5122,3,Africa/Johannesburg,FALSE,1710226090
Perdekop,Perdekop,Paardekop,-27.1667,29.6333,"South Africa",ZA,ZAF,Mpumalanga,Mpumalanga,ZA-MP,province,,657.3,5081,5081,3,Africa/Johannesburg,FALSE,1710732582
Mayeakgoro,Mayeakgoro,,-27.7920,24.6430,"South Africa",ZA,ZAF,"North West","North West",ZA-NW,province,,847.4,5076,5076,3,Africa/Johannesburg,FALSE,1710182260
Murraysburg,Murraysburg,,-31.9500,23.7667,"South Africa",ZA,ZAF,"Western Cape","Western Cape",ZA-WC,province,,73.1,5069,5069,3,Africa/Johannesburg,FALSE,1710533985
Leeudoringstad,Leeudoringstad,Leeuwdoornsstad|Leeuwdoornstad,-27.2333,26.2333,"South Africa",ZA,ZAF,"North West","North West",ZA-NW,province,,897.7,5054,5054,3,Africa/Johannesburg,FALSE,1710364051
Kareedouw,Kareedouw,Karreedouw,-33.9519,24.2894,"South Africa",ZA,ZAF,"Eastern Cape","Eastern Cape",ZA-EC,province,,330.1,4985,4985,3,Africa/Johannesburg,FALSE,1710744063
Groblershoop,Groblershoop,Sternham,-28.8972,21.9844,"South Africa",ZA,ZAF,"Northern Cape","Northern Cape",ZA-NC,province,,361.2,4938,4938,3,Africa/Johannesburg,FALSE,1710468612
Qumbu,Qumbu,,-31.1617,28.8681,"South Africa",ZA,ZAF,"Eastern Cape","Eastern Cape",ZA-EC,province,,116.5,4928,4928,3,Africa/Johannesburg,FALSE,1710948651
Bergville,Bergville,,-28.7333,29.3667,"South Africa",ZA,ZAF,KwaZulu-Natal,KwaZulu-Natal,ZA-KZN,,,291.6,4890,4890,3,Africa/Johannesburg,FALSE,1710530516
Kenhardt,Kenhardt,Kenardt,-29.3500,21.1500,"South Africa",ZA,ZAF,"Northern Cape","Northern Cape",ZA-NC,province,,30.4,4843,4843,3,Africa/Johannesburg,FALSE,1710701293
Louterwater,Louterwater,,-33.8000,23.6700,"South Africa",ZA,ZAF,"Eastern Cape","Eastern Cape",ZA-EC,province,,108.0,4829,4829,3,Africa/Johannesburg,FALSE,1710196221
Flagstaff,Flagstaff,Siphaqeni,-31.0800,29.5044,"South Africa",ZA,ZAF,"Eastern Cape","Eastern Cape",ZA-EC,province,,1785.6,4821,4821,3,Africa/Johannesburg,FALSE,1710672313
Waterkloof,Waterkloof,,-25.7750,28.2417,"South Africa",ZA,ZAF,Gauteng,Gauteng,ZA-GP,,,1292.2,4820,4820,3,Africa/Johannesburg,FALSE,1710829863
Smithfield,Smithfield,,-30.2125,26.5314,"South Africa",ZA,ZAF,"Free State","Free State",ZA-FS,province,,134.6,4779,4779,3,Africa/Johannesburg,FALSE,1710276500
Komatipoort,Komatipoort,,-25.4333,31.9500,"South Africa",ZA,ZAF,Mpumalanga,Mpumalanga,ZA-MP,province,,399.9,4683,4683,3,Africa/Johannesburg,FALSE,1710137353
Sonop,Sonop,,-25.6480,27.6980,"South Africa",ZA,ZAF,"North West","North West",ZA-NW,province,,1374.3,4659,4659,3,Africa/Johannesburg,FALSE,1710180246
Zoar,Zoar,,-33.4833,21.4333,"South Africa",ZA,ZAF,"Western Cape","Western Cape",ZA-WC,province,,94.9,4659,4659,3,Africa/Johannesburg,FALSE,1710298679
Peddie,Peddie,,-33.1960,27.1160,"South Africa",ZA,ZAF,"Eastern Cape","Eastern Cape",ZA-EC,province,,124.8,4658,4658,3,Africa/Johannesburg,FALSE,1710918153
Rookdale,Rookdale,,-28.7160,29.2300,"South Africa",ZA,ZAF,KwaZulu-Natal,KwaZulu-Natal,ZA-KZN,,,421.0,4644,4644,3,Africa/Johannesburg,FALSE,1710507210
Hanover,Hanover,,-31.0683,24.4397,"South Africa",ZA,ZAF,"Northern Cape","Northern Cape",ZA-NC,province,,56.9,4594,4594,3,Africa/Johannesburg,FALSE,1710014540
Libode,Libode,,-31.5333,29.0167,"South Africa",ZA,ZAF,"Eastern Cape","Eastern Cape",ZA-EC,province,,1160.3,4560,4560,3,Africa/Johannesburg,FALSE,1710543200
"Albert Falls","Albert Falls",Albert,-29.4380,30.4280,"South Africa",ZA,ZAF,KwaZulu-Natal,KwaZulu-Natal,ZA-KZN,,,645.2,4536,4536,3,Africa/Johannesburg,FALSE,1710234148
"Bluewater Bay","Bluewater Bay",,-33.8567,25.6294,"South Africa",ZA,ZAF,"Eastern Cape","Eastern Cape",ZA-EC,province,,1224.3,4530,4530,3,Africa/Johannesburg,FALSE,1710595067
Uniondale,Uniondale,,-33.6592,23.1239,"South Africa",ZA,ZAF,"Western Cape","Western Cape",ZA-WC,province,,239.4,4525,4525,3,Africa/Johannesburg,FALSE,1710715013
Lidgetton,Lidgetton,,-29.4410,30.1010,"South Africa",ZA,ZAF,KwaZulu-Natal,KwaZulu-Natal,ZA-KZN,,,565.8,4521,4521,3,Africa/Johannesburg,FALSE,1710923912
Pearston,Pearston,,-32.5817,25.1378,"South Africa",ZA,ZAF,"Eastern Cape","Eastern Cape",ZA-EC,province,,137.7,4516,4516,3,Africa/Johannesburg,FALSE,1710083747
Ndwedwe,Ndwedwe,"Ndwedwe Magistracy",-29.5147,30.9349,"South Africa",ZA,ZAF,KwaZulu-Natal,KwaZulu-Natal,ZA-KZN,,,260.5,4488,4488,3,Africa/Johannesburg,FALSE,1710049079
Keiskammahoek,Keiskammahoek,Keiskamahoek,-32.6833,27.1500,"South Africa",ZA,ZAF,"Eastern Cape","Eastern Cape",ZA-EC,province,,282.6,4429,4429,3,Africa/Johannesburg,FALSE,1710630228
eMkhuze,eMkhuze,Mkusi|Mkuzi|Mkuze,-27.6167,32.0333,"South Africa",ZA,ZAF,KwaZulu-Natal,KwaZulu-Natal,ZA-KZN,,,135.1,4414,4414,3,Africa/Johannesburg,FALSE,1710149212
"Port Edward","Port Edward",,-31.0500,30.2167,"South Africa",ZA,ZAF,KwaZulu-Natal,KwaZulu-Natal,ZA-KZN,,,182.3,4409,4409,3,Africa/Johannesburg,FALSE,1710138214
"Lime Acres","Lime Acres",,-28.3740,23.4610,"South Africa",ZA,ZAF,"Northern Cape","Northern Cape",ZA-NC,province,,62.6,4408,4408,3,Africa/Johannesburg,FALSE,1710491517
Charlestown,Charlestown,,-27.4167,29.8833,"South Africa",ZA,ZAF,KwaZulu-Natal,KwaZulu-Natal,ZA-KZN,,,199.7,4392,4392,3,Africa/Johannesburg,FALSE,1710244518
eMthenteni,eMthenteni,"Umtentweni Railway Station|Umtentweni",-30.7167,30.4667,"South Africa",ZA,ZAF,KwaZulu-Natal,KwaZulu-Natal,ZA-KZN,,,528.7,4383,4383,3,Africa/Johannesburg,FALSE,1710756364
Riebeek-Wes,Riebeek-Wes,"Riebeek West",-33.3505,18.8674,"South Africa",ZA,ZAF,"Western Cape","Western Cape",ZA-WC,province,,1268.2,4350,4350,3,Africa/Johannesburg,FALSE,1710682766
Groblersdal,Groblersdal,,-25.1500,29.3833,"South Africa",ZA,ZAF,Mpumalanga,Mpumalanga,ZA-MP,province,,747.7,4329,4329,3,Africa/Johannesburg,FALSE,1710322491
Kylemore,Kylemore,,-33.9167,18.9500,"South Africa",ZA,ZAF,"Western Cape","Western Cape",ZA-WC,province,,917.7,4328,4328,3,Africa/Johannesburg,FALSE,1710623008
Sibasa,Sibasa,,-22.9320,30.4670,"South Africa",ZA,ZAF,Limpopo,Limpopo,ZA-LP,province,,1272.6,4314,4314,3,Africa/Johannesburg,FALSE,1710358644
Mbazwana,Mbazwana,M’Bazwane,-27.5000,32.5790,"South Africa",ZA,ZAF,KwaZulu-Natal,KwaZulu-Natal,ZA-KZN,,,426.5,4312,4312,3,Africa/Johannesburg,FALSE,1710677092
"Uvongo Beach","Uvongo Beach",Uvongo|Uvongostrand|Evunga,-30.8167,30.3833,"South Africa",ZA,ZAF,KwaZulu-Natal,KwaZulu-Natal,ZA-KZN,,,948.7,4288,4288,3,Africa/Johannesburg,FALSE,1710522388
Calitzdorp,Calitzdorp,,-33.5375,21.6853,"South Africa",ZA,ZAF,"Western Cape","Western Cape",ZA-WC,province,,162.7,4284,4284,3,Africa/Johannesburg,FALSE,1710947919
Hazyview,Hazyview,,-25.0431,31.1292,"South Africa",ZA,ZAF,Mpumalanga,Mpumalanga,ZA-MP,province,,56.7,4236,4236,3,Africa/Johannesburg,FALSE,1710178917
Ladybrand,Ladybrand,,-29.1933,27.4550,"South Africa",ZA,ZAF,"Free State","Free State",ZA-FS,province,,100.4,4218,4218,3,Africa/Johannesburg,FALSE,1710202046
Ventersdorp,Ventersdorp,,-26.3167,26.8167,"South Africa",ZA,ZAF,"North West","North West",ZA-NW,province,,78.0,4204,4204,3,Africa/Johannesburg,FALSE,1710848399
Hartenbos,Hartenbos,,-34.1167,22.1167,"South Africa",ZA,ZAF,"Western Cape","Western Cape",ZA-WC,province,,173.4,4196,4196,3,Africa/Johannesburg,FALSE,1710094632
Reivilo,Reivilo,,-27.5667,24.2000,"South Africa",ZA,ZAF,"North West","North West",ZA-NW,province,,915.1,4182,4182,3,Africa/Johannesburg,FALSE,1710906873
Barrydale,Barrydale,,-33.9037,20.7217,"South Africa",ZA,ZAF,"Western Cape","Western Cape",ZA-WC,province,,161.3,4156,4156,3,Africa/Johannesburg,FALSE,1710707455
Sandbaai,Sandbaai,,-34.4190,19.1940,"South Africa",ZA,ZAF,"Western Cape","Western Cape",ZA-WC,province,,979.0,4102,4102,3,Africa/Johannesburg,FALSE,1710738751
Louwsburg,Louwsburg,,-27.5833,31.2833,"South Africa",ZA,ZAF,KwaZulu-Natal,KwaZulu-Natal,ZA-KZN,,,488.1,4061,4061,3,Africa/Johannesburg,FALSE,1710482103
Ga-Molepo,Ga-Molepo,,-24.0330,29.7990,"South Africa",ZA,ZAF,Limpopo,Limpopo,ZA-LP,province,,745.5,4048,4048,3,Africa/Johannesburg,FALSE,1710656739
Dendron,Dendron,,-23.3680,29.3230,"South Africa",ZA,ZAF,Limpopo,Limpopo,ZA-LP,province,,855.2,4045,4045,3,Africa/Johannesburg,FALSE,1710961431
Hibberdene,Hibberdene,,-30.5722,30.5722,"South Africa",ZA,ZAF,KwaZulu-Natal,KwaZulu-Natal,ZA-KZN,,,283.1,4037,4037,3,Africa/Johannesburg,FALSE,1710565745
Lusikisiki,Lusikisiki,,-31.3680,29.5760,"South Africa",ZA,ZAF,"Eastern Cape","Eastern Cape",ZA-EC,province,,984.8,4028,4028,3,Africa/Johannesburg,FALSE,1710368109
"Lady Frere","Lady Frere",,-31.7030,27.2340,"South Africa",ZA,ZAF,"Eastern Cape","Eastern Cape",ZA-EC,province,,182.1,4024,4024,3,Africa/Johannesburg,FALSE,1710545541
Chrissiesmeer,Chrissiesmeer,"Lake Chrissie|Chrissiemeer",-26.2780,30.2130,"South Africa",ZA,ZAF,Mpumalanga,Mpumalanga,ZA-MP,province,,1234.5,4012,4012,3,Africa/Johannesburg,FALSE,1710184125
Magudu,Magudu,,-25.8934,31.7252,"South Africa",ZA,ZAF,Mpumalanga,Mpumalanga,ZA-MP,province,,771.1,4002,4002,3,Africa/Johannesburg,FALSE,1710662082
Graskop,Graskop,,-24.9317,30.8417,"South Africa",ZA,ZAF,Mpumalanga,Mpumalanga,ZA-MP,province,,114.1,3996,3996,3,Africa/Johannesburg,FALSE,1710627858
"Aliwal North","Aliwal North",Aliwal-Noord,-30.7000,26.7000,"South Africa",ZA,ZAF,"Eastern Cape","Eastern Cape",ZA-EC,province,,165.1,3992,3992,3,Africa/Johannesburg,FALSE,1710445896
Steytlerville,Steytlerville,,-33.3333,24.3333,"South Africa",ZA,ZAF,"Eastern Cape","Eastern Cape",ZA-EC,province,,162.6,3986,3986,3,Africa/Johannesburg,FALSE,1710101237
Eloff,Eloff,,-26.1690,28.6080,"South Africa",ZA,ZAF,Mpumalanga,Mpumalanga,ZA-MP,province,,322.3,3968,3968,3,Africa/Johannesburg,FALSE,1710338927
Vaalwater,Vaalwater,,-24.2833,28.1000,"South Africa",ZA,ZAF,Limpopo,Limpopo,ZA-LP,province,,377.2,3964,3964,3,Africa/Johannesburg,FALSE,1710394874
Arlington,Arlington,,-28.0333,27.8500,"South Africa",ZA,ZAF,"Free State","Free State",ZA-FS,province,,38.9,3935,3935,3,Africa/Johannesburg,FALSE,1710094192
Struisbaai,Struisbaai,"Struis Bay",-34.8044,20.0575,"South Africa",ZA,ZAF,"Western Cape","Western Cape",ZA-WC,province,,270.4,3877,3877,3,Africa/Johannesburg,FALSE,1710802759
"Cato Ridge","Cato Ridge","Cato Bridge",-29.7160,30.6160,"South Africa",ZA,ZAF,KwaZulu-Natal,KwaZulu-Natal,ZA-KZN,,,19.5,3874,3874,3,Africa/Johannesburg,FALSE,1710107914
Alicedale,Alicedale,,-33.3167,26.0833,"South Africa",ZA,ZAF,"Eastern Cape","Eastern Cape",ZA-EC,province,,823.8,3872,3872,3,Africa/Johannesburg,FALSE,1710127009
Trichardt,Trichardt,Trichard,-26.4830,29.2170,"South Africa",ZA,ZAF,Mpumalanga,Mpumalanga,ZA-MP,province,,152.2,3851,3851,3,Africa/Johannesburg,FALSE,1710678262
Hluhluwe,Hluhluwe,,-28.0189,32.2675,"South Africa",ZA,ZAF,KwaZulu-Natal,KwaZulu-Natal,ZA-KZN,,,65.7,3830,3830,3,Africa/Johannesburg,FALSE,1710678679
Hoekwil,Hoekwil,Hoekwill,-33.9800,22.5850,"South Africa",ZA,ZAF,"Western Cape","Western Cape",ZA-WC,province,,172.4,3787,3787,3,Africa/Johannesburg,FALSE,1710066925
"Park Rynie","Park Rynie",,-30.3167,30.7333,"South Africa",ZA,ZAF,KwaZulu-Natal,KwaZulu-Natal,ZA-KZN,,,477.8,3732,3732,3,Africa/Johannesburg,FALSE,1710620495
Luckhoff,Luckhoff,,-29.7500,24.7833,"South Africa",ZA,ZAF,"Free State","Free State",ZA-FS,province,,119.6,3699,3699,3,Africa/Johannesburg,FALSE,1710505760
Springfontein,Springfontein,,-30.2539,25.7039,"South Africa",ZA,ZAF,"Free State","Free State",ZA-FS,province,,224.2,3699,3699,3,Africa/Johannesburg,FALSE,1710133888
Hofmeyr,Hofmeyr,,-31.6333,25.8000,"South Africa",ZA,ZAF,"Eastern Cape","Eastern Cape",ZA-EC,province,,217.8,3680,3680,3,Africa/Johannesburg,FALSE,1710530995
Schulzendal,Schulzendal,,-25.7490,31.5400,"South Africa",ZA,ZAF,Mpumalanga,Mpumalanga,ZA-MP,province,,1335.4,3659,3659,3,Africa/Johannesburg,FALSE,1710642012
Rooiboklaagte,Rooiboklaagte,,-24.6550,31.0670,"South Africa",ZA,ZAF,Mpumalanga,Mpumalanga,ZA-MP,province,,1008.3,3650,3650,3,Africa/Johannesburg,FALSE,1710555704
Philippolis,Philippolis,,-30.2667,25.2833,"South Africa",ZA,ZAF,"Free State","Free State",ZA-FS,province,,92.1,3648,3648,3,Africa/Johannesburg,FALSE,1710123041
Rietkuil,Rietkuil,,-25.9462,29.8059,"South Africa",ZA,ZAF,Mpumalanga,Mpumalanga,ZA-MP,province,,6.9,3635,3635,4,Africa/Johannesburg,FALSE,1710285624
Wolmaransstad,Wolmaransstad,Wolmaranstad,-27.2167,25.9744,"South Africa",ZA,ZAF,"North West","North West",ZA-NW,province,,87.2,3633,3633,3,Africa/Johannesburg,FALSE,1710388182
Fauresmith,Fauresmith,,-29.7500,25.3167,"South Africa",ZA,ZAF,"Free State","Free State",ZA-FS,province,,68.2,3628,3628,3,Africa/Johannesburg,FALSE,1710481779
Augrabies,Augrabies,,-28.6600,20.4306,"South Africa",ZA,ZAF,"Northern Cape","Northern Cape",ZA-NC,province,,312.2,3627,3627,3,Africa/Johannesburg,FALSE,1710170118
Madikwe,Madikwe,,-25.3550,26.5300,"South Africa",ZA,ZAF,"North West","North West",ZA-NW,province,,2498.6,3623,3623,2,Africa/Johannesburg,FALSE,1710175818
Venterstad,Venterstad,,-30.7760,25.8000,"South Africa",ZA,ZAF,"Eastern Cape","Eastern Cape",ZA-EC,province,,204.3,3596,3596,3,Africa/Johannesburg,FALSE,1710876315
Christiana,Christiana,,-27.9200,25.1600,"South Africa",ZA,ZAF,"North West","North West",ZA-NW,province,,71.1,3571,3571,3,Africa/Johannesburg,FALSE,1710400744
"De Rust","De Rust",,-33.4667,22.5167,"South Africa",ZA,ZAF,"Western Cape","Western Cape",ZA-WC,province,,202.3,3566,3566,3,Africa/Johannesburg,FALSE,1710900463
Nkandla,Nkandla,Nkandhla,-28.6225,31.0894,"South Africa",ZA,ZAF,KwaZulu-Natal,KwaZulu-Natal,ZA-KZN,,,508.1,3557,3557,3,Africa/Johannesburg,FALSE,1710869014
Mapela,Mapela,,-24.0210,28.8530,"South Africa",ZA,ZAF,Limpopo,Limpopo,ZA-LP,province,,113.4,3549,3549,3,Africa/Johannesburg,FALSE,1710532785
Swartklip,Swartklip,,-24.9450,27.1630,"South Africa",ZA,ZAF,Limpopo,Limpopo,ZA-LP,province,,157.6,3517,3517,3,Africa/Johannesburg,FALSE,1710810946
Stilbaai,Stilbaai,"Still Bay",-34.3683,21.4111,"South Africa",ZA,ZAF,"Western Cape","Western Cape",ZA-WC,province,,137.9,3514,3514,3,Africa/Johannesburg,FALSE,1710355760
Jacobsdal,Jacobsdal,,-29.1283,24.7750,"South Africa",ZA,ZAF,"Free State","Free State",ZA-FS,province,,57.9,3504,3504,3,Africa/Johannesburg,FALSE,1710353187
"De Wildt","De Wildt",,-25.6250,27.9469,"South Africa",ZA,ZAF,"North West","North West",ZA-NW,province,,43.1,3492,3492,3,Africa/Johannesburg,FALSE,1710056175
Driekop,Driekop,,-24.5950,30.1480,"South Africa",ZA,ZAF,Limpopo,Limpopo,ZA-LP,province,,27.2,3487,3487,3,Africa/Johannesburg,FALSE,1710797986
Malelane,Malelane,,-25.4833,31.5167,"South Africa",ZA,ZAF,Mpumalanga,Mpumalanga,ZA-MP,province,,1185.7,3486,3486,3,Africa/Johannesburg,FALSE,1710653925
Senekal,Senekal,,-28.3167,27.6000,"South Africa",ZA,ZAF,"Free State","Free State",ZA-FS,province,,105.3,3466,3466,3,Africa/Johannesburg,FALSE,1710187226
"Warner Beach","Warner Beach",,-30.0850,30.8620,"South Africa",ZA,ZAF,KwaZulu-Natal,KwaZulu-Natal,ZA-KZN,,,1692.6,3453,3453,3,Africa/Johannesburg,FALSE,1710340527
Groot-Marico,Groot-Marico,,-25.5880,26.4010,"South Africa",ZA,ZAF,"North West","North West",ZA-NW,province,,93.6,3384,3384,3,Africa/Johannesburg,FALSE,1710909620
Williston,Williston,,-31.3500,20.9167,"South Africa",ZA,ZAF,"Northern Cape","Northern Cape",ZA-NC,province,,43.2,3368,3368,3,Africa/Johannesburg,FALSE,1710307705
Richmond,Richmond,,-29.8667,30.2667,"South Africa",ZA,ZAF,KwaZulu-Natal,KwaZulu-Natal,ZA-KZN,,,1066.6,3349,3349,3,Africa/Johannesburg,TRUE,1710161123
Shakaskraal,Shakaskraal,Chakaskraal,-29.4500,31.2167,"South Africa",ZA,ZAF,KwaZulu-Natal,KwaZulu-Natal,ZA-KZN,,,1505.0,3296,3296,3,Africa/Johannesburg,FALSE,1710844091
Pofadder,Pofadder,Theronsville,-29.1286,19.3947,"South Africa",ZA,ZAF,"Northern Cape","Northern Cape",ZA-NC,province,,20.3,3287,3287,3,Africa/Johannesburg,FALSE,1710817164
Tabankulu,Tabankulu,,-30.9584,29.3027,"South Africa",ZA,ZAF,"Eastern Cape","Eastern Cape",ZA-EC,province,,167.4,3266,3266,3,Africa/Johannesburg,FALSE,1710137101
Durnacol,Durnacol,,-28.0500,30.0167,"South Africa",ZA,ZAF,KwaZulu-Natal,KwaZulu-Natal,ZA-KZN,,,146.8,3233,3233,3,Africa/Johannesburg,FALSE,1710449653
Balfour,Balfour,,-26.6500,28.5833,"South Africa",ZA,ZAF,Mpumalanga,Mpumalanga,ZA-MP,province,,265.4,3201,3201,3,Africa/Johannesburg,FALSE,1710871716
Kroondal,Kroondal,,-25.7253,27.3078,"South Africa",ZA,ZAF,"North West","North West",ZA-NW,province,,112.5,3195,3195,3,Africa/Johannesburg,FALSE,1710325518
"New Hanover","New Hanover",,-29.3500,30.5333,"South Africa",ZA,ZAF,KwaZulu-Natal,KwaZulu-Natal,ZA-KZN,,,1198.1,3175,3175,3,Africa/Johannesburg,FALSE,1710860689
Hoedspruit,Hoedspruit,,-24.3500,30.9667,"South Africa",ZA,ZAF,Limpopo,Limpopo,ZA-LP,province,,130.8,3157,3157,3,Africa/Johannesburg,FALSE,1710152770
Brandfort,Brandfort,,-28.7014,26.4589,"South Africa",ZA,ZAF,"Free State","Free State",ZA-FS,province,,116.0,3143,3143,3,Africa/Johannesburg,FALSE,1710953731
Weenen,Weenen,,-28.8500,30.0667,"South Africa",ZA,ZAF,KwaZulu-Natal,KwaZulu-Natal,ZA-KZN,,,43.4,3126,3126,3,Africa/Johannesburg,FALSE,1710969214
Komaggas,Komaggas,"Komaggas Mission|Kamaggas",-29.8000,17.5000,"South Africa",ZA,ZAF,"Northern Cape","Northern Cape",ZA-NC,province,,1203.1,3116,3116,3,Africa/Johannesburg,FALSE,1710118641
Balfour,Balfour,,-32.5400,26.6731,"South Africa",ZA,ZAF,"Eastern Cape","Eastern Cape",ZA-EC,province,,388.7,3102,3102,3,Africa/Johannesburg,FALSE,1710769209
Rawsonville,Rawsonville,,-33.6847,19.3150,"South Africa",ZA,ZAF,"Western Cape","Western Cape",ZA-WC,province,,1280.6,3099,3099,3,Africa/Johannesburg,FALSE,1710919710
Hectorspruit,Hectorspruit,,-25.4333,31.6833,"South Africa",ZA,ZAF,Mpumalanga,Mpumalanga,ZA-MP,province,,301.8,3096,3096,3,Africa/Johannesburg,FALSE,1710625142
"Oslo Beach","Oslo Beach",,-30.7500,30.4500,"South Africa",ZA,ZAF,KwaZulu-Natal,KwaZulu-Natal,ZA-KZN,,,541.86,3085,3085,3,Africa/Johannesburg,FALSE,1710143650
Fraserburg,Fraserburg,,-31.9144,21.5119,"South Africa",ZA,ZAF,"Northern Cape","Northern Cape",ZA-NC,province,,30.6,3029,3029,3,Africa/Johannesburg,FALSE,1710216627
"Cunning Moor","Cunning Moor","Cunning Moore",-24.8920,31.2660,"South Africa",ZA,ZAF,Limpopo,Limpopo,ZA-LP,province,,777.1,2992,2992,3,Africa/Johannesburg,FALSE,1710752485
Strydenburg,Strydenburg,,-29.9333,23.6667,"South Africa",ZA,ZAF,"Northern Cape","Northern Cape",ZA-NC,province,,78.6,2987,2987,3,Africa/Johannesburg,FALSE,1710000013
Alldays,Alldays,,-22.6667,29.1000,"South Africa",ZA,ZAF,Limpopo,Limpopo,ZA-LP,province,,90.5,2987,2987,3,Africa/Johannesburg,FALSE,1710723759
Klipplaat,Klipplaat,,-33.0180,24.3400,"South Africa",ZA,ZAF,"Eastern Cape","Eastern Cape",ZA-EC,province,,230.0,2967,2967,3,Africa/Johannesburg,FALSE,1710153520
Cornelia,Cornelia,,-27.2342,28.8508,"South Africa",ZA,ZAF,"Free State","Free State",ZA-FS,province,,370.5,2964,2964,3,Africa/Johannesburg,FALSE,1710069339
Rosslyn,Rosslyn,,-25.6250,28.0890,"South Africa",ZA,ZAF,Gauteng,Gauteng,ZA-GP,,,119.0,2960,2960,3,Africa/Johannesburg,FALSE,1710663533
Droogte,Droogte,,-24.4960,29.3570,"South Africa",ZA,ZAF,Limpopo,Limpopo,ZA-LP,province,,765.4,2924,2924,3,Africa/Johannesburg,FALSE,1710539396
KwaMbonambi,KwaMbonambi,,-28.6000,32.0833,"South Africa",ZA,ZAF,KwaZulu-Natal,KwaZulu-Natal,ZA-KZN,,,209.4,2872,2872,3,Africa/Johannesburg,FALSE,1710123232
Brandvlei,Brandvlei,,-30.4633,20.4861,"South Africa",ZA,ZAF,"Northern Cape","Northern Cape",ZA-NC,province,,97.7,2859,2859,3,Africa/Johannesburg,FALSE,1710397602
Calvinia,Calvinia,,-31.4750,19.7728,"South Africa",ZA,ZAF,"Northern Cape","Northern Cape",ZA-NC,province,,21.5,2855,2855,3,Africa/Johannesburg,FALSE,1710895044
Gannalaagte,Gannalaagte,,-26.4640,25.5300,"South Africa",ZA,ZAF,"North West","North West",ZA-NW,province,,969.2,2830,2830,3,Africa/Johannesburg,FALSE,1710770404
Fontainebleau,Fontainebleau,Fontainbleau,-26.1037,27.9766,"South Africa",ZA,ZAF,Gauteng,Gauteng,ZA-GP,,,1643.0,2826,2826,3,Africa/Johannesburg,FALSE,1710158109
Penge,Penge,"Penge Myn",-24.3830,30.3170,"South Africa",ZA,ZAF,Limpopo,Limpopo,ZA-LP,province,,98.8,2819,2819,4,Africa/Johannesburg,FALSE,1710500840
Rietkol,Rietkol,,-26.1520,28.5480,"South Africa",ZA,ZAF,Mpumalanga,Mpumalanga,ZA-MP,province,,46.5,2812,2812,3,Africa/Johannesburg,FALSE,1710044532
Rooigrond,Rooigrond,Roodegrond,-25.9220,25.8020,"South Africa",ZA,ZAF,"North West","North West",ZA-NW,province,,809.8,2810,2810,3,Africa/Johannesburg,FALSE,1710575214
Motswedi,Motswedi,Motchelie,-25.2790,25.8850,"South Africa",ZA,ZAF,"North West","North West",ZA-NW,province,,615.4,2794,2794,3,Africa/Johannesburg,FALSE,1710731346
Greyton,Greyton,,-34.0500,19.6167,"South Africa",ZA,ZAF,"Western Cape","Western Cape",ZA-WC,province,,268.8,2780,2780,3,Africa/Johannesburg,FALSE,1710646695
"La Mercy","La Mercy",,-29.6333,31.1333,"South Africa",ZA,ZAF,KwaZulu-Natal,KwaZulu-Natal,ZA-KZN,,,100.2,2779,2779,3,Africa/Johannesburg,FALSE,1710635216
"Winston Park","Winston Park",,-29.7972,30.7944,"South Africa",ZA,ZAF,KwaZulu-Natal,KwaZulu-Natal,ZA-KZN,,,535.1,2772,2772,3,Africa/Johannesburg,FALSE,1710207280
Loeriesfontein,Loeriesfontein,,-30.9500,19.4333,"South Africa",ZA,ZAF,"Northern Cape","Northern Cape",ZA-NC,province,,79.6,2744,2744,3,Africa/Johannesburg,FALSE,1710284538
Leeu-Gamka,Leeu-Gamka,,-32.7736,21.9803,"South Africa",ZA,ZAF,"Western Cape","Western Cape",ZA-WC,province,,237.1,2727,2727,3,Africa/Johannesburg,FALSE,1710014481
Sheepmoor,Sheepmoor,,-26.7186,30.2989,"South Africa",ZA,ZAF,Mpumalanga,Mpumalanga,ZA-MP,province,,1413.0,2727,2727,3,Africa/Johannesburg,FALSE,1710598304
eMkhomazi,eMkhomazi,Umkomaas,-30.2010,30.7940,"South Africa",ZA,ZAF,KwaZulu-Natal,KwaZulu-Natal,ZA-KZN,,,442.3,2716,2716,3,Africa/Johannesburg,FALSE,1710917068
Lesseyton,Lesseyton,,-31.8330,26.7660,"South Africa",ZA,ZAF,"Eastern Cape","Eastern Cape",ZA-EC,province,,1073.1,2715,2715,3,Africa/Johannesburg,FALSE,1710726292
Underberg,Underberg,,-29.7931,29.4947,"South Africa",ZA,ZAF,KwaZulu-Natal,KwaZulu-Natal,ZA-KZN,,,136.7,2694,2694,3,Africa/Johannesburg,FALSE,1710402582
"Marble Hall","Marble Hall",,-24.9667,29.3000,"South Africa",ZA,ZAF,Mpumalanga,Mpumalanga,ZA-MP,province,,162.9,2687,2687,3,Africa/Johannesburg,FALSE,1710575175
"Botha’s Hill","Botha's Hill",,-29.7520,30.7400,"South Africa",ZA,ZAF,KwaZulu-Natal,KwaZulu-Natal,ZA-KZN,,,694.3,2673,2673,3,Africa/Johannesburg,FALSE,1710095253
"Forest Hills","Forest Hills",,-29.7500,30.8167,"South Africa",ZA,ZAF,KwaZulu-Natal,KwaZulu-Natal,ZA-KZN,,,621.6,2673,2673,3,Africa/Johannesburg,FALSE,1710525639
Mqanduli,Mqanduli,Mganduli|Moanduli,-31.8167,28.7500,"South Africa",ZA,ZAF,"Eastern Cape","Eastern Cape",ZA-EC,province,,267.9,2647,2647,3,Africa/Johannesburg,FALSE,1710798434
Ngqeleni,Ngqeleni,,-31.6700,29.0280,"South Africa",ZA,ZAF,"Eastern Cape","Eastern Cape",ZA-EC,province,,1153.1,2629,2629,3,Africa/Johannesburg,FALSE,1710939755
Lesetlheng,Lesetlheng,,-25.1495,27.1174,"South Africa",ZA,ZAF,"North West","North West",ZA-NW,province,,671.9,2627,2627,3,Africa/Johannesburg,FALSE,1710490702
Roossenekal,Roossenekal,"Aoos Senekal",-25.1950,29.9250,"South Africa",ZA,ZAF,Mpumalanga,Mpumalanga,ZA-MP,province,,1041.7,2625,2625,3,Africa/Johannesburg,FALSE,1710739288
Marydale,Marydale,,-29.4056,22.1050,"South Africa",ZA,ZAF,"Northern Cape","Northern Cape",ZA-NC,province,,41.4,2623,2623,3,Africa/Johannesburg,FALSE,1710807516
Doonside,Doonside,,-30.0700,30.8710,"South Africa",ZA,ZAF,KwaZulu-Natal,KwaZulu-Natal,ZA-KZN,,,2449.1,2596,2596,2,Africa/Johannesburg,FALSE,1710436799
Danabaai,Danabaai,,-34.1992,22.0417,"South Africa",ZA,ZAF,"Western Cape","Western Cape",ZA-WC,province,,268.1,2590,2590,3,Africa/Johannesburg,FALSE,1710379727
"Shelly Beach","Shelly Beach",,-30.7980,30.4100,"South Africa",ZA,ZAF,KwaZulu-Natal,KwaZulu-Natal,ZA-KZN,,,479.9,2577,2577,3,Africa/Johannesburg,FALSE,1710239956
"Three Rivers","Three Rivers",,-26.6600,28.0070,"South Africa",ZA,ZAF,Gauteng,Gauteng,ZA-GP,,,824.3,2547,2547,3,Africa/Johannesburg,FALSE,1710500035
Rietvlei,Rietvlei,Rietvley,-30.4870,29.8320,"South Africa",ZA,ZAF,"Eastern Cape","Eastern Cape",ZA-EC,province,,276.2,2509,2509,3,Africa/Johannesburg,FALSE,1710242078
Abbotspoort,Abbotspoort,,-23.4530,28.0930,"South Africa",ZA,ZAF,Limpopo,Limpopo,ZA-LP,province,,976.1,2489,2489,3,Africa/Johannesburg,FALSE,1710240526
Pella,Pella,"Pella Mission",-29.0333,19.1500,"South Africa",ZA,ZAF,"Northern Cape","Northern Cape",ZA-NC,province,,5.2,2470,2470,3,Africa/Johannesburg,FALSE,1710813188
Hlabisa,Hlabisa,Hiabisa,-28.1333,31.8667,"South Africa",ZA,ZAF,KwaZulu-Natal,KwaZulu-Natal,ZA-KZN,,,1364.1,2469,2469,3,Africa/Johannesburg,FALSE,1710291635
Bakerville,Bakerville,,-25.9830,26.0830,"South Africa",ZA,ZAF,"North West","North West",ZA-NW,province,,1743.6,2441,2441,3,Africa/Johannesburg,FALSE,1710981266
Dirkiesdorp,Dirkiesdorp,,-27.1730,30.4020,"South Africa",ZA,ZAF,Mpumalanga,Mpumalanga,ZA-MP,province,,853.3,2432,2432,3,Africa/Johannesburg,FALSE,1710973004
Kalbaskraal,Kalbaskraal,Kalabaskraal,-33.5667,18.6500,"South Africa",ZA,ZAF,"Western Cape","Western Cape",ZA-WC,province,,1747.1,2411,2411,3,Africa/Johannesburg,FALSE,1710951696
Dennilton,Dennilton,,-25.2560,29.1640,"South Africa",ZA,ZAF,Mpumalanga,Mpumalanga,ZA-MP,province,,65.8,2408,2408,3,Africa/Johannesburg,FALSE,1710195964
Haarlem,Haarlem,,-33.7339,23.3386,"South Africa",ZA,ZAF,"Western Cape","Western Cape",ZA-WC,province,,262.8,2376,2376,3,Africa/Johannesburg,FALSE,1710996581
Soekmekaar,Soekmekaar,Zoekmakaar|Zoekmekaar,-23.4960,29.9290,"South Africa",ZA,ZAF,Limpopo,Limpopo,ZA-LP,province,,44.5,2371,2371,3,Africa/Johannesburg,FALSE,1710034616
Glaudina,Glaudina,Claudina|Claudine,-27.0400,25.6270,"South Africa",ZA,ZAF,"North West","North West",ZA-NW,province,,87.9,2368,2368,3,Africa/Johannesburg,FALSE,1710717115
Hendrina,Hendrina,,-26.1500,29.7167,"South Africa",ZA,ZAF,Mpumalanga,Mpumalanga,ZA-MP,province,,375.6,2359,2359,3,Africa/Johannesburg,FALSE,1710795062
Hendrinakrag,Hendrinakrag,,-26.0167,29.5937,"South Africa",ZA,ZAF,Mpumalanga,Mpumalanga,ZA-MP,province,,402.2,2359,2359,3,Africa/Johannesburg,FALSE,1710086187
Koster,Koster,,-25.8667,26.9000,"South Africa",ZA,ZAF,"North West","North West",ZA-NW,province,,128.5,2342,2342,3,Africa/Johannesburg,FALSE,1710625486
Bloemhof,Bloemhof,,-27.6500,25.5900,"South Africa",ZA,ZAF,"North West","North West",ZA-NW,province,,49.4,2339,2339,3,Africa/Johannesburg,FALSE,1710321800
Chatsworth,Chatsworth,Chalsworth,-33.5461,18.5828,"South Africa",ZA,ZAF,"Western Cape","Western Cape",ZA-WC,province,,1891.1,2326,2326,3,Africa/Johannesburg,FALSE,1710590858
Rooiberg,Rooiberg,,-24.7760,27.7380,"South Africa",ZA,ZAF,Limpopo,Limpopo,ZA-LP,province,,52.5,2310,2310,3,Africa/Johannesburg,FALSE,1710557637
Ganspan,Ganspan,,-27.9730,24.7650,"South Africa",ZA,ZAF,"Northern Cape","Northern Cape",ZA-NC,province,,356.0,2301,2301,3,Africa/Johannesburg,FALSE,1710353422
Rietfontein,Rietfontein,Mier,-26.7333,20.0333,"South Africa",ZA,ZAF,"Northern Cape","Northern Cape",ZA-NC,province,,1273.9,2293,2293,3,Africa/Johannesburg,FALSE,1710230446
Hartebeeskop,Hartebeeskop,Hartebeestkop,-26.1810,30.9200,"South Africa",ZA,ZAF,Mpumalanga,Mpumalanga,ZA-MP,province,,104.8,2289,2289,3,Africa/Johannesburg,FALSE,1710453687
Coligny,Coligny,,-26.3333,26.3167,"South Africa",ZA,ZAF,"North West","North West",ZA-NW,province,,520.9,2271,2271,3,Africa/Johannesburg,FALSE,1710315906
Jozini,Jozini,,-27.4300,32.0670,"South Africa",ZA,ZAF,KwaZulu-Natal,KwaZulu-Natal,ZA-KZN,,,545.0,2267,2267,3,Africa/Johannesburg,FALSE,1710115343
Elliotdale,Elliotdale,Xhora,-31.9667,28.6833,"South Africa",ZA,ZAF,"Eastern Cape","Eastern Cape",ZA-EC,province,,317.1,2267,2267,3,Africa/Johannesburg,FALSE,1710603565
Aggeneys,Aggeneys,Aggeneis,-29.2000,18.8500,"South Africa",ZA,ZAF,"Northern Cape","Northern Cape",ZA-NC,province,,1.1,2262,2262,3,Africa/Johannesburg,FALSE,1710778617
Graafwater,Graafwater,,-32.1500,18.6000,"South Africa",ZA,ZAF,"Western Cape","Western Cape",ZA-WC,province,,1202.7,2261,2261,3,Africa/Johannesburg,FALSE,1710827444
Mbongolwane,Mbongolwane,,-28.9350,31.1950,"South Africa",ZA,ZAF,KwaZulu-Natal,KwaZulu-Natal,ZA-KZN,,,92.8,2253,2253,3,Africa/Johannesburg,FALSE,1710182846
Suurbraak,Suurbraak,Zuurbraak,-34.0167,20.6500,"South Africa",ZA,ZAF,"Western Cape","Western Cape",ZA-WC,province,,48.8,2252,2252,3,Africa/Johannesburg,FALSE,1710689999
Mtunzini,Mtunzini,Umlalazi,-28.9500,31.7500,"South Africa",ZA,ZAF,KwaZulu-Natal,KwaZulu-Natal,ZA-KZN,,,210.8,2199,2199,3,Africa/Johannesburg,FALSE,1710518604
Yzerfontein,Yzerfontein,Ysterfontein,-33.3330,18.1620,"South Africa",ZA,ZAF,"Western Cape","Western Cape",ZA-WC,province,,324.9,2170,2170,3,Africa/Johannesburg,FALSE,1710814623
Middledrift,Middledrift,,-32.8186,26.9875,"South Africa",ZA,ZAF,"Eastern Cape","Eastern Cape",ZA-EC,province,,247.7,2140,2140,3,Africa/Johannesburg,FALSE,1710877629
Verkeerdevlei,Verkeerdevlei,,-28.8333,26.7833,"South Africa",ZA,ZAF,"Free State","Free State",ZA-FS,province,,12.2,2135,2135,3,Africa/Johannesburg,FALSE,1710217404
Tsomo,Tsomo,,-32.0379,27.8169,"South Africa",ZA,ZAF,"Eastern Cape","Eastern Cape",ZA-EC,province,,566.7,2108,2108,3,Africa/Johannesburg,FALSE,1710703742
Garies,Garies,,-30.5578,17.9894,"South Africa",ZA,ZAF,"Northern Cape","Northern Cape",ZA-NC,province,,30.3,2105,2105,3,Africa/Johannesburg,FALSE,1710893787
Camperdown,Camperdown,,-29.7333,30.5333,"South Africa",ZA,ZAF,KwaZulu-Natal,KwaZulu-Natal,ZA-KZN,,,338.9,2101,2101,3,Africa/Johannesburg,FALSE,1710584595
"Tugela Ferry","Tugela Ferry",,-28.7333,30.4333,"South Africa",ZA,ZAF,KwaZulu-Natal,KwaZulu-Natal,ZA-KZN,,,509.2,2093,2093,3,Africa/Johannesburg,FALSE,1710232433
Nieuwoudtville,Nieuwoudtville,,-31.3667,19.1000,"South Africa",ZA,ZAF,"Northern Cape","Northern Cape",ZA-NC,province,,79.7,2093,2093,3,Africa/Johannesburg,FALSE,1710855486
Viljoenskroon,Viljoenskroon,,-27.2167,26.9500,"South Africa",ZA,ZAF,"Free State","Free State",ZA-FS,province,,164.6,2091,2091,3,Africa/Johannesburg,FALSE,1710374125
Onseepkans,Onseepkans,,-28.7990,19.3167,"South Africa",ZA,ZAF,"Northern Cape","Northern Cape",ZA-NC,province,,15.4,2090,2090,3,Africa/Johannesburg,FALSE,1710868845
Shiluvane,Shiluvane,Shilobane,-24.0400,30.2800,"South Africa",ZA,ZAF,Limpopo,Limpopo,ZA-LP,province,,442.5,2049,2049,3,Africa/Johannesburg,FALSE,1710016469
Berlin,Berlin,,-32.8740,27.5880,"South Africa",ZA,ZAF,"Eastern Cape","Eastern Cape",ZA-EC,province,,53.5,2046,2046,3,Africa/Johannesburg,FALSE,1710397872
Frankfort,Frankfort,,-32.7570,27.4640,"South Africa",ZA,ZAF,"Eastern Cape","Eastern Cape",ZA-EC,province,,609.9,2043,2043,3,Africa/Johannesburg,FALSE,1710481720
Ottoshoop,Ottoshoop,,-25.7502,25.9650,"South Africa",ZA,ZAF,"North West","North West",ZA-NW,province,,412.7,2043,2043,3,Africa/Johannesburg,FALSE,1710479437
Klein-Brakrivier,Klein-Brakrivier,"Little Brak River",-34.0878,22.1478,"South Africa",ZA,ZAF,"Western Cape","Western Cape",ZA-WC,province,,590.4,2037,2037,3,Africa/Johannesburg,FALSE,1710039789
Leandra,Leandra,,-26.3736,28.9200,"South Africa",ZA,ZAF,Mpumalanga,Mpumalanga,ZA-MP,province,,1012.4,2023,2023,3,Africa/Johannesburg,FALSE,1710359251
Ozwatini,Ozwatini,,-29.3930,30.9460,"South Africa",ZA,ZAF,KwaZulu-Natal,KwaZulu-Natal,ZA-KZN,,,216.3,1979,1979,3,Africa/Johannesburg,FALSE,1710224132
Goedverwag,Goedverwag,Goedverwacht,-32.8647,18.6961,"South Africa",ZA,ZAF,"Western Cape","Western Cape",ZA-WC,province,,142.4,1979,1979,3,Africa/Johannesburg,FALSE,1710403352
Pniel,Pniel,Pneil,-33.9000,18.9500,"South Africa",ZA,ZAF,"Western Cape","Western Cape",ZA-WC,province,,3347.5,1975,1975,2,Africa/Johannesburg,FALSE,1710443207
Swartruggens,Swartruggens,Zwartruggens|Rodeon,-25.6500,26.7000,"South Africa",ZA,ZAF,"North West","North West",ZA-NW,province,,183.3,1969,1969,3,Africa/Johannesburg,FALSE,1710495803
Krakeelrivier,Krakeelrivier,"Krakeel River|Krakeel",-33.8140,23.7320,"South Africa",ZA,ZAF,"Eastern Cape","Eastern Cape",ZA-EC,province,,343.6,1931,1931,3,Africa/Johannesburg,FALSE,1710653437
Pienaarsrivier,Pienaarsrivier,"Pienaar’s River|Pienaarsrivier",-25.2130,28.3000,"South Africa",ZA,ZAF,Limpopo,Limpopo,ZA-LP,province,,187.9,1897,1897,3,Africa/Johannesburg,FALSE,1710294286
Sterkspruit,Sterkspruit,,-30.5240,27.3700,"South Africa",ZA,ZAF,"Eastern Cape","Eastern Cape",ZA-EC,province,,470.9,1893,1893,3,Africa/Johannesburg,FALSE,1710688070
Zastron,Zastron,,-30.3000,27.0833,"South Africa",ZA,ZAF,"Free State","Free State",ZA-FS,province,,687.5,1893,1893,3,Africa/Johannesburg,FALSE,1710172733
Morgenzon,Morgenzon,,-26.7331,29.6153,"South Africa",ZA,ZAF,Mpumalanga,Mpumalanga,ZA-MP,province,,451.8,1893,1893,3,Africa/Johannesburg,FALSE,1710697672
Babanango,Babanango,Banbanango|Babanago,-28.3667,31.0833,"South Africa",ZA,ZAF,KwaZulu-Natal,KwaZulu-Natal,ZA-KZN,,,217.3,1886,1886,3,Africa/Johannesburg,FALSE,1710112514
Paulpietersburg,Paulpietersburg,,-27.4167,30.8167,"South Africa",ZA,ZAF,KwaZulu-Natal,KwaZulu-Natal,ZA-KZN,,,50.8,1859,1859,3,Africa/Johannesburg,FALSE,1710020853
Niekerkshoop,Niekerkshoop,Niekerhshoop|Niekerkshope,-29.3267,22.8369,"South Africa",ZA,ZAF,"Northern Cape","Northern Cape",ZA-NC,province,,59.0,1830,1830,3,Africa/Johannesburg,FALSE,1710676488
Wittedrif,Wittedrif,"Witte Drift",-34.0072,23.3383,"South Africa",ZA,ZAF,"Western Cape","Western Cape",ZA-WC,province,,38.7,1822,1822,3,Africa/Johannesburg,FALSE,1710574123
"Salt Rock","Salt Rock",,-29.5031,31.2389,"South Africa",ZA,ZAF,KwaZulu-Natal,KwaZulu-Natal,ZA-KZN,,,367.8,1806,1806,3,Africa/Johannesburg,FALSE,1710943358
Ngwegweni,Ngwegweni,,-30.7340,29.3570,"South Africa",ZA,ZAF,"Eastern Cape","Eastern Cape",ZA-EC,province,,467.7,1796,1796,3,Africa/Johannesburg,FALSE,1710013261
Byldrift,Byldrift,,-24.5000,29.4833,"South Africa",ZA,ZAF,Limpopo,Limpopo,ZA-LP,province,,495.8,1785,1785,3,Africa/Johannesburg,FALSE,1710527907
eMdloti,eMdloti,"Umhloti Beach|Umdhloti Beach|Umdloti Beach|Umdloti",-29.6667,31.1167,"South Africa",ZA,ZAF,KwaZulu-Natal,KwaZulu-Natal,ZA-KZN,,,1118.2,1778,1778,3,Africa/Johannesburg,FALSE,1710251571
Hotazel,Hotazel,,-27.2000,22.9500,"South Africa",ZA,ZAF,"Northern Cape","Northern Cape",ZA-NC,province,,87.5,1756,1756,3,Africa/Johannesburg,FALSE,1710070905
"Van Stadensrus","Van Stadensrus","Van Staden’s Rust",-29.9830,27.0160,"South Africa",ZA,ZAF,"Free State","Free State",ZA-FS,province,,242.4,1745,1745,3,Africa/Johannesburg,FALSE,1710207249
Muldersdrif,Muldersdrif,Muldersdrift,-26.0330,27.8500,"South Africa",ZA,ZAF,Gauteng,Gauteng,ZA-GP,,,374.2,1744,1744,3,Africa/Johannesburg,FALSE,1710611382
Cintsa,Cintsa,"Cintsa Skool",-32.8167,28.1000,"South Africa",ZA,ZAF,"Eastern Cape","Eastern Cape",ZA-EC,province,,10.0,1740,1740,3,Africa/Johannesburg,FALSE,1710362529
Ronaldsey,Ronaldsey,,-24.9200,31.2960,"South Africa",ZA,ZAF,Limpopo,Limpopo,ZA-LP,province,,735.9,1722,1722,3,Africa/Johannesburg,FALSE,1710120376
"Van Wyksvlei","Van Wyksvlei",,-30.3500,21.8167,"South Africa",ZA,ZAF,"Northern Cape","Northern Cape",ZA-NC,province,,647.0,1721,1721,3,Africa/Johannesburg,FALSE,1710246847
"Pilgrim’s Rest","Pilgrim's Rest",Pelgrimsrus,-24.9078,30.7567,"South Africa",ZA,ZAF,Mpumalanga,Mpumalanga,ZA-MP,province,,67.8,1721,1721,3,Africa/Johannesburg,FALSE,1710949351
Nelspoort,Nelspoort,,-32.1167,23.0000,"South Africa",ZA,ZAF,"Western Cape","Western Cape",ZA-WC,province,,23.6,1699,1699,3,Africa/Johannesburg,FALSE,1710884476
Himeville,Himeville,,-29.7500,29.5000,"South Africa",ZA,ZAF,KwaZulu-Natal,KwaZulu-Natal,ZA-KZN,,,127.9,1697,1697,3,Africa/Johannesburg,FALSE,1710920213
Dithakong,Dithakong,,-27.0833,23.8500,"South Africa",ZA,ZAF,"North West","North West",ZA-NW,province,,139.2,1691,1691,3,Africa/Johannesburg,FALSE,1710650107
Winklespruit,Winklespruit,Winkelspruit,-30.1000,30.8500,"South Africa",ZA,ZAF,KwaZulu-Natal,KwaZulu-Natal,ZA-KZN,,,832.0,1689,1689,3,Africa/Johannesburg,FALSE,1710275422
Stormsrivier,Stormsrivier,"Storms River",-33.9667,23.8833,"South Africa",ZA,ZAF,"Eastern Cape","Eastern Cape",ZA-EC,province,,917.6,1670,1670,3,Africa/Johannesburg,FALSE,1710730826
"Piet Plessis","Piet Plessis",,-26.1667,24.4167,"South Africa",ZA,ZAF,"North West","North West",ZA-NW,province,,121.2,1655,1655,3,Africa/Johannesburg,FALSE,1710800954
Pomeroy,Pomeroy,,-28.5644,30.4386,"South Africa",ZA,ZAF,KwaZulu-Natal,KwaZulu-Natal,ZA-KZN,,,271.5,1621,1621,3,Africa/Johannesburg,FALSE,1710570881
Southbroom,Southbroom,,-30.9200,30.3170,"South Africa",ZA,ZAF,KwaZulu-Natal,KwaZulu-Natal,ZA-KZN,,,147.8,1615,1615,3,Africa/Johannesburg,FALSE,1710256606
Skukuza,Skukuza,,-24.9958,31.5919,"South Africa",ZA,ZAF,Mpumalanga,Mpumalanga,ZA-MP,province,,321.1,1599,1599,3,Africa/Johannesburg,FALSE,1710323847
Merweville,Merweville,,-32.6667,21.5167,"South Africa",ZA,ZAF,"Western Cape","Western Cape",ZA-WC,province,,48.8,1592,1592,3,Africa/Johannesburg,FALSE,1710051634
Mtubatuba,Mtubatuba,,-28.4167,32.1833,"South Africa",ZA,ZAF,KwaZulu-Natal,KwaZulu-Natal,ZA-KZN,,,357.3,1589,1589,3,Africa/Johannesburg,FALSE,1710965159
Louisvale,Louisvale,,-28.5720,21.1970,"South Africa",ZA,ZAF,"Northern Cape","Northern Cape",ZA-NC,province,,481.1,1585,1585,3,Africa/Johannesburg,FALSE,1710707346
Baraseba,Baraseba,,-25.5510,27.5320,"South Africa",ZA,ZAF,"North West","North West",ZA-NW,province,,708.1,1572,1572,3,Africa/Johannesburg,FALSE,1710788680
Wuppertal,Wuppertal,Whupperthal|Wupperthal,-32.2742,19.2092,"South Africa",ZA,ZAF,"Western Cape","Western Cape",ZA-WC,province,,5.2,1568,1568,3,Africa/Johannesburg,FALSE,1710789051
Nqamakwe,Nqamakwe,Ngamakwe,-32.2000,27.9333,"South Africa",ZA,ZAF,"Eastern Cape","Eastern Cape",ZA-EC,province,,1059.9,1558,1558,3,Africa/Johannesburg,FALSE,1710353657
Theunissen,Theunissen,,-28.4000,26.7167,"South Africa",ZA,ZAF,"Free State","Free State",ZA-FS,province,,168.4,1549,1549,3,Africa/Johannesburg,FALSE,1710082810
Nieu-Bethesda,Nieu-Bethesda,"New Bethesda",-31.8667,24.5500,"South Africa",ZA,ZAF,"Eastern Cape","Eastern Cape",ZA-EC,province,,45.2,1540,1540,3,Africa/Johannesburg,FALSE,1710562259
Op-die-Berg,Op-die-Berg,,-33.0167,19.2833,"South Africa",ZA,ZAF,"Western Cape","Western Cape",ZA-WC,province,,1472.1,1531,1531,3,Africa/Johannesburg,FALSE,1710633239
Eendekuil,Eendekuil,,-32.6833,18.8833,"South Africa",ZA,ZAF,"Western Cape","Western Cape",ZA-WC,province,,552.5,1530,1530,3,Africa/Johannesburg,FALSE,1710855020
Elandsbaai,Elandsbaai,"Elands Bay",-32.3000,18.3167,"South Africa",ZA,ZAF,"Western Cape","Western Cape",ZA-WC,province,,405.6,1525,1525,3,Africa/Johannesburg,FALSE,1710734636
Orania,Orania,,-29.8167,24.4000,"South Africa",ZA,ZAF,"Northern Cape","Northern Cape",ZA-NC,province,,170.2,1523,1523,3,Africa/Johannesburg,FALSE,1710874543
Kranskop,Kranskop,Krantzkop,-28.9667,30.8500,"South Africa",ZA,ZAF,KwaZulu-Natal,KwaZulu-Natal,ZA-KZN,,,64.4,1514,1514,3,Africa/Johannesburg,FALSE,1710743143
Kliprivier,Kliprivier,,-28.5090,30.2970,"South Africa",ZA,ZAF,KwaZulu-Natal,KwaZulu-Natal,ZA-KZN,,,432.6,1514,1514,3,Africa/Johannesburg,FALSE,1710755595
Mahlabatini,Mahlabatini,Mhlabatini,-28.2500,31.4333,"South Africa",ZA,ZAF,KwaZulu-Natal,KwaZulu-Natal,ZA-KZN,,,169.0,1511,1511,3,Africa/Johannesburg,FALSE,1710338645
"Alexander Bay","Alexander Bay",Alexanderbaai,-28.6083,16.5033,"South Africa",ZA,ZAF,"Northern Cape","Northern Cape",ZA-NC,province,,620.8,1500,1500,3,Africa/Johannesburg,FALSE,1710616152
