city,city_ascii,city_alt,lat,lng,country,iso2,iso3,admin_name,admin_name_ascii,admin_code,admin_type,capital,density,population,population_proper,ranking,timezone,same_name,id
Madrid,Madrid,,40.4169,-3.7033,Spain,ES,ESP,Madrid,Madrid,ES-MD,"autonomous community",primary,4550.2,6211000,3266126,1,Europe/Madrid,FALSE,1724616994
Barcelona,Barcelona,,41.3828,2.1769,Spain,ES,ESP,Catalonia,Catalonia,ES-CT,"autonomous community",admin,4477.6,4800000,1620343,1,Europe/Madrid,FALSE,1724594040
Valencia,Valencia,Valenza|Valence|València,39.4700,-0.3764,Spain,ES,ESP,Valencia,Valencia,ES-VC,"autonomous community",admin,5998.5,1595000,807693,1,Europe/Madrid,FALSE,1724981666
Sevilla,Sevilla,Siviglia|Seville|Hispalis,37.3900,-5.9900,Spain,ES,ESP,Andalusia,Andalusia,ES-AN,"autonomous community",admin,4858.1,1100000,684025,1,Europe/Madrid,FALSE,1724991838
Málaga,Malaga,,36.7194,-4.4200,Spain,ES,ESP,Andalusia,Andalusia,ES-AN,"autonomous community",minor,1484.6,967250,586384,2,Europe/Madrid,FALSE,1724397372
Bilbao,Bilbao,Biscaya|Bilboa,43.2569,-2.9236,Spain,ES,ESP,"Basque Country","Basque Country",ES-PV,"autonomous community",minor,8319.6,775000,346096,2,Europe/Madrid,FALSE,1724331267
Zaragoza,Zaragoza,"Saragosse|Caesarea Augusta|Caesaraugusta|Saragossa|Zargoza",41.6500,-0.8833,Spain,ES,ESP,Aragon,Aragon,ES-AR,"autonomous community",admin,700.9,682513,682513,2,Europe/Madrid,FALSE,1724907391
Murcia,Murcia,,37.9861,-1.1303,Spain,ES,ESP,Murcia,Murcia,ES-MC,"autonomous community",admin,532.0,672773,469177,2,Europe/Madrid,FALSE,1724107739
"Las Palmas","Las Palmas","Las Palmas de Gran Canaria|Palmas",28.1258,-15.4353,Spain,ES,ESP,"Canary Islands","Canary Islands",ES-CN,"autonomous community",admin,6315.3,635000,635000,2,Atlantic/Canary,FALSE,1724501748
Palma,Palma,"Palma de Mallorca",39.5667,2.6500,Spain,ES,ESP,"Balearic Islands","Balearic Islands",ES-IB,"autonomous community",admin,2029.2,550000,423350,2,Europe/Madrid,FALSE,1724728111
"Santa Cruz","Santa Cruz","Santa Cruz de Tenerife",28.4667,-16.2500,Spain,ES,ESP,"Canary Islands","Canary Islands",ES-CN,"autonomous community",admin,1390.8,538000,209395,2,Atlantic/Canary,FALSE,1724813158
Alicante,Alicante,Alacant,38.3453,-0.4831,Spain,ES,ESP,Valencia,Valencia,ES-VC,"autonomous community",minor,1735.4,349282,349282,2,Europe/Madrid,FALSE,1724923163
Córdoba,Cordoba,Cardoue|Corduba|Cordova|Cordoue,37.8845,-4.7796,Spain,ES,ESP,Andalusia,Andalusia,ES-AN,"autonomous community",minor,258.4,323763,323763,2,Europe/Madrid,FALSE,1724706440
Valladolid,Valladolid,,41.6528,-4.7236,Spain,ES,ESP,Castille-Leon,Castille-Leon,ES-CL,"autonomous community",admin,1503.0,297459,297459,2,Europe/Madrid,FALSE,1724133771
Vigo,Vigo,,42.2314,-8.7124,Spain,ES,ESP,Galicia,Galicia,ES-GA,"autonomous community",,2692.6,293652,293652,2,Europe/Madrid,FALSE,1724045676
Gijón,Gijon,Xixón,43.5333,-5.7000,Spain,ES,ESP,Asturias,Asturias,ES-AS,"autonomous community",,1455.8,268313,268313,2,Europe/Madrid,FALSE,1724170659
Vitoria-Gasteiz,Vitoria-Gasteiz,Vitoria,42.8500,-2.6833,Spain,ES,ESP,"Basque Country","Basque Country",ES-PV,"autonomous community",admin,924.4,255886,255886,2,Europe/Madrid,FALSE,1724975338
"A Coruña","A Coruna","Caronium|La Corogne|The Groyne|Corunna|La Coruña|Puerto de la Coruña",43.3650,-8.4100,Spain,ES,ESP,Galicia,Galicia,ES-GA,"autonomous community",minor,6613.0,247604,247604,2,Europe/Madrid,FALSE,1724417375
Elche,Elche,Elx,38.2669,-0.6983,Spain,ES,ESP,Valencia,Valencia,ES-VC,"autonomous community",,730.7,238293,238293,2,Europe/Madrid,FALSE,1724611437
Granada,Granada,Granata|Grenade,37.1781,-3.6008,Spain,ES,ESP,Andalusia,Andalusia,ES-AN,"autonomous community",minor,2619.8,230595,230595,2,Europe/Madrid,FALSE,1724929320
Badalona,Badalona,,41.4489,2.2461,Spain,ES,ESP,Catalonia,Catalonia,ES-CT,"autonomous community",,10658.3,225957,225957,2,Europe/Madrid,FALSE,1724090334
Tarrasa,Tarrasa,,41.5700,2.0130,Spain,ES,ESP,Catalonia,Catalonia,ES-CT,"autonomous community",,3209.1,225277,225277,2,Europe/Madrid,FALSE,1724377964
Petrel,Petrel,,38.4789,-0.7967,Spain,ES,ESP,Valencia,Valencia,ES-VC,"autonomous community",,325.3,218843,33914,2,Europe/Madrid,FALSE,1724000064
Sabadell,Sabadell,,41.5486,2.1075,Spain,ES,ESP,Catalonia,Catalonia,ES-CT,"autonomous community",,5775.1,218300,218300,2,Europe/Madrid,FALSE,1724348384
Cartagena,Cartagena,,37.6000,-0.9833,Spain,ES,ESP,Murcia,Murcia,ES-MC,"autonomous community",,390.7,218050,218050,2,Europe/Madrid,FALSE,1724143241
Oviedo,Oviedo,,43.3600,-5.8450,Spain,ES,ESP,Asturias,Asturias,ES-AS,"autonomous community",admin,1165.7,217584,217584,2,Europe/Madrid,FALSE,1724090743
"Jerez de la Frontera","Jerez de la Frontera","Jarez de la Frontera|Jerez",36.6817,-6.1378,Spain,ES,ESP,Andalusia,Andalusia,ES-AN,"autonomous community",,179.5,213231,213231,2,Europe/Madrid,FALSE,1724866806
Móstoles,Mostoles,,40.3333,-3.8667,Spain,ES,ESP,Madrid,Madrid,ES-MD,"autonomous community",,5262.7,209639,208761,2,Europe/Madrid,FALSE,1724412875
Pamplona,Pamplona,Iruña,42.8167,-1.6500,Spain,ES,ESP,Navarre,Navarre,ES-NC,"autonomous community",admin,8737.2,205762,205762,2,Europe/Madrid,FALSE,1724483329
Almería,Almeria,Unci,36.8403,-2.4681,Spain,ES,ESP,Andalusia,Andalusia,ES-AN,"autonomous community",minor,677.1,200578,200578,2,Europe/Madrid,FALSE,1724745640
"Alcalá de Henares","Alcala de Henares",,40.4667,-3.3667,Spain,ES,ESP,Madrid,Madrid,ES-MD,"autonomous community",,2650.2,196888,196888,2,Europe/Madrid,FALSE,1724663253
Leganés,Leganes,,40.3281,-3.7644,Spain,ES,ESP,Madrid,Madrid,ES-MD,"autonomous community",,4434.7,190665,190665,2,Europe/Madrid,FALSE,1724900225
Donostia,Donostia,"Donostia-San Sebastián|San Sebastián",43.3214,-1.9856,Spain,ES,ESP,"Basque Country","Basque Country",ES-PV,"autonomous community",minor,3099.7,188743,188743,2,Europe/Madrid,FALSE,1724910555
Fuenlabrada,Fuenlabrada,,40.2833,-3.8000,Spain,ES,ESP,Madrid,Madrid,ES-MD,"autonomous community",,4789.0,188736,188736,2,Europe/Madrid,FALSE,1724000348
Getafe,Getafe,Cotafe,40.3047,-3.7311,Spain,ES,ESP,Madrid,Madrid,ES-MD,"autonomous community",,2360.9,185899,185899,2,Europe/Madrid,FALSE,1724750196
"Castellón de la Plana","Castellon de la Plana","Castellón|Castelló de la Plana",39.9831,-0.0331,Spain,ES,ESP,Valencia,Valencia,ES-VC,"autonomous community",minor,1583.0,176238,176238,2,Europe/Madrid,FALSE,1724579885
Burgos,Burgos,,42.3500,-3.7067,Spain,ES,ESP,Castille-Leon,Castille-Leon,ES-CL,"autonomous community",minor,1629.2,174451,174451,2,Europe/Madrid,FALSE,1724993285
Albacete,Albacete,,38.9956,-1.8558,Spain,ES,ESP,"Castille-La Mancha","Castille-La Mancha",ES-CM,"autonomous community",minor,153.8,173206,173206,2,Europe/Madrid,FALSE,1724000069
Santander,Santander,,43.4628,-3.8050,Spain,ES,ESP,Cantabria,Cantabria,ES-CB,"autonomous community",admin,4787.3,172726,172726,2,Europe/Madrid,FALSE,1724247413
Alcorcón,Alcorcon,,40.3500,-3.8333,Spain,ES,ESP,Madrid,Madrid,ES-MD,"autonomous community",,4466.3,171772,171772,2,Europe/Madrid,FALSE,1724318578
Guadalajara,Guadalajara,,40.6337,-3.1674,Spain,ES,ESP,"Castille-La Mancha","Castille-La Mancha",ES-CM,"autonomous community",minor,377.9,161683,89010,2,Europe/Madrid,FALSE,1724317859
"La Laguna","La Laguna","San Cristóbal de La Laguna",28.4853,-16.3167,Spain,ES,ESP,"Canary Islands","Canary Islands",ES-CN,"autonomous community",,1558.2,159034,159034,2,Atlantic/Canary,FALSE,1724625025
Marbella,Marbella,,36.5167,-4.8833,Spain,ES,ESP,Andalusia,Andalusia,ES-AN,"autonomous community",,1367.4,156295,156295,2,Europe/Madrid,FALSE,1724685705
Logroño,Logrono,,42.4650,-2.4456,Spain,ES,ESP,"La Rioja","La Rioja",ES-RI,"autonomous community",admin,1892.5,150583,150583,2,Europe/Madrid,FALSE,1724721513
Badajoz,Badajoz,,38.8803,-6.9753,Spain,ES,ESP,Extremadura,Extremadura,ES-EX,"autonomous community",minor,102.2,150190,150190,2,Europe/Madrid,FALSE,1724759742
Salamanca,Salamanca,,40.9650,-5.6642,Spain,ES,ESP,Castille-Leon,Castille-Leon,ES-CL,"autonomous community",minor,3638.9,143954,143954,2,Europe/Madrid,FALSE,1724960825
Lleida,Lleida,Lérida,41.6167,0.6333,Spain,ES,ESP,Catalonia,Catalonia,ES-CT,"autonomous community",minor,674.0,143094,143094,2,Europe/Madrid,FALSE,1724114678
Huelva,Huelva,,37.2500,-6.9500,Spain,ES,ESP,Andalusia,Andalusia,ES-AN,"autonomous community",minor,956.6,142532,142532,2,Europe/Madrid,FALSE,1724420824
"Dos Hermanas","Dos Hermanas",,37.2836,-5.9222,Spain,ES,ESP,Andalusia,Andalusia,ES-AN,"autonomous community",,865.8,138981,138981,2,Europe/Madrid,FALSE,1724272711
Tarragona,Tarragona,,41.1175,1.2528,Spain,ES,ESP,Catalonia,Catalonia,ES-CT,"autonomous community",minor,2387.9,138262,138262,2,Europe/Madrid,FALSE,1724296961
Parla,Parla,,40.2372,-3.7742,Spain,ES,ESP,Madrid,Madrid,ES-MD,"autonomous community",,5444.3,133004,133004,2,Europe/Madrid,FALSE,1724153608
Mataró,Mataro,,41.5333,2.4500,Spain,ES,ESP,Catalonia,Catalonia,ES-CT,"autonomous community",,6203.7,129120,128956,2,Europe/Madrid,FALSE,1724901780
"Torrejón de Ardoz","Torrejon de Ardoz","Torrejon de Ardos",40.4614,-3.4978,Spain,ES,ESP,Madrid,Madrid,ES-MD,"autonomous community",,3913.0,127132,127132,2,Europe/Madrid,FALSE,1724711203
Algeciras,Algeciras,"Al Jezita",36.1275,-5.4539,Spain,ES,ESP,Andalusia,Andalusia,ES-AN,"autonomous community",,1437.7,123639,123639,2,Europe/Madrid,FALSE,1724355681
León,Leon,,42.6056,-5.5700,Spain,ES,ESP,Castille-Leon,Castille-Leon,ES-CL,"autonomous community",minor,5195.8,122051,120951,2,Europe/Madrid,FALSE,1724907542
Alcobendas,Alcobendas,,40.5333,-3.6333,Spain,ES,ESP,Madrid,Madrid,ES-MD,"autonomous community",,2618.8,117041,117041,2,Europe/Madrid,FALSE,1724354998
Jaén,Jaen,,37.7667,-3.7711,Spain,ES,ESP,Andalusia,Andalusia,ES-AN,"autonomous community",minor,263.7,111888,111888,2,Europe/Madrid,FALSE,1724699771
Cádiz,Cadiz,Gadir|Gades|Cadiz,36.5350,-6.2975,Spain,ES,ESP,Andalusia,Andalusia,ES-AN,"autonomous community",minor,9240.6,111811,111811,2,Europe/Madrid,FALSE,1724502822
Reus,Reus,,41.1560,1.1080,Spain,ES,ESP,Catalonia,Catalonia,ES-CT,"autonomous community",,2054.5,108479,108479,2,Europe/Madrid,FALSE,1724192207
"Roquetas de Mar","Roquetas de Mar",Roquetas,36.7642,-2.6147,Spain,ES,ESP,Andalusia,Andalusia,ES-AN,"autonomous community",,1775.2,106510,106510,2,Europe/Madrid,FALSE,1724749177
Girona,Girona,Gerona,41.9844,2.8211,Spain,ES,ESP,Catalonia,Catalonia,ES-CT,"autonomous community",minor,2668.0,104320,104320,2,Europe/Madrid,FALSE,1724386661
Ourense,Ourense,Orense|Oranse,42.3364,-7.8633,Spain,ES,ESP,Galicia,Galicia,ES-GA,"autonomous community",minor,1223.6,104250,104250,2,Europe/Madrid,FALSE,1724571895
Telde,Telde,,27.9833,-15.4167,Spain,ES,ESP,"Canary Islands","Canary Islands",ES-CN,"autonomous community",,1177.1,102769,102472,2,Atlantic/Canary,FALSE,1724281666
"San Vicente de Baracaldo","San Vicente de Baracaldo",Baracaldo,43.2972,-2.9917,Spain,ES,ESP,"Basque Country","Basque Country",ES-PV,"autonomous community",,3444.3,101229,101229,2,Europe/Madrid,FALSE,1724451934
Vaciamadrid,Vaciamadrid,,40.3394,-3.5181,Spain,ES,ESP,Madrid,Madrid,ES-MD,"autonomous community",,1492.7,100250,100250,2,Europe/Madrid,FALSE,1724369937
"Santiago de Compostela","Santiago de Compostela",Santiago,42.8778,-8.5444,Spain,ES,ESP,Galicia,Galicia,ES-GA,"autonomous community",admin,448.6,98687,98687,2,Europe/Madrid,FALSE,1724547778
Lorca,Lorca,,37.6798,-1.6944,Spain,ES,ESP,Murcia,Murcia,ES-MC,"autonomous community",,58.7,98447,98447,3,Europe/Madrid,FALSE,1724565149
Lugo,Lugo,,43.0167,-7.5500,Spain,ES,ESP,Galicia,Galicia,ES-GA,"autonomous community",minor,295.8,98214,98214,3,Europe/Madrid,FALSE,1724547526
"Las Rozas de Madrid","Las Rozas de Madrid","Las Rozas|Pas Rozas de Madrid|Rozas de Madrid",40.4917,-3.8733,Spain,ES,ESP,Madrid,Madrid,ES-MD,"autonomous community",,1658.5,98086,98086,3,Europe/Madrid,FALSE,1724629395
"San Cugat del Vallés","San Cugat del Valles","Sant Cugat del Vallès|San Cugat de Vallés|San Cugat",41.4667,2.0833,Spain,ES,ESP,Catalonia,Catalonia,ES-CT,"autonomous community",,2023.4,97530,97530,2,Europe/Madrid,FALSE,1724196400
Cáceres,Caceres,,39.4833,-6.3667,Spain,ES,ESP,Extremadura,Extremadura,ES-EX,"autonomous community",minor,55.0,96215,96215,3,Europe/Madrid,FALSE,1724532670
"San Fernando","San Fernando","San Fernanando",36.4667,-6.2000,Spain,ES,ESP,Andalusia,Andalusia,ES-AN,"autonomous community",,3064.5,93927,93927,2,Europe/Madrid,FALSE,1724235367
"San Sebastián de los Reyes","San Sebastian de los Reyes",,40.5469,-3.6258,Spain,ES,ESP,Madrid,Madrid,ES-MD,"autonomous community",,1564.9,92734,92734,3,Europe/Madrid,FALSE,1724422840
Mijas,Mijas,,36.6000,-4.6333,Spain,ES,ESP,Andalusia,Andalusia,ES-AN,"autonomous community",,616.2,91691,91691,3,Europe/Madrid,FALSE,1724011980
"El Ejido","El Ejido","Barriada El Ejido|Ejido",36.7831,-2.8167,Spain,ES,ESP,Andalusia,Andalusia,ES-AN,"autonomous community",,396.4,89975,89975,3,Europe/Madrid,FALSE,1724399333
"El Puerto de Santa María","El Puerto de Santa Maria","El Puerto de Santa María",36.6015,-6.2381,Spain,ES,ESP,Andalusia,Andalusia,ES-AN,"autonomous community",,564.9,89813,89813,3,Europe/Madrid,FALSE,1724087455
Torrevieja,Torrevieja,,37.9778,-0.6833,Spain,ES,ESP,Valencia,Valencia,ES-VC,"autonomous community",,1249.9,89290,89290,3,Europe/Madrid,FALSE,1724485635
"Chiclana de la Frontera","Chiclana de la Frontera",Chiclana,36.4167,-6.1500,Spain,ES,ESP,Andalusia,Andalusia,ES-AN,"autonomous community",,431.8,88709,88709,3,Europe/Madrid,FALSE,1724794663
Torrente,Torrente,,39.4389,-0.4656,Spain,ES,ESP,Valencia,Valencia,ES-VC,"autonomous community",,1260.4,87295,87295,3,Europe/Madrid,FALSE,1724305866
"Ciudad de Melilla","Ciudad de Melilla",Melilla|Russadir|Rusadir|M’lila|Millela|Rusaddir,35.3000,-2.9500,Spain,ES,ESP,Melilla,Melilla,ES-ML,"autonomous city",,12882.1,86261,85170,2,Africa/Ceuta,FALSE,1724144891
Toledo,Toledo,,39.8567,-4.0244,Spain,ES,ESP,"Castille-La Mancha","Castille-La Mancha",ES-CM,"autonomous community",admin,370.8,86070,86070,2,Europe/Madrid,FALSE,1724171411
Fuengirola,Fuengirola,,36.5417,-4.6250,Spain,ES,ESP,Andalusia,Andalusia,ES-AN,"autonomous community",,8254.4,85598,85598,2,Europe/Madrid,FALSE,1724094287
Vélez-Málaga,Velez-Malaga,,36.7833,-4.1000,Spain,ES,ESP,Andalusia,Andalusia,ES-AN,"autonomous community",,540.4,85377,85377,3,Europe/Madrid,FALSE,1724206889
Arona,Arona,,28.1000,-16.6667,Spain,ES,ESP,"Canary Islands","Canary Islands",ES-CN,"autonomous community",,1042.3,85249,85249,3,Atlantic/Canary,FALSE,1724300501
"San Baudilio de Llobregat","San Baudilio de Llobregat","San Baudilio",41.3360,2.0430,Spain,ES,ESP,Catalonia,Catalonia,ES-CT,"autonomous community",,3903.2,83919,83919,2,Europe/Madrid,FALSE,1724214083
"Talavera de la Reina","Talavera de la Reina","Talavera del Tajo",39.9583,-4.8328,Spain,ES,ESP,"Castille-La Mancha","Castille-La Mancha",ES-CM,"autonomous community",,600.6,83477,83247,3,Europe/Madrid,FALSE,1724716966
"Ciudad de Ceuta","Ciudad de Ceuta","Ceuta|Eptadelfos|Sebta|Septem Fratres|Septa|Cueta",35.8883,-5.3156,Spain,ES,ESP,Ceuta,Ceuta,ES-CE,"autonomous city",,4488.6,83039,83039,2,Africa/Ceuta,FALSE,1724324416
Pontevedra,Pontevedra,,42.4333,-8.6333,Spain,ES,ESP,Galicia,Galicia,ES-GA,"autonomous community",minor,699.4,82535,82535,3,Europe/Madrid,FALSE,1724789643
Valdemoro,Valdemoro,,40.1908,-3.6742,Spain,ES,ESP,Madrid,Madrid,ES-MD,"autonomous community",,1267.8,81394,81394,3,Europe/Madrid,FALSE,1724347455
Orihuela,Orihuela,,38.0856,-0.9469,Spain,ES,ESP,Valencia,Valencia,ES-VC,"autonomous community",,273.7,80784,80784,3,Europe/Madrid,FALSE,1724864615
Rubí,Rubi,,41.4933,2.0325,Spain,ES,ESP,Catalonia,Catalonia,ES-CT,"autonomous community",,2478.1,80044,80044,2,Europe/Madrid,FALSE,1724552367
Manresa,Manresa,,41.7294,1.8272,Spain,ES,ESP,Catalonia,Catalonia,ES-CT,"autonomous community",,1896.1,78877,78877,3,Europe/Madrid,FALSE,1724989137
Gandía,Gandia,,38.9667,-0.1833,Spain,ES,ESP,Valencia,Valencia,ES-VC,"autonomous community",,1284.7,78108,78108,3,Europe/Madrid,FALSE,1724131747
Estepona,Estepona,,36.4264,-5.1472,Spain,ES,ESP,Andalusia,Andalusia,ES-AN,"autonomous community",,561.9,76975,76975,3,Europe/Madrid,FALSE,1724460361
"Alcalá de Guadaira","Alcala de Guadaira",,37.3333,-5.8500,Spain,ES,ESP,Andalusia,Andalusia,ES-AN,"autonomous community",,269.0,76547,76547,3,Europe/Madrid,FALSE,1724537443
Palencia,Palencia,,42.0167,-4.5333,Spain,ES,ESP,Castille-Leon,Castille-Leon,ES-CL,"autonomous community",minor,805.9,76331,76331,3,Europe/Madrid,FALSE,1724682403
"Molina de Segura","Molina de Segura",Molina,38.0548,-1.2131,Spain,ES,ESP,Murcia,Murcia,ES-MC,"autonomous community",,448.8,76074,76074,3,Europe/Madrid,FALSE,1724074824
Benalmádena,Benalmadena,,36.6000,-4.5167,Spain,ES,ESP,Andalusia,Andalusia,ES-AN,"autonomous community",,2786.8,75801,75801,2,Europe/Madrid,FALSE,1724108022
Avilés,Aviles,,43.5561,-5.9083,Spain,ES,ESP,Asturias,Asturias,ES-AS,"autonomous community",,2816.8,75518,75518,2,Europe/Madrid,FALSE,1724815050
"Ciudad Real","Ciudad Real",,38.9833,-3.9167,Spain,ES,ESP,"Castille-La Mancha","Castille-La Mancha",ES-CM,"autonomous community",minor,264.2,75303,75303,3,Europe/Madrid,FALSE,1724671059
Paterna,Paterna,,39.5028,-0.4406,Spain,ES,ESP,Valencia,Valencia,ES-VC,"autonomous community",,1670.2,73488,73488,3,Europe/Madrid,FALSE,1724974310
Majadahonda,Majadahonda,,40.4728,-3.8722,Spain,ES,ESP,Madrid,Madrid,ES-MD,"autonomous community",,1885.3,72548,72548,3,Europe/Madrid,FALSE,1724482447
Benidorm,Benidorm,Benidorme,38.5342,-0.1314,Spain,ES,ESP,Valencia,Valencia,ES-VC,"autonomous community",,1878.5,72342,72342,3,Europe/Madrid,FALSE,1724178356
Torremolinos,Torremolinos,Toremolinos-Málaga|Torremolinos-Málaga,36.6218,-4.5003,Spain,ES,ESP,Andalusia,Andalusia,ES-AN,"autonomous community",,3521.7,70434,70434,2,Europe/Madrid,FALSE,1724424815
Sagunto,Sagunto,,39.6764,-0.2733,Spain,ES,ESP,Valencia,Valencia,ES-VC,"autonomous community",,531.3,70128,70128,3,Europe/Madrid,FALSE,1724302941
"Sanlúcar de Barrameda","Sanlucar de Barrameda","Sunlucar de Barrameda",36.7667,-6.3500,Spain,ES,ESP,Andalusia,Andalusia,ES-AN,"autonomous community",,408.4,69805,69805,3,Europe/Madrid,FALSE,1724096650
Castelldefels,Castelldefels,Castelldefells,41.2860,1.9820,Spain,ES,ESP,Catalonia,Catalonia,ES-CT,"autonomous community",,5304.4,68427,68427,2,Europe/Madrid,FALSE,1724000280
"Villanueva y Geltrú","Villanueva y Geltru","Vilanova y Geltrú|Vilanova I La Geltru",41.2242,1.7256,Spain,ES,ESP,Catalonia,Catalonia,ES-CT,"autonomous community",,2195.4,68152,68152,2,Europe/Madrid,FALSE,1724482160
Viladecáns,Viladecans,,41.3158,2.0197,Spain,ES,ESP,Catalonia,Catalonia,ES-CT,"autonomous community",,3268.5,66677,66677,2,Europe/Madrid,FALSE,1724069372
Collado-Villalba,Collado-Villalba,,40.6333,-4.0083,Spain,ES,ESP,Madrid,Madrid,ES-MD,"autonomous community",,2477.6,65657,65657,2,Europe/Madrid,FALSE,1724645759
"El Prat de Llobregat","El Prat de Llobregat","Prat del Llobregat|Prat de Llobregat",41.3333,2.1000,Spain,ES,ESP,Catalonia,Catalonia,ES-CT,"autonomous community",,2032.8,65516,65516,2,Europe/Madrid,FALSE,1724139875
Arrecife,Arrecife,,28.9625,-13.5506,Spain,ES,ESP,"Canary Islands","Canary Islands",ES-CN,"autonomous community",,2826.8,64497,63750,2,Atlantic/Canary,FALSE,1724630905
Ferrol,Ferrol,"El Ferrol del Caudillo|Ferrol del Caudillo|El Ferrol|Ferrol",43.4844,-8.2328,Spain,ES,ESP,Galicia,Galicia,ES-GA,"autonomous community",,773.0,63890,63890,3,Europe/Madrid,FALSE,1724806861
"La Línea de la Concepción","La Linea de la Concepcion","La Línea",36.1681,-5.3486,Spain,ES,ESP,Andalusia,Andalusia,ES-AN,"autonomous community",,2443.4,63773,63773,2,Europe/Madrid,FALSE,1724170346
Ponferrada,Ponferrada,Pomeriada,42.5500,-6.5833,Spain,ES,ESP,Castille-Leon,Castille-Leon,ES-CL,"autonomous community",,225.1,63747,63747,3,Europe/Madrid,FALSE,1724164693
Granollers,Granollers,,41.6080,2.2880,Spain,ES,ESP,Catalonia,Catalonia,ES-CT,"autonomous community",,4234.4,63092,63092,2,Europe/Madrid,FALSE,1724011647
Irún,Irun,,43.3378,-1.7888,Spain,ES,ESP,"Basque Country","Basque Country",ES-PV,"autonomous community",,1470.1,62920,62920,3,Europe/Madrid,FALSE,1724796753
"Boadilla del Monte","Boadilla del Monte",,40.4069,-3.8750,Spain,ES,ESP,Madrid,Madrid,ES-MD,"autonomous community",,1141.4,62627,62627,3,Europe/Madrid,FALSE,1724646651
"San Vicente del Raspeig","San Vicente del Raspeig",,38.3964,-0.5253,Spain,ES,ESP,Valencia,Valencia,ES-VC,"autonomous community",,1477.9,59928,59928,3,Europe/Madrid,FALSE,1724135642
Aranjuez,Aranjuez,,40.0333,-3.6028,Spain,ES,ESP,Madrid,Madrid,ES-MD,"autonomous community",,344.2,59833,59762,3,Europe/Madrid,FALSE,1724798101
Alcoy,Alcoy,Alco,38.6983,-0.4736,Spain,ES,ESP,Valencia,Valencia,ES-VC,"autonomous community",,458.1,59493,59493,3,Europe/Madrid,FALSE,1724702362
Mérida,Merida,,38.9000,-6.3333,Spain,ES,ESP,Extremadura,Extremadura,ES-EX,"autonomous community",admin,68.7,59461,59461,2,Europe/Madrid,FALSE,1724941889
Zamora,Zamora,,41.4989,-5.7556,Spain,ES,ESP,Castille-Leon,Castille-Leon,ES-CL,"autonomous community",minor,397.0,59259,59259,3,Europe/Madrid,FALSE,1724611317
Motril,Motril,,36.7500,-3.5167,Spain,ES,ESP,Andalusia,Andalusia,ES-AN,"autonomous community",,536.9,58939,58939,3,Europe/Madrid,FALSE,1724209936
Ávila,Avila,"Ávila de los Caballeros|Ávila de los Santos",40.6500,-4.6833,Spain,ES,ESP,Castille-Leon,Castille-Leon,ES-CL,"autonomous community",minor,249.0,57741,57741,3,Europe/Madrid,FALSE,1724392183
Pinto,Pinto,,40.2500,-3.7000,Spain,ES,ESP,Madrid,Madrid,ES-MD,"autonomous community",,880.5,55208,55208,3,Europe/Madrid,FALSE,1724713530
"Colmenar Viejo","Colmenar Viejo",,40.6589,-3.7658,Spain,ES,ESP,Madrid,Madrid,ES-MD,"autonomous community",,302.3,55198,55198,3,Europe/Madrid,FALSE,1724112232
Linares,Linares,,38.0833,-3.6333,Spain,ES,ESP,Andalusia,Andalusia,ES-AN,"autonomous community",,279.0,55096,55096,3,Europe/Madrid,FALSE,1724047784
"Granadilla de Abona","Granadilla de Abona",Granadilla,28.1167,-16.5667,Spain,ES,ESP,"Canary Islands","Canary Islands",ES-CN,"autonomous community",,338.3,54942,54942,3,Atlantic/Canary,FALSE,1724769973
Huesca,Huesca,,42.1333,-0.4167,Spain,ES,ESP,Aragon,Aragon,ES-AR,"autonomous community",minor,336.2,54136,54136,3,Europe/Madrid,FALSE,1724384043
"San Bartolomé","San Bartolome","San Bartolomé Tirajana|San Bartolomé de Tirajana",27.9256,-15.5725,Spain,ES,ESP,"Canary Islands","Canary Islands",ES-CN,"autonomous community",,161.9,53912,53912,3,Atlantic/Canary,TRUE,1724008128
Cuenca,Cuenca,,40.0667,-2.1500,Spain,ES,ESP,"Castille-La Mancha","Castille-La Mancha",ES-CM,"autonomous community",minor,58.7,53512,53512,3,Europe/Madrid,FALSE,1724316040
Elda,Elda,,38.4789,-0.7967,Spain,ES,ESP,Valencia,Valencia,ES-VC,"autonomous community",,1182.2,53034,53034,3,Europe/Madrid,FALSE,1724626332
"Pola de Siero","Pola de Siero",Siero,43.3833,-5.6500,Spain,ES,ESP,Asturias,Asturias,ES-AS,"autonomous community",,247.1,52194,52194,3,Europe/Madrid,FALSE,1724178701
Ibiza,Ibiza,Iviza,38.9089,1.4328,Spain,ES,ESP,"Balearic Islands","Balearic Islands",ES-IB,"autonomous community",,4667.5,51996,51996,2,Europe/Madrid,FALSE,1724123244
Villareal,Villareal,"Villarreal de los Infantes|Villareal",39.9378,-0.1014,Spain,ES,ESP,Valencia,Valencia,ES-VC,"autonomous community",,940.7,51852,51852,3,Europe/Madrid,FALSE,1724206895
Mollet,Mollet,"Mollet del Vallès",41.5390,2.2130,Spain,ES,ESP,Catalonia,Catalonia,ES-CT,"autonomous community",,4798.5,51824,51824,2,Europe/Madrid,FALSE,1724443143
Utrera,Utrera,,37.1830,-5.7670,Spain,ES,ESP,Andalusia,Andalusia,ES-AN,"autonomous community",,75.6,51718,51718,3,Europe/Madrid,FALSE,1724187644
Torrelavega,Torrelavega,,43.3531,-4.0458,Spain,ES,ESP,Cantabria,Cantabria,ES-CB,"autonomous community",,1445.2,51361,51361,3,Europe/Madrid,FALSE,1724275022
"Rincón de la Victoria","Rincon de la Victoria",,36.7167,-4.2833,Spain,ES,ESP,Andalusia,Andalusia,ES-AN,"autonomous community",,1864.8,51300,51300,3,Europe/Madrid,FALSE,1724481445
Segovia,Segovia,,40.9481,-4.1183,Spain,ES,ESP,Castille-Leon,Castille-Leon,ES-CL,"autonomous community",minor,8.3,51011,51011,3,Europe/Madrid,FALSE,1724953497
Adeje,Adeje,,28.1167,-16.7167,Spain,ES,ESP,"Canary Islands","Canary Islands",ES-CN,"autonomous community",,473.3,50167,50167,3,Atlantic/Canary,FALSE,1724394126
Figueras,Figueras,,42.2667,2.9650,Spain,ES,ESP,Catalonia,Catalonia,ES-CT,"autonomous community",,2480.8,47879,47879,2,Europe/Madrid,FALSE,1724895039
Gavá,Gava,,41.3072,2.0039,Spain,ES,ESP,Catalonia,Catalonia,ES-CT,"autonomous community",,1547.2,47593,47593,3,Europe/Madrid,FALSE,1724806532
Vich,Vich,Vic,41.9303,2.2547,Spain,ES,ESP,Catalonia,Catalonia,ES-CT,"autonomous community",,1507.6,47545,47545,3,Europe/Madrid,FALSE,1724823476
"Mairena del Aljarafe","Mairena del Aljarafe",,37.3333,-6.0667,Spain,ES,ESP,Andalusia,Andalusia,ES-AN,"autonomous community",,2796.5,47541,47541,2,Europe/Madrid,FALSE,1724732496
"Esplugas de Llobregat","Esplugas de Llobregat","Santa Magdalena d’Esplugas|Esplugas|Espluga",41.3767,2.0858,Spain,ES,ESP,Catalonia,Catalonia,ES-CT,"autonomous community",,10200.2,46921,46921,2,Europe/Madrid,FALSE,1724352928
Alcira,Alcira,,39.1500,-0.4350,Spain,ES,ESP,Valencia,Valencia,ES-VC,"autonomous community",,420.5,46421,46421,3,Europe/Madrid,FALSE,1724303009
Manacor,Manacor,,39.5667,3.2000,Spain,ES,ESP,"Balearic Islands","Balearic Islands",ES-IB,"autonomous community",,178.2,46395,46395,3,Europe/Madrid,FALSE,1724483399
Santurce-Antiguo,Santurce-Antiguo,Santurce,43.3303,-3.0314,Spain,ES,ESP,"Basque Country","Basque Country",ES-PV,"autonomous community",,6773.1,46057,46057,2,Europe/Madrid,FALSE,1724220415
"San Felíu de Llobregat","San Feliu de Llobregat","San Feliu",41.3833,2.0439,Spain,ES,ESP,Catalonia,Catalonia,ES-CT,"autonomous community",,3903.1,46056,46056,2,Europe/Madrid,FALSE,1724279247
Mislata,Mislata,,39.4750,-0.4156,Spain,ES,ESP,Valencia,Valencia,ES-VC,"autonomous community",,16782.4,45644,45644,2,Europe/Madrid,FALSE,1724001899
Denia,Denia,,38.8444,0.1111,Spain,ES,ESP,Valencia,Valencia,ES-VC,"autonomous community",,689.2,45622,45622,3,Europe/Madrid,FALSE,1724032915
"San Antonio Abad","San Antonio Abad",,37.6261,-0.9896,Spain,ES,ESP,Murcia,Murcia,ES-MC,"autonomous community",,457.8,45335,45335,3,Europe/Madrid,FALSE,1724212697
Puertollano,Puertollano,,38.6833,-4.1167,Spain,ES,ESP,"Castille-La Mancha","Castille-La Mancha",ES-CM,"autonomous community",,199.0,45127,45127,3,Europe/Madrid,FALSE,1724051219
Portugalete,Portugalete,,43.3194,-3.0194,Spain,ES,ESP,"Basque Country","Basque Country",ES-PV,"autonomous community",,16275.7,44629,44629,2,Europe/Madrid,FALSE,1724017694
"Alhaurín de la Torre","Alhaurin de la Torre",,36.6667,-4.5500,Spain,ES,ESP,Andalusia,Andalusia,ES-AN,"autonomous community",,526.2,43674,43674,3,Europe/Madrid,FALSE,1724504346
"Puerto del Rosario","Puerto del Rosario","Puerto Rosario|Puerto de Cabras|Puerto Cabras",28.5000,-13.8667,Spain,ES,ESP,"Canary Islands","Canary Islands",ES-CN,"autonomous community",,149.6,43390,43390,3,Atlantic/Canary,FALSE,1724461156
Alcantarilla,Alcantarilla,,37.9722,-1.2094,Spain,ES,ESP,Murcia,Murcia,ES-MC,"autonomous community",,2742.0,43049,43049,2,Europe/Madrid,FALSE,1724229842
Lucena,Lucena,,37.4089,-4.4853,Spain,ES,ESP,Andalusia,Andalusia,ES-AN,"autonomous community",,122.0,42813,42813,3,Europe/Madrid,FALSE,1724391367
"La Orotava","La Orotava","Villa Orotava|Villa de la Orotava",28.3906,-16.5247,Spain,ES,ESP,"Canary Islands","Canary Islands",ES-CN,"autonomous community",,204.8,42454,42454,3,Atlantic/Canary,FALSE,1724852308
"Puerto Real","Puerto Real",,36.5292,-6.1919,Spain,ES,ESP,Andalusia,Andalusia,ES-AN,"autonomous community",,214.7,42069,42069,3,Europe/Madrid,FALSE,1724134848
Blanes,Blanes,,41.6760,2.7930,Spain,ES,ESP,Catalonia,Catalonia,ES-CT,"autonomous community",,2353.3,41653,41653,2,Europe/Madrid,FALSE,1724143581
"Lloret de Mar","Lloret de Mar",,41.7000,2.8333,Spain,ES,ESP,Catalonia,Catalonia,ES-CT,"autonomous community",,853.4,41559,41559,3,Europe/Madrid,FALSE,1724676299
"Santa Eulalia del Río","Santa Eulalia del Rio",,38.9847,1.5336,Spain,ES,ESP,"Balearic Islands","Balearic Islands",ES-IB,"autonomous community",,268.6,41228,41228,3,Europe/Madrid,FALSE,1724568151
Antequera,Antequera,Anteguera,37.0183,-4.5597,Spain,ES,ESP,Andalusia,Andalusia,ES-AN,"autonomous community",,55.0,41178,41178,3,Europe/Madrid,FALSE,1724357550
Igualada,Igualada,,41.5833,1.6167,Spain,ES,ESP,Catalonia,Catalonia,ES-CT,"autonomous community",,5082.0,41164,41164,2,Europe/Madrid,FALSE,1724444786
"Villafranca del Panadés","Villafranca del Panades","Vilafranca de Panades",41.3447,1.6994,Spain,ES,ESP,Catalonia,Catalonia,ES-CT,"autonomous community",,2077.2,40714,40714,2,Europe/Madrid,FALSE,1724718493
"La Rinconada","La Rinconada",,37.4833,-5.9667,Spain,ES,ESP,Andalusia,Andalusia,ES-AN,"autonomous community",,286.9,40162,40162,3,Europe/Madrid,FALSE,1724417340
Soria,Soria,,41.7667,-2.4667,Spain,ES,ESP,Castille-Leon,Castille-Leon,ES-CL,"autonomous community",minor,147.5,40096,40096,3,Europe/Madrid,FALSE,1724106558
Burjasot,Burjasot,Bujursot,39.5064,-0.4067,Spain,ES,ESP,Valencia,Valencia,ES-VC,"autonomous community",,2464.7,39702,39702,2,Europe/Madrid,FALSE,1724238629
Vendrell,Vendrell,"El Vendrell",41.2203,1.5347,Spain,ES,ESP,Catalonia,Catalonia,ES-CT,"autonomous community",,1076.1,39601,39601,3,Europe/Madrid,FALSE,1724555594
Écija,Ecija,,37.5333,-5.0833,Spain,ES,ESP,Andalusia,Andalusia,ES-AN,"autonomous community",,40.5,39530,39530,3,Europe/Madrid,FALSE,1724919208
Marratxi,Marratxi,,39.6422,2.7528,Spain,ES,ESP,"Balearic Islands","Balearic Islands",ES-IB,"autonomous community",,730.4,39440,39440,3,Europe/Madrid,FALSE,1724429400
Plasencia,Plasencia,,40.0333,-6.1000,Spain,ES,ESP,Extremadura,Extremadura,ES-EX,"autonomous community",,180.8,39412,39412,3,Europe/Madrid,FALSE,1724951100
Narón,Naron,"San Julian de Naron|San Julian",43.5500,-8.1500,Spain,ES,ESP,Galicia,Galicia,ES-GA,"autonomous community",,583.6,39051,39051,3,Europe/Madrid,FALSE,1724543353
Lluchmayor,Lluchmayor,Llummayor,39.4833,2.8833,Spain,ES,ESP,"Balearic Islands","Balearic Islands",ES-IB,"autonomous community",,139.2,39040,39040,3,Europe/Madrid,FALSE,1724033667
Torre-Pacheco,Torre-Pacheco,,37.7333,-0.9500,Spain,ES,ESP,Murcia,Murcia,ES-MC,"autonomous community",,206.5,39037,39037,3,Europe/Madrid,FALSE,1724458704
"San Fernando de Henares","San Fernando de Henares",,40.4256,-3.5353,Spain,ES,ESP,Madrid,Madrid,ES-MD,"autonomous community",,992.0,38974,38974,3,Europe/Madrid,FALSE,1724056913
"Los Palacios y Villafranca","Los Palacios y Villafranca","Villafranca Los Palacios",37.1625,-5.9242,Spain,ES,ESP,Andalusia,Andalusia,ES-AN,"autonomous community",,339.5,38698,38698,3,Europe/Madrid,FALSE,1724334949
Arucas,Arucas,,28.1188,-15.5231,Spain,ES,ESP,"Canary Islands","Canary Islands",ES-CN,"autonomous community",,1169.4,38601,38601,3,Atlantic/Canary,FALSE,1724017455
Ripollet,Ripollet,,41.4969,2.1574,Spain,ES,ESP,Catalonia,Catalonia,ES-CT,"autonomous community",,9601.6,38347,38347,2,Europe/Madrid,FALSE,1724013514
Sama,Sama,"Sama de Langreo|Langreo",43.3000,-5.6833,Spain,ES,ESP,Asturias,Asturias,ES-AS,"autonomous community",,460.6,37978,37978,3,Europe/Madrid,FALSE,1724748229
Olot,Olot,,42.1833,2.4833,Spain,ES,ESP,Catalonia,Catalonia,ES-CT,"autonomous community",,1309.5,37975,37975,3,Europe/Madrid,FALSE,1724694918
"San Adrián de Besós","San Adrian de Besos","San Adria del Besòs|San Adrian",41.4285,2.2230,Spain,ES,ESP,Catalonia,Catalonia,ES-CT,"autonomous community",,9980.3,37925,37925,2,Europe/Madrid,FALSE,1724799974
"Santa Pola","Santa Pola",,38.1897,-0.5556,Spain,ES,ESP,Valencia,Valencia,ES-VC,"autonomous community",,645.3,37816,37816,3,Europe/Madrid,FALSE,1724077015
Oleiros,Oleiros,"Santa María",43.3333,-8.3166,Spain,ES,ESP,Galicia,Galicia,ES-GA,"autonomous community",,861.8,37809,37809,3,Europe/Madrid,FALSE,1724989777
Tudela,Tudela,,42.0653,-1.6067,Spain,ES,ESP,Navarre,Navarre,ES-NC,"autonomous community",,175.2,37791,37791,3,Europe/Madrid,FALSE,1724338927
"Villagarcía de Arosa","Villagarcia de Arosa",Villagarcía,42.5977,-8.7632,Spain,ES,ESP,Galicia,Galicia,ES-GA,"autonomous community",,799.5,37689,37689,3,Europe/Madrid,FALSE,1724392038
"Don Benito","Don Benito",,38.9545,-5.8617,Spain,ES,ESP,Extremadura,Extremadura,ES-EX,"autonomous community",,67.0,37485,37485,3,Europe/Madrid,FALSE,1724257021
Moncada,Moncada,"Moncada de Reixach|Moncada y Reisach",41.4872,2.1878,Spain,ES,ESP,Catalonia,Catalonia,ES-CT,"autonomous community",,1569.8,36891,36891,3,Europe/Madrid,FALSE,1724353233
Águilas,Aguilas,Agudas,37.4042,-1.5819,Spain,ES,ESP,Murcia,Murcia,ES-MC,"autonomous community",,146.4,36862,36862,3,Europe/Madrid,FALSE,1724197717
Cambrils,Cambrils,,41.0667,1.0583,Spain,ES,ESP,Catalonia,Catalonia,ES-CT,"autonomous community",,1036.8,36496,36496,3,Europe/Madrid,FALSE,1724843807
Tomelloso,Tomelloso,,39.1578,-3.0208,Spain,ES,ESP,"Castille-La Mancha","Castille-La Mancha",ES-CM,"autonomous community",,150.5,36304,36304,3,Europe/Madrid,FALSE,1724367154
Teruel,Teruel,,40.3436,-1.1072,Spain,ES,ESP,Aragon,Aragon,ES-AR,"autonomous community",minor,82.3,36267,36267,3,Europe/Madrid,FALSE,1724398880
Mieres,Mieres,,43.2508,-5.7767,Spain,ES,ESP,Asturias,Asturias,ES-AS,"autonomous community",,247.9,36195,36195,3,Europe/Madrid,FALSE,1724137111
Onteniente,Onteniente,,38.8222,-0.6072,Spain,ES,ESP,Valencia,Valencia,ES-VC,"autonomous community",,288.6,36194,36194,3,Europe/Madrid,FALSE,1724051475
"El Plan","El Plan",,37.6405,-1.0085,Spain,ES,ESP,Murcia,Murcia,ES-MC,"autonomous community",,457.8,36080,36080,3,Europe/Madrid,FALSE,1724468727
Maspalomas,Maspalomas,,27.7667,-15.5833,Spain,ES,ESP,"Canary Islands","Canary Islands",ES-CN,"autonomous community",,191.1,36065,36065,3,Atlantic/Canary,FALSE,1724127061
Arroyomolinos,Arroyomolinos,Aorroyomolinos,40.2667,-3.9000,Spain,ES,ESP,Madrid,Madrid,ES-MD,"autonomous community",,1741.1,35972,35972,3,Europe/Madrid,FALSE,1724999273
Andújar,Andujar,,38.0392,-4.0506,Spain,ES,ESP,Andalusia,Andalusia,ES-AN,"autonomous community",,37.4,35788,35788,3,Europe/Madrid,FALSE,1724144147
Burriana,Burriana,Borriana,39.8894,-0.0925,Spain,ES,ESP,Valencia,Valencia,ES-VC,"autonomous community",,757.4,35750,35750,3,Europe/Madrid,FALSE,1724445446
"Miranda de Ebro","Miranda de Ebro","Miranda del Ebro|Miranda",42.6833,-2.9333,Spain,ES,ESP,Castille-Leon,Castille-Leon,ES-CL,"autonomous community",,351.7,35639,35639,3,Europe/Madrid,FALSE,1724933402
Cieza,Cieza,,38.2392,-1.4189,Spain,ES,ESP,Murcia,Murcia,ES-MC,"autonomous community",,96.6,35286,35286,3,Europe/Madrid,FALSE,1724168894
"San Javier","San Javier",,37.8037,-0.8343,Spain,ES,ESP,Murcia,Murcia,ES-MC,"autonomous community",,476.2,35241,35241,3,Europe/Madrid,FALSE,1724177387
"Azuqueca de Henares","Azuqueca de Henares",Azuqueca,40.5647,-3.2681,Spain,ES,ESP,"Castille-La Mancha","Castille-La Mancha",ES-CM,"autonomous community",,2455.3,35236,35182,2,Europe/Madrid,FALSE,1724909657
Yecla,Yecla,,38.6136,-1.1147,Spain,ES,ESP,Murcia,Murcia,ES-MC,"autonomous community",,68.0,35234,35234,3,Europe/Madrid,FALSE,1724394283
Galapagar,Galapagar,,40.5764,-4.0019,Spain,ES,ESP,Madrid,Madrid,ES-MD,"autonomous community",,579.6,34834,34834,3,Europe/Madrid,FALSE,1724218090
Villajoyosa,Villajoyosa,,38.5053,-0.2328,Spain,ES,ESP,Valencia,Valencia,ES-VC,"autonomous community",,682.4,34828,34828,3,Europe/Madrid,FALSE,1724104919
Tortosa,Tortosa,Tortoza,40.8128,0.5233,Spain,ES,ESP,Catalonia,Catalonia,ES-CT,"autonomous community",,158.5,34639,34639,3,Europe/Madrid,FALSE,1724228664
Inca,Inca,,39.7167,2.9167,Spain,ES,ESP,"Balearic Islands","Balearic Islands",ES-IB,"autonomous community",,589.5,34577,34577,3,Europe/Madrid,FALSE,1724489288
"San Juan Despí","San Juan Despi",,41.3681,2.0581,Spain,ES,ESP,Catalonia,Catalonia,ES-CT,"autonomous community",,5575.5,34568,34568,2,Europe/Madrid,FALSE,1724606295
Mazarrón,Mazarron,,37.5983,-1.3139,Spain,ES,ESP,Murcia,Murcia,ES-MC,"autonomous community",,108.0,34462,34462,3,Europe/Madrid,FALSE,1724139198
Úbeda,Ubeda,,38.0133,-3.3705,Spain,ES,ESP,Andalusia,Andalusia,ES-AN,"autonomous community",,91.0,34208,34062,3,Europe/Madrid,FALSE,1724367504
Villena,Villena,,38.6350,-0.8658,Spain,ES,ESP,Valencia,Valencia,ES-VC,"autonomous community",,98.8,34144,34144,3,Europe/Madrid,FALSE,1724638080
Almendralejo,Almendralejo,,38.6833,-6.4167,Spain,ES,ESP,Extremadura,Extremadura,ES-EX,"autonomous community",,206.4,33948,33948,3,Europe/Madrid,FALSE,1724000018
"San Roque","San Roque",,36.2097,-5.3844,Spain,ES,ESP,Andalusia,Andalusia,ES-AN,"autonomous community",,229.1,33646,33646,3,Europe/Madrid,FALSE,1724332438
"Aranda de Duero","Aranda de Duero",Aranda,41.6833,-3.6833,Spain,ES,ESP,Castille-Leon,Castille-Leon,ES-CL,"autonomous community",,264.2,33626,33626,3,Europe/Madrid,FALSE,1724218741
Arteijo,Arteijo,Santiago,43.3044,-8.5114,Spain,ES,ESP,Galicia,Galicia,ES-GA,"autonomous community",,357.5,33516,33516,3,Europe/Madrid,FALSE,1724272253
Aldaya,Aldaya,,39.4639,-0.4628,Spain,ES,ESP,Valencia,Valencia,ES-VC,"autonomous community",,2086.0,33376,33376,2,Europe/Madrid,FALSE,1724676507
Ronda,Ronda,,36.7372,-5.1647,Spain,ES,ESP,Andalusia,Andalusia,ES-AN,"autonomous community",,86.6,33329,33329,3,Europe/Madrid,FALSE,1724795472
Castro-Urdiales,Castro-Urdiales,,43.3844,-3.2150,Spain,ES,ESP,Cantabria,Cantabria,ES-CB,"autonomous community",,343.5,33225,33225,3,Europe/Madrid,FALSE,1724390704
Totana,Totana,,37.7711,-1.5003,Spain,ES,ESP,Murcia,Murcia,ES-MC,"autonomous community",,115.2,33149,33149,3,Europe/Madrid,FALSE,1724153814
Níjar,Nijar,,36.9667,-2.2000,Spain,ES,ESP,Andalusia,Andalusia,ES-AN,"autonomous community",,54.7,32858,32858,3,Europe/Madrid,FALSE,1724044503
Salt,Salt,,41.9761,2.7881,Spain,ES,ESP,Catalonia,Catalonia,ES-CT,"autonomous community",,5890.3,32517,32517,2,Europe/Madrid,FALSE,1724677327
Amés,Ames,"Santo Tomás",42.9000,-8.6333,Spain,ES,ESP,Galicia,Galicia,ES-GA,"autonomous community",,403.3,32482,32482,3,Europe/Madrid,FALSE,1724737109
Ingenio,Ingenio,,27.9214,-15.4325,Spain,ES,ESP,"Canary Islands","Canary Islands",ES-CN,"autonomous community",,848.1,32354,32354,3,Atlantic/Canary,FALSE,1724555097
Sitges,Sitges,,41.2370,1.8230,Spain,ES,ESP,Catalonia,Catalonia,ES-CT,"autonomous community",,727.9,31954,31954,3,Europe/Madrid,FALSE,1724328412
"San Pedro de Ribas","San Pedro de Ribas","Sant Pere de Ribes",41.2597,1.7736,Spain,ES,ESP,Catalonia,Catalonia,ES-CT,"autonomous community",,779.1,31786,31786,3,Europe/Madrid,FALSE,1724896777
Manises,Manises,,39.4833,-0.4500,Spain,ES,ESP,Valencia,Valencia,ES-VC,"autonomous community",,1610.9,31573,31573,3,Europe/Madrid,FALSE,1724921476
Carballo,Carballo,,43.2167,-8.6833,Spain,ES,ESP,Galicia,Galicia,ES-GA,"autonomous community",,168.8,31416,31416,3,Europe/Madrid,FALSE,1724180814
Navalcarnero,Navalcarnero,,40.2847,-4.0136,Spain,ES,ESP,Madrid,Madrid,ES-MD,"autonomous community",,291.6,31379,31379,3,Europe/Madrid,FALSE,1724865858
"Arcos de la Frontera","Arcos de la Frontera",Arcos,36.7500,-5.8000,Spain,ES,ESP,Andalusia,Andalusia,ES-AN,"autonomous community",,58.7,30953,30953,3,Europe/Madrid,FALSE,1724851482
"Alcázar de San Juan","Alcazar de San Juan","Alcaraz de San Juan|Alcázar",39.4056,-3.2056,Spain,ES,ESP,"Castille-La Mancha","Castille-La Mancha",ES-CM,"autonomous community",,46.4,30928,30928,3,Europe/Madrid,FALSE,1724889534
"Coria del Río","Coria del Rio",,37.2833,-6.0500,Spain,ES,ESP,Andalusia,Andalusia,ES-AN,"autonomous community",,482.6,30887,30887,3,Europe/Madrid,FALSE,1724372076
Culleredo,Culleredo,"San Esteban",43.2883,-8.3894,Spain,ES,ESP,Galicia,Galicia,ES-GA,"autonomous community",,489.9,30864,30864,3,Europe/Madrid,FALSE,1724416062
"Puerto de la Cruz","Puerto de la Cruz",,28.4167,-16.5333,Spain,ES,ESP,"Canary Islands","Canary Islands",ES-CN,"autonomous community",,241.6,30849,30849,3,Atlantic/Canary,FALSE,1724298488
Calafell,Calafell,,41.2020,1.5700,Spain,ES,ESP,Catalonia,Catalonia,ES-CT,"autonomous community",,1501.5,30631,30631,3,Europe/Madrid,FALSE,1724383580
Illescas,Illescas,,40.1167,-3.8333,Spain,ES,ESP,"Castille-La Mancha","Castille-La Mancha",ES-CM,"autonomous community",,537.3,30553,30553,3,Europe/Madrid,FALSE,1724426043
Hellín,Hellin,,38.5167,-1.6833,Spain,ES,ESP,"Castille-La Mancha","Castille-La Mancha",ES-CM,"autonomous community",,43.6,30492,30492,3,Europe/Madrid,FALSE,1724570430
Valdepeñas,Valdepenas,Yaldepenas,38.7617,-3.3850,Spain,ES,ESP,"Castille-La Mancha","Castille-La Mancha",ES-CM,"autonomous community",,62.4,30411,30411,3,Europe/Madrid,FALSE,1724776859
Salou,Salou,,41.0770,1.1440,Spain,ES,ESP,Catalonia,Catalonia,ES-CT,"autonomous community",,2001.6,30224,30224,2,Europe/Madrid,FALSE,1724922401
Crevillente,Crevillente,,38.2486,-0.8089,Spain,ES,ESP,Valencia,Valencia,ES-VC,"autonomous community",,288.9,30191,30191,3,Europe/Madrid,FALSE,1724275111
"San Andrés del Rabanedo","San Andres del Rabanedo","San Andrés de Rabanedo",42.6167,-5.6000,Spain,ES,ESP,Castille-Leon,Castille-Leon,ES-CL,"autonomous community",,462.1,29961,29961,3,Europe/Madrid,FALSE,1724350553
Mahón,Mahon,,39.8875,4.2611,Spain,ES,ESP,"Balearic Islands","Balearic Islands",ES-IB,"autonomous community",,255.1,29902,29902,3,Europe/Madrid,FALSE,1724771449
Alacuás,Alacuas,,39.4583,-0.4628,Spain,ES,ESP,Valencia,Valencia,ES-VC,"autonomous community",,7647.4,29825,29825,2,Europe/Madrid,FALSE,1724760114
Puente-Genil,Puente-Genil,,37.3833,-4.7667,Spain,ES,ESP,Andalusia,Andalusia,ES-AN,"autonomous community",,174.1,29781,29781,3,Europe/Madrid,FALSE,1724654674
Durango,Durango,,43.1689,-2.6300,Spain,ES,ESP,"Basque Country","Basque Country",ES-PV,"autonomous community",,2728.4,29767,29767,2,Europe/Madrid,FALSE,1724494232
Vinaroz,Vinaroz,,40.4686,0.4736,Spain,ES,ESP,Valencia,Valencia,ES-VC,"autonomous community",,310.8,29686,29686,3,Europe/Madrid,FALSE,1724995416
Rota,Rota,,36.6167,-6.3500,Spain,ES,ESP,Andalusia,Andalusia,ES-AN,"autonomous community",,353.3,29675,29675,3,Europe/Madrid,FALSE,1724152240
Catarroja,Catarroja,,39.4028,-0.4044,Spain,ES,ESP,Valencia,Valencia,ES-VC,"autonomous community",,2255.1,29316,29316,2,Europe/Madrid,FALSE,1724221843
Carmona,Carmona,,37.4667,-5.6333,Spain,ES,ESP,Andalusia,Andalusia,ES-AN,"autonomous community",,34.4,29279,29279,3,Europe/Madrid,FALSE,1724616347
Redondela,Redondela,,42.2833,-8.6167,Spain,ES,ESP,Galicia,Galicia,ES-GA,"autonomous community",,602.7,29192,29055,3,Europe/Madrid,FALSE,1724657198
"La Oliva","La Oliva",Oliva,28.6111,-13.9278,Spain,ES,ESP,"Canary Islands","Canary Islands",ES-CN,"autonomous community",,81.7,29099,29099,3,Atlantic/Canary,FALSE,1724741564
Lepe,Lepe,,37.2542,-7.2033,Spain,ES,ESP,Andalusia,Andalusia,ES-AN,"autonomous community",,225.1,28813,28813,3,Europe/Madrid,FALSE,1724165295
"Premiá de Mar","Premia de Mar","Premiá del Mar|Premiá",41.4919,2.3619,Spain,ES,ESP,Catalonia,Catalonia,ES-CT,"autonomous community",,10746.3,28767,28767,2,Europe/Madrid,FALSE,1724296865
Martorell,Martorell,,41.4770,1.9280,Spain,ES,ESP,Catalonia,Catalonia,ES-CT,"autonomous community",,2246.9,28760,28760,2,Europe/Madrid,FALSE,1724754042
Candelaria,Candelaria,Cancelaria,28.3547,-16.3711,Spain,ES,ESP,"Canary Islands","Canary Islands",ES-CN,"autonomous community",,583.4,28694,28694,3,Atlantic/Canary,FALSE,1724124128
Benicarló,Benicarlo,,40.4167,0.4167,Spain,ES,ESP,Valencia,Valencia,ES-VC,"autonomous community",,598.8,28681,28681,3,Europe/Madrid,FALSE,1724776568
Cártama,Cartama,,36.7114,-4.6306,Spain,ES,ESP,Andalusia,Andalusia,ES-AN,"autonomous community",,189.3,28412,28412,3,Europe/Madrid,FALSE,1724807752
Vícar,Vicar,,36.8317,-2.6431,Spain,ES,ESP,Andalusia,Andalusia,ES-AN,"autonomous community",,441.3,28245,28245,3,Europe/Madrid,FALSE,1724429496
Camas,Camas,,37.4000,-6.0333,Spain,ES,ESP,Andalusia,Andalusia,ES-AN,"autonomous community",,2346.4,28157,28157,2,Europe/Madrid,FALSE,1724068126
"Villaviciosa de Odón","Villaviciosa de Odon",,40.3583,-3.9033,Spain,ES,ESP,Madrid,Madrid,ES-MD,"autonomous community",,454.4,28152,28152,3,Europe/Madrid,FALSE,1724552632
"San Vicente dels Horts","San Vicente dels Horts","San Vicente|San Vicente de Horts",41.3953,2.0108,Spain,ES,ESP,Catalonia,Catalonia,ES-CT,"autonomous community",,3465.2,28115,28079,2,Europe/Madrid,FALSE,1724724364
Seseña,Sesena,,40.1036,-3.6981,Spain,ES,ESP,"Castille-La Mancha","Castille-La Mancha",ES-CM,"autonomous community",,333.3,28102,28102,3,Europe/Madrid,FALSE,1724634027
Sueca,Sueca,,39.2000,-0.3114,Spain,ES,ESP,Valencia,Valencia,ES-VC,"autonomous community",,303.6,28086,28086,3,Europe/Madrid,FALSE,1724472560
Almazora,Almazora,,39.9403,-0.0625,Spain,ES,ESP,Valencia,Valencia,ES-VC,"autonomous community",,848.2,27989,27989,3,Europe/Madrid,FALSE,1724564412
Sestao,Sestao,,43.3108,-3.0056,Spain,ES,ESP,"Basque Country","Basque Country",ES-PV,"autonomous community",,7952.6,27834,27834,2,Europe/Madrid,FALSE,1724738779
Lebrija,Lebrija,,36.9194,-6.0781,Spain,ES,ESP,Andalusia,Andalusia,ES-AN,"autonomous community",,74.5,27727,27727,3,Europe/Madrid,FALSE,1724598585
"San Pedro del Pinatar","San Pedro del Pinatar","San Pedro del Pintar",37.8167,-0.7500,Spain,ES,ESP,Murcia,Murcia,ES-MC,"autonomous community",,1240.6,27691,27691,3,Europe/Madrid,FALSE,1724144996
Algemesí,Algemesi,,39.1897,-0.4378,Spain,ES,ESP,Valencia,Valencia,ES-VC,"autonomous community",,661.2,27438,27438,3,Europe/Madrid,FALSE,1724231513
Almuñécar,Almunecar,,36.7333,-3.6833,Spain,ES,ESP,Andalusia,Andalusia,ES-AN,"autonomous community",,327.6,27305,27305,3,Europe/Madrid,FALSE,1724549849
"Morón de la Frontera","Moron de la Frontera",Morón,37.1222,-5.4517,Spain,ES,ESP,Andalusia,Andalusia,ES-AN,"autonomous community",,63.0,27229,27229,3,Europe/Madrid,FALSE,1724945093
Paiporta,Paiporta,,39.4278,-0.4183,Spain,ES,ESP,Valencia,Valencia,ES-VC,"autonomous community",,6970.3,27184,27184,2,Europe/Madrid,FALSE,1724055183
Muchamiel,Muchamiel,,38.4136,-0.4456,Spain,ES,ESP,Valencia,Valencia,ES-VC,"autonomous community",,568.3,27078,27078,3,Europe/Madrid,FALSE,1724272993
"Santa Eugenia","Santa Eugenia","Santa Eugenia de Reviera|Santa Eugenia de Ribeira|Santa Eugenia de Riveira|Riveira|Ribeira|Reviera",42.5667,-8.9833,Spain,ES,ESP,Galicia,Galicia,ES-GA,"autonomous community",,391.7,27030,27030,3,Europe/Madrid,FALSE,1724379476
"Paracuellos de Jarama","Paracuellos de Jarama",,40.5500,-3.5167,Spain,ES,ESP,Madrid,Madrid,ES-MD,"autonomous community",,614.8,27000,27000,3,Europe/Madrid,FALSE,1724371566
"San Andrés de la Barca","San Andres de la Barca",,41.4478,1.9769,Spain,ES,ESP,Catalonia,Catalonia,ES-CT,"autonomous community",,4892.7,26910,26910,2,Europe/Madrid,FALSE,1724606046
"Alhaurín el Grande","Alhaurin el Grande",,36.6331,-4.6831,Spain,ES,ESP,Andalusia,Andalusia,ES-AN,"autonomous community",,367.7,26879,26879,3,Europe/Madrid,FALSE,1724876495
Cangas,Cangas,,42.2642,-8.7819,Spain,ES,ESP,Galicia,Galicia,ES-GA,"autonomous community",,703.6,26807,26807,3,Europe/Madrid,FALSE,1724669943
Jumilla,Jumilla,,38.4792,-1.3250,Spain,ES,ESP,Murcia,Murcia,ES-MC,"autonomous community",,27.6,26784,26784,3,Europe/Madrid,FALSE,1724151562
Bétera,Betera,,39.5933,-0.4628,Spain,ES,ESP,Valencia,Valencia,ES-VC,"autonomous community",,353.5,26759,26759,3,Europe/Madrid,FALSE,1724948157
"Molíns de Rey","Molins de Rey","Molins|Molins del Rey",41.4139,2.0158,Spain,ES,ESP,Catalonia,Catalonia,ES-CT,"autonomous community",,1670.1,26555,26555,3,Europe/Madrid,FALSE,1724528554
"Santa Perpetua de Moguda","Santa Perpetua de Moguda",,41.5375,2.1819,Spain,ES,ESP,Catalonia,Catalonia,ES-CT,"autonomous community",,1641.0,25928,25928,3,Europe/Madrid,FALSE,1724312278
Ciempozuelos,Ciempozuelos,,40.1592,-3.6183,Spain,ES,ESP,Madrid,Madrid,ES-MD,"autonomous community",,521.5,25866,25866,3,Europe/Madrid,FALSE,1724341699
Calpe,Calpe,,38.6450,0.0442,Spain,ES,ESP,Valencia,Valencia,ES-VC,"autonomous community",,1099.7,25854,25854,3,Europe/Madrid,FALSE,1724877295
Alboraya,Alboraya,,39.5000,-0.3522,Spain,ES,ESP,Valencia,Valencia,ES-VC,"autonomous community",,3107.5,25792,25792,2,Europe/Madrid,FALSE,1724241743
Novelda,Novelda,,38.3850,-0.7680,Spain,ES,ESP,Valencia,Valencia,ES-VC,"autonomous community",,340.4,25771,25771,3,Europe/Madrid,FALSE,1724123582
"Villanueva de la Serena","Villanueva de la Serena",,38.9667,-5.8000,Spain,ES,ESP,Extremadura,Extremadura,ES-EX,"autonomous community",,169.4,25751,25751,3,Europe/Madrid,FALSE,1724363816
Oliva,Oliva,,38.9194,-0.1211,Spain,ES,ESP,Valencia,Valencia,ES-VC,"autonomous community",,426.5,25558,25558,3,Europe/Madrid,FALSE,1724426329
Onda,Onda,,39.9625,-0.2639,Spain,ES,ESP,Valencia,Valencia,ES-VC,"autonomous community",,235.6,25547,25547,3,Europe/Madrid,FALSE,1724421220
Tomares,Tomares,,37.3764,-6.0458,Spain,ES,ESP,Andalusia,Andalusia,ES-AN,"autonomous community",,5074.8,25374,25374,2,Europe/Madrid,FALSE,1724916166
"San Juan de Alicante","San Juan de Alicante",,38.4014,-0.4367,Spain,ES,ESP,Valencia,Valencia,ES-VC,"autonomous community",,2621.9,25275,25275,2,Europe/Madrid,FALSE,1724403338
Almonte,Almonte,,37.2667,-6.5167,Spain,ES,ESP,Andalusia,Andalusia,ES-AN,"autonomous community",,29.3,25233,25233,3,Europe/Madrid,FALSE,1724955448
Adra,Adra,Abdera,36.7478,-3.0161,Spain,ES,ESP,Andalusia,Andalusia,ES-AN,"autonomous community",,279.8,25195,25195,3,Europe/Madrid,FALSE,1724071055
Villarrobledo,Villarrobledo,,39.2667,-2.6000,Spain,ES,ESP,"Castille-La Mancha","Castille-La Mancha",ES-CM,"autonomous community",,29.2,25189,25189,3,Europe/Madrid,FALSE,1724704168
Torrelodones,Torrelodones,,40.5756,-3.9292,Spain,ES,ESP,Madrid,Madrid,ES-MD,"autonomous community",,1196.0,25115,25115,3,Europe/Madrid,FALSE,1724434250
Armilla,Armilla,,37.1500,-3.6167,Spain,ES,ESP,Andalusia,Andalusia,ES-AN,"autonomous community",,5669.5,25059,25059,2,Europe/Madrid,FALSE,1724964261
Coín,Coin,,36.6667,-4.7500,Spain,ES,ESP,Andalusia,Andalusia,ES-AN,"autonomous community",,196.5,25023,25023,3,Europe/Madrid,FALSE,1724570414
Valls,Valls,,41.2883,1.2519,Spain,ES,ESP,Catalonia,Catalonia,ES-CT,"autonomous community",,452.3,25014,25014,3,Europe/Madrid,FALSE,1724511688
Calahorra,Calahorra,,42.3000,-1.9667,Spain,ES,ESP,"La Rioja","La Rioja",ES-RI,"autonomous community",,267.1,24994,24994,3,Europe/Madrid,FALSE,1724553946
Galdácano,Galdacano,Galdacan|Galdacon,43.2306,-2.8458,Spain,ES,ESP,"Basque Country","Basque Country",ES-PV,"autonomous community",,781.2,24765,24765,3,Europe/Madrid,FALSE,1724891889
Cambre,Cambre,,43.2830,-8.3330,Spain,ES,ESP,Galicia,Galicia,ES-GA,"autonomous community",,603.4,24739,24739,3,Europe/Madrid,FALSE,1724885486
Liria,Liria,,39.6258,-0.5942,Spain,ES,ESP,Valencia,Valencia,ES-VC,"autonomous community",,107.5,24518,24518,3,Europe/Madrid,FALSE,1724728759
"Olesa de Montserrat","Olesa de Montserrat",Olesa,41.5450,1.8944,Spain,ES,ESP,Catalonia,Catalonia,ES-CT,"autonomous community",,1470.0,24446,24446,3,Europe/Madrid,FALSE,1724299057
Erandio,Erandio,,43.3047,-2.9731,Spain,ES,ESP,"Basque Country","Basque Country",ES-PV,"autonomous community",,1390.1,24411,24411,3,Europe/Madrid,FALSE,1724931391
Martos,Martos,,37.7167,-3.9667,Spain,ES,ESP,Andalusia,Andalusia,ES-AN,"autonomous community",,96.6,24329,24329,3,Europe/Madrid,FALSE,1724000251
Almansa,Almansa,,38.8682,-1.0979,Spain,ES,ESP,"Castille-La Mancha","Castille-La Mancha",ES-CM,"autonomous community",,45.7,24282,24282,3,Europe/Madrid,FALSE,1724819701
"Los Barrios","Los Barrios",Barrios,36.1833,-5.4833,Spain,ES,ESP,Andalusia,Andalusia,ES-AN,"autonomous community",,73.1,24219,24219,3,Europe/Madrid,FALSE,1724279475
Marín,Marin,"San Julián de Afuera|San Julián",42.3933,-8.7000,Spain,ES,ESP,Galicia,Galicia,ES-GA,"autonomous community",,674.0,24197,24197,3,Europe/Madrid,FALSE,1724759253
"Mairena del Alcor","Mairena del Alcor","Maireno del Alcor|Mairano del Alcor",37.3667,-5.7333,Spain,ES,ESP,Andalusia,Andalusia,ES-AN,"autonomous community",,346.0,24125,24125,3,Europe/Madrid,FALSE,1724398748
"Icod de los Vinos","Icod de los Vinos",Icod,28.3500,-16.7000,Spain,ES,ESP,"Canary Islands","Canary Islands",ES-CN,"autonomous community",,250.0,23971,23971,3,Atlantic/Canary,FALSE,1724332990
Ibi,Ibi,,38.6272,-0.5753,Spain,ES,ESP,Valencia,Valencia,ES-VC,"autonomous community",,382.6,23920,23920,3,Europe/Madrid,FALSE,1724086250
"Mejorada del Campo","Mejorada del Campo",,40.3967,-3.3858,Spain,ES,ESP,Madrid,Madrid,ES-MD,"autonomous community",,1467.1,23897,23897,3,Europe/Madrid,FALSE,1724293748
Altea,Altea,,38.5986,-0.0519,Spain,ES,ESP,Valencia,Valencia,ES-VC,"autonomous community",,691.8,23820,23820,3,Europe/Madrid,FALSE,1724509426
Cullera,Cullera,,39.1639,-0.2517,Spain,ES,ESP,Andalusia,Andalusia,ES-AN,"autonomous community",,441.5,23753,23753,3,Europe/Madrid,FALSE,1724054051
"Conil de la Frontera","Conil de la Frontera",Conil,36.2667,-6.0833,Spain,ES,ESP,Andalusia,Andalusia,ES-AN,"autonomous community",,267.3,23661,23661,3,Europe/Madrid,FALSE,1724051704
"Pilar de la Horadada","Pilar de la Horadada","El Pilar de Horadada",37.8667,-0.7833,Spain,ES,ESP,Valencia,Valencia,ES-VC,"autonomous community",,300.4,23428,23428,3,Europe/Madrid,FALSE,1724816403
Teguise,Teguise,,29.0500,-13.5667,Spain,ES,ESP,"Canary Islands","Canary Islands",ES-CN,"autonomous community",,90.0,23411,23411,3,Atlantic/Canary,FALSE,1724648198
"Alhama de Murcia","Alhama de Murcia",Alhama,37.8514,-1.4264,Spain,ES,ESP,Murcia,Murcia,ES-MC,"autonomous community",,74.7,23280,23280,3,Europe/Madrid,FALSE,1724947627
"Vilaseca de Solcina","Vilaseca de Solcina",Vilaseca,41.1108,1.1450,Spain,ES,ESP,Catalonia,Catalonia,ES-CT,"autonomous community",,1073.0,23176,23176,3,Europe/Madrid,FALSE,1724103527
Puenteareas,Puenteareas,,42.1667,-8.5000,Spain,ES,ESP,Galicia,Galicia,ES-GA,"autonomous community",,185.2,23154,23154,3,Europe/Madrid,FALSE,1724337811
Zarautz,Zarautz,Zarauz,43.2833,-2.1667,Spain,ES,ESP,"Basque Country","Basque Country",ES-PV,"autonomous community",,1564.3,23152,23152,3,Europe/Madrid,FALSE,1724056021
Moguer,Moguer,,37.2747,-6.8386,Spain,ES,ESP,Andalusia,Andalusia,ES-AN,"autonomous community",,112.8,22956,22956,3,Europe/Madrid,FALSE,1724821530
"El Palmar","El Palmar",,37.9422,-1.1614,Spain,ES,ESP,Murcia,Murcia,ES-MC,"autonomous community",,879.3,22897,22897,3,Europe/Madrid,FALSE,1724761061
"Villanueva de la Cañada","Villanueva de la Canada",,40.4500,-3.9833,Spain,ES,ESP,Madrid,Madrid,ES-MD,"autonomous community",,600.7,22845,22845,3,Europe/Madrid,FALSE,1724000272
"Torre del Mar","Torre del Mar",,36.7500,-4.0833,Spain,ES,ESP,Andalusia,Andalusia,ES-AN,"autonomous community",,590.8,22819,22819,3,Europe/Madrid,FALSE,1724657999
"Barbate de Franco","Barbate de Franco",Barbate,36.1833,-5.9167,Spain,ES,ESP,Andalusia,Andalusia,ES-AN,"autonomous community",,159.1,22811,22811,3,Europe/Madrid,FALSE,1724165909
Bormujos,Bormujos,,37.3667,-6.0667,Spain,ES,ESP,Andalusia,Andalusia,ES-AN,"autonomous community",,1898.3,22780,22780,3,Europe/Madrid,FALSE,1724359655
"San Felíu de Guixols","San Feliu de Guixols","Sant Feliu de Guíxols",41.7833,3.0333,Spain,ES,ESP,Catalonia,Catalonia,ES-CT,"autonomous community",,1404.4,22751,22751,3,Europe/Madrid,FALSE,1724736863
"Laguna de Duero","Laguna de Duero",,41.5833,-4.7167,Spain,ES,ESP,Castille-Leon,Castille-Leon,ES-CL,"autonomous community",,775.6,22672,22672,3,Europe/Madrid,FALSE,1724571345
"San Juan de Aznalfarache","San Juan de Aznalfarache",,37.3667,-6.0167,Spain,ES,ESP,Andalusia,Andalusia,ES-AN,"autonomous community",,5618.0,22472,22472,2,Europe/Madrid,FALSE,1724867783
Esparraguera,Esparraguera,,41.5381,1.8692,Spain,ES,ESP,Catalonia,Catalonia,ES-CT,"autonomous community",,819.1,22442,22442,3,Europe/Madrid,FALSE,1724908880
"Guía de Isora","Guia de Isora","Guía|Guia de Izara",28.2110,-16.7784,Spain,ES,ESP,"Canary Islands","Canary Islands",ES-CN,"autonomous community",,155.5,22301,22301,3,Atlantic/Canary,FALSE,1724572709
Montilla,Montilla,,37.5833,-4.6333,Spain,ES,ESP,Andalusia,Andalusia,ES-AN,"autonomous community",,132.3,22298,22298,3,Europe/Madrid,FALSE,1724865599
Maracena,Maracena,,37.2000,-3.6333,Spain,ES,ESP,Andalusia,Andalusia,ES-AN,"autonomous community",,4455.0,22275,22275,2,Europe/Madrid,FALSE,1724029236
Aljaraque,Aljaraque,,37.2667,-7.0167,Spain,ES,ESP,Andalusia,Andalusia,ES-AN,"autonomous community",,654.7,22259,22259,3,Europe/Madrid,FALSE,1724459161
Picasent,Picasent,,39.3611,-0.4600,Spain,ES,ESP,Valencia,Valencia,ES-VC,"autonomous community",,259.2,22236,22236,3,Europe/Madrid,FALSE,1724170506
"Las Torres de Cotillas","Las Torres de Cotillas","La Torres de Cotillas",38.0264,-1.2436,Spain,ES,ESP,Andalusia,Andalusia,ES-AN,"autonomous community",,568.8,22183,22183,3,Europe/Madrid,FALSE,1724150041
Moncada,Moncada,,39.5431,-0.3928,Spain,ES,ESP,Valencia,Valencia,ES-VC,"autonomous community",,1414.6,22067,22067,3,Europe/Madrid,FALSE,1724450178
"Priego de Córdoba","Priego de Cordoba",,37.4333,-4.1833,Spain,ES,ESP,Andalusia,Andalusia,ES-AN,"autonomous community",,76.3,22003,22003,3,Europe/Madrid,FALSE,1724212027
Nerja,Nerja,,36.7469,-3.8789,Spain,ES,ESP,Andalusia,Andalusia,ES-AN,"autonomous community",,257.8,21913,21913,3,Europe/Madrid,FALSE,1724190692
Alfafar,Alfafar,,39.4222,-0.3906,Spain,ES,ESP,Valencia,Valencia,ES-VC,"autonomous community",,2166.2,21879,21879,2,Europe/Madrid,FALSE,1724290706
Almoradí,Almoradi,Almordi,38.1097,-0.7894,Spain,ES,ESP,Valencia,Valencia,ES-VC,"autonomous community",,512.0,21874,21874,3,Europe/Madrid,FALSE,1724624918
Amposta,Amposta,,40.7106,0.5808,Spain,ES,ESP,Catalonia,Catalonia,ES-CT,"autonomous community",,208.6,21807,21807,3,Europe/Madrid,FALSE,1724566001
Ayamonte,Ayamonte,,37.2000,-7.4000,Spain,ES,ESP,Andalusia,Andalusia,ES-AN,"autonomous community",,152.4,21645,21645,3,Europe/Madrid,FALSE,1724119454
Isla-Cristina,Isla-Cristina,,37.1992,-7.3214,Spain,ES,ESP,Andalusia,Andalusia,ES-AN,"autonomous community",,432.1,21603,21603,3,Europe/Madrid,FALSE,1724215419
"Alcalá la Real","Alcala la Real",,37.4500,-3.9167,Spain,ES,ESP,Andalusia,Andalusia,ES-AN,"autonomous community",,82.4,21587,21587,3,Europe/Madrid,FALSE,1724682908
Güimar,Guimar,,28.3150,-16.4100,Spain,ES,ESP,"Canary Islands","Canary Islands",ES-CN,"autonomous community",,209.3,21536,21536,3,Atlantic/Canary,FALSE,1724294895
Aspe,Aspe,,38.3456,-0.7689,Spain,ES,ESP,Valencia,Valencia,ES-VC,"autonomous community",,307.7,21473,21473,3,Europe/Madrid,FALSE,1724126700
Alcudia,Alcudia,,39.8525,3.1192,Spain,ES,ESP,"Balearic Islands","Balearic Islands",ES-IB,"autonomous community",,355.1,21322,21322,3,Europe/Madrid,FALSE,1724681701
Pájara,Pajara,,28.3511,-14.1075,Spain,ES,ESP,"Canary Islands","Canary Islands",ES-CN,"autonomous community",,55.5,21271,21271,3,Atlantic/Canary,TRUE,1724377413
Manlleu,Manlleu,,42.0000,2.2836,Spain,ES,ESP,Catalonia,Catalonia,ES-CT,"autonomous community",,1230.9,21172,21172,3,Europe/Madrid,FALSE,1724798027
Cartaya,Cartaya,,37.2833,-7.1500,Spain,ES,ESP,Andalusia,Andalusia,ES-AN,"autonomous community",,9.3,21128,21128,3,Europe/Madrid,FALSE,1724750362
"San Juan de Vilasar","San Juan de Vilasar","Vilassar de Mar|Vilasar de Mar",41.5060,2.3910,Spain,ES,ESP,Catalonia,Catalonia,ES-CT,"autonomous community",,5263.7,21055,21055,2,Europe/Madrid,FALSE,1724259439
Palafrugell,Palafrugell,,41.9174,3.1631,Spain,ES,ESP,Catalonia,Catalonia,ES-CT,"autonomous community",,1053.4,21049,21049,3,Europe/Madrid,FALSE,1724222383
Torrox,Torrox,,36.7500,-3.9500,Spain,ES,ESP,Andalusia,Andalusia,ES-AN,"autonomous community",,410.4,20932,20932,3,Europe/Madrid,FALSE,1724600506
"La Unión","La Union",,37.6192,-0.8756,Spain,ES,ESP,Murcia,Murcia,ES-MC,"autonomous community",,835.9,20897,20897,3,Europe/Madrid,FALSE,1724665681
Carcagente,Carcagente,Carcaixén,39.1222,-0.4489,Spain,ES,ESP,Valencia,Valencia,ES-VC,"autonomous community",,350.7,20777,20777,3,Europe/Madrid,FALSE,1724931242
Algete,Algete,,40.5978,-3.5003,Spain,ES,ESP,Madrid,Madrid,ES-MD,"autonomous community",,621.8,20767,20767,3,Europe/Madrid,FALSE,1724204700
Puzol,Puzol,,39.6167,-0.3011,Spain,ES,ESP,Valencia,Valencia,ES-VC,"autonomous community",,1147.9,20731,20731,3,Europe/Madrid,FALSE,1724895655
"Palma del Río","Palma del Rio",,37.7000,-5.2833,Spain,ES,ESP,Andalusia,Andalusia,ES-AN,"autonomous community",,103.4,20688,20688,3,Europe/Madrid,FALSE,1724000025
"Los Llanos de Aridane","Los Llanos de Aridane","Los Llanos",28.6500,-17.9000,Spain,ES,ESP,"Canary Islands","Canary Islands",ES-CN,"autonomous community",,688.3,20648,20551,3,Atlantic/Canary,FALSE,1724727479
Loja,Loja,,37.1667,-4.1500,Spain,ES,ESP,Andalusia,Andalusia,ES-AN,"autonomous community",,46.0,20580,20580,3,Europe/Madrid,FALSE,1724466102
Baza,Baza,,37.4833,-2.7667,Spain,ES,ESP,Andalusia,Andalusia,ES-AN,"autonomous community",,37.8,20579,20579,3,Europe/Madrid,FALSE,1724271422
Hernani,Hernani,,43.2667,-1.9667,Spain,ES,ESP,"Basque Country","Basque Country",ES-PV,"autonomous community",,358.1,20527,20527,3,Europe/Madrid,FALSE,1724313794
Bañolas,Banolas,Bañoles,42.1194,2.7664,Spain,ES,ESP,Catalonia,Catalonia,ES-CT,"autonomous community",,1847.4,20506,20506,3,Europe/Madrid,FALSE,1724632297
"Sant Just Desvern","Sant Just Desvern","Saint Just Desvern",41.3830,2.0750,Spain,ES,ESP,Catalonia,Catalonia,ES-CT,"autonomous community",,2623.3,20462,20462,2,Europe/Madrid,FALSE,1724188832
Huércal-Overa,Huercal-Overa,Huescal-Overa,37.3833,-1.9333,Spain,ES,ESP,Andalusia,Andalusia,ES-AN,"autonomous community",,64.2,20425,20425,3,Europe/Madrid,FALSE,1724061354
Requena,Requena,,39.4861,-1.1017,Spain,ES,ESP,Valencia,Valencia,ES-VC,"autonomous community",,25.0,20387,20387,3,Europe/Madrid,FALSE,1724453990
Lalín,Lalin,,42.6500,-8.1167,Spain,ES,ESP,Galicia,Galicia,ES-GA,"autonomous community",,62.1,20282,20282,3,Europe/Madrid,FALSE,1724795282
Rosas,Rosas,,42.2631,3.1831,Spain,ES,ESP,Catalonia,Catalonia,ES-CT,"autonomous community",,438.8,20140,20140,3,Europe/Madrid,FALSE,1724996343
Archena,Archena,,38.1150,-1.2992,Spain,ES,ESP,Murcia,Murcia,ES-MC,"autonomous community",,1226.2,20110,20110,3,Europe/Madrid,FALSE,1724744981
"Medina del Campo","Medina del Campo",,41.3000,-4.9167,Spain,ES,ESP,Castille-Leon,Castille-Leon,ES-CL,"autonomous community",,131.1,20090,20090,3,Europe/Madrid,FALSE,1724808879
Cabra,Cabra,,37.4718,-4.4336,Spain,ES,ESP,Andalusia,Andalusia,ES-AN,"autonomous community",,88.0,20070,20070,3,Europe/Madrid,FALSE,1724617911
Atarfe,Atarfe,,37.2229,-3.6899,Spain,ES,ESP,Andalusia,Andalusia,ES-AN,"autonomous community",,426.0,20024,20024,3,Europe/Madrid,FALSE,1724936353
Benicasim,Benicasim,Benicasin,40.0553,0.0642,Spain,ES,ESP,Valencia,Valencia,ES-VC,"autonomous community",,552.7,19951,19951,3,Europe/Madrid,FALSE,1724830248
"San Martín de la Vega","San Martin de la Vega",,40.2094,-3.5722,Spain,ES,ESP,Madrid,Madrid,ES-MD,"autonomous community",,211.1,19927,19927,3,Europe/Madrid,FALSE,1724328645
Tolosa,Tolosa,,43.1333,-2.0833,Spain,ES,ESP,"Basque Country","Basque Country",ES-PV,"autonomous community",,511.1,19886,19886,3,Europe/Madrid,FALSE,1724081737
Calella,Calella,Callella,41.6128,2.6575,Spain,ES,ESP,Catalonia,Catalonia,ES-CT,"autonomous community",,2482.7,19862,19862,2,Europe/Madrid,FALSE,1724567421
"Humanes de Madrid","Humanes de Madrid",,40.2539,-3.8278,Spain,ES,ESP,Madrid,Madrid,ES-MD,"autonomous community",,1116.9,19838,19838,3,Europe/Madrid,FALSE,1724764038
Silla,Silla,,39.3611,-0.4114,Spain,ES,ESP,Valencia,Valencia,ES-VC,"autonomous community",,787.3,19683,19683,3,Europe/Madrid,FALSE,1724349109
Calatayud,Calatayud,,41.3500,-1.6333,Spain,ES,ESP,Aragon,Aragon,ES-AR,"autonomous community",,127.6,19677,19677,3,Europe/Madrid,FALSE,1724454911
Chipiona,Chipiona,Chipiana,36.7333,-6.4333,Spain,ES,ESP,Andalusia,Andalusia,ES-AN,"autonomous community",,596.9,19649,19649,3,Europe/Madrid,FALSE,1724000060
Barañáin,Baranain,,42.8000,-1.6667,Spain,ES,ESP,Navarre,Navarre,ES-NC,"autonomous community",,12920.9,19575,19575,2,Europe/Madrid,FALSE,1724436657
Amorebieta,Amorebieta,Amorevieta|Amorebiela,43.2192,-2.7342,Spain,ES,ESP,"Basque Country","Basque Country",ES-PV,"autonomous community",,334.8,19570,19570,3,Europe/Madrid,FALSE,1724617538
"El Arahal","El Arahal",Arahal,37.2667,-5.5500,Spain,ES,ESP,Andalusia,Andalusia,ES-AN,"autonomous community",,96.9,19491,19491,3,Europe/Madrid,FALSE,1724678120
"Callosa de Segura","Callosa de Segura",,38.1225,-0.8797,Spain,ES,ESP,Valencia,Valencia,ES-VC,"autonomous community",,779.4,19484,19484,3,Europe/Madrid,FALSE,1724000256
Albolote,Albolote,,37.2306,-3.6569,Spain,ES,ESP,Andalusia,Andalusia,ES-AN,"autonomous community",,247.8,19474,19474,3,Europe/Madrid,FALSE,1724140876
Moaña,Moana,"San Martín",42.2833,-8.7500,Spain,ES,ESP,Galicia,Galicia,ES-GA,"autonomous community",,613.2,19315,19315,3,Europe/Madrid,FALSE,1724505635
Marchena,Marchena,,37.3333,-5.4167,Spain,ES,ESP,Andalusia,Andalusia,ES-AN,"autonomous community",,50.9,19271,19271,3,Europe/Madrid,FALSE,1724561354
"El Viso del Alcor","El Viso del Alcor","Viso del Alcor",37.3833,-5.7167,Spain,ES,ESP,Andalusia,Andalusia,ES-AN,"autonomous community",,944.4,19265,19265,3,Europe/Madrid,FALSE,1724881330
"Malgrat de Mar","Malgrat de Mar",Malgrat,41.6500,2.7500,Spain,ES,ESP,Catalonia,Catalonia,ES-CT,"autonomous community",,2183.3,19213,19213,2,Europe/Madrid,FALSE,1724653510
"La Corredoría","La Corredoria",,43.3853,-5.8208,Spain,ES,ESP,Asturias,Asturias,ES-AS,"autonomous community",,1217.0,19191,19191,3,Europe/Madrid,FALSE,1724680069
"La Eliana","La Eliana","La Eliana|L’Eliana",39.5661,-0.5281,Spain,ES,ESP,Valencia,Valencia,ES-VC,"autonomous community",,670.4,19054,19054,3,Europe/Madrid,FALSE,1724040123
Cardedeu,Cardedeu,,41.6406,2.3594,Spain,ES,ESP,Catalonia,Catalonia,ES-CT,"autonomous community",,1572.1,19023,19023,3,Europe/Madrid,FALSE,1724134455
Boiro,Boiro,,42.6500,-8.9000,Spain,ES,ESP,Galicia,Galicia,ES-GA,"autonomous community",,228.3,18976,18976,3,Europe/Madrid,FALSE,1724627314
"La Nucía","La Nucia",,38.6172,-0.1231,Spain,ES,ESP,Valencia,Valencia,ES-VC,"autonomous community",,888.1,18970,18970,3,Europe/Madrid,FALSE,1724405068
Utebo,Utebo,,41.7167,-1.0000,Spain,ES,ESP,Aragon,Aragon,ES-AR,"autonomous community",,1053.1,18955,18955,3,Europe/Madrid,FALSE,1724976095
Vera,Vera,,37.2500,-1.8667,Spain,ES,ESP,Andalusia,Andalusia,ES-AN,"autonomous community",,326.2,18919,18919,3,Europe/Madrid,FALSE,1724244978
Villaquilambre,Villaquilambre,,42.6167,-5.6000,Spain,ES,ESP,Castille-Leon,Castille-Leon,ES-CL,"autonomous community",,356.1,18765,18765,3,Europe/Madrid,FALSE,1724727940
Tarifa,Tarifa,,36.0140,-5.6060,Spain,ES,ESP,Andalusia,Andalusia,ES-AN,"autonomous community",,44.4,18621,18621,3,Europe/Madrid,FALSE,1724329319
"Los Alcázares","Los Alcazares",Alcázares,37.7436,-0.8497,Spain,ES,ESP,Murcia,Murcia,ES-MC,"autonomous community",,929.9,18598,18598,3,Europe/Madrid,FALSE,1724437898
Felanitx,Felanitx,,39.4669,3.1483,Spain,ES,ESP,"Balearic Islands","Balearic Islands",ES-IB,"autonomous community",,109.5,18592,18592,3,Europe/Madrid,FALSE,1724767579
Baena,Baena,,37.6167,-4.3167,Spain,ES,ESP,Andalusia,Andalusia,ES-AN,"autonomous community",,51.1,18533,18533,3,Europe/Madrid,FALSE,1724279990
Guadix,Guadix,Quadix,37.3000,-3.1333,Spain,ES,ESP,Andalusia,Andalusia,ES-AN,"autonomous community",,58.4,18527,18527,3,Europe/Madrid,FALSE,1724022918
"Huércal de Almería","Huercal de Almeria",,36.8833,-2.4333,Spain,ES,ESP,Andalusia,Andalusia,ES-AN,"autonomous community",,881.3,18507,18507,3,Europe/Madrid,FALSE,1724495259
"San Lorenzo de El Escorial","San Lorenzo de El Escorial","San Lorenzo|San Lorenzo del Escorial|El Escorial",40.5936,-4.1428,Spain,ES,ESP,Madrid,Madrid,ES-MD,"autonomous community",,327.8,18489,18489,3,Europe/Madrid,FALSE,1724204190
"San Celoni","San Celoni",,41.6900,2.4900,Spain,ES,ESP,Catalonia,Catalonia,ES-CT,"autonomous community",,283.4,18479,18479,3,Europe/Madrid,FALSE,1724968176
"Lora del Río","Lora del Rio",,37.6500,-5.5167,Spain,ES,ESP,Andalusia,Andalusia,ES-AN,"autonomous community",,62.7,18316,18316,3,Europe/Madrid,FALSE,1724052917
Tárrega,Tarrega,,41.6469,1.1392,Spain,ES,ESP,Catalonia,Catalonia,ES-CT,"autonomous community",,206.7,18268,18268,3,Europe/Madrid,FALSE,1724893355
"Monforte de Lemos","Monforte de Lemos","Monforte del Lemos|Monforte",42.5164,-7.5161,Spain,ES,ESP,Galicia,Galicia,ES-GA,"autonomous community",,95.4,18242,18081,3,Europe/Madrid,FALSE,1724233223
"El Astillero","El Astillero",Astillero,43.4017,-3.8194,Spain,ES,ESP,Cantabria,Cantabria,ES-CB,"autonomous community",,2846.9,18220,18220,2,Europe/Madrid,FALSE,1724056681
Palamós,Palamos,,41.8500,3.1292,Spain,ES,ESP,Catalonia,Catalonia,ES-CT,"autonomous community",,1573.9,18196,18145,3,Europe/Madrid,FALSE,1724685553
"Caldas de Montbuy","Caldas de Montbuy","Caldes de Montbuy|Caldas de Monbui|Caldas de Mombúy",41.6292,2.1694,Spain,ES,ESP,Catalonia,Catalonia,ES-CT,"autonomous community",,482.9,18109,18109,3,Europe/Madrid,FALSE,1724624522
"Fuente-Álamo de Murcia","Fuente-Alamo de Murcia",,37.7394,-1.1881,Spain,ES,ESP,Murcia,Murcia,ES-MC,"autonomous community",,457.8,18063,18063,3,Europe/Madrid,FALSE,1724036059
Nigrán,Nigran,"San Félix",42.1419,-8.8056,Spain,ES,ESP,Galicia,Galicia,ES-GA,"autonomous community",,517.0,18045,18045,3,Europe/Madrid,FALSE,1724832311
Tordera,Tordera,,41.7008,2.7200,Spain,ES,ESP,Catalonia,Catalonia,ES-CT,"autonomous community",,226.1,18022,18022,3,Europe/Madrid,FALSE,1724310728
Munguía,Munguia,,43.3547,-2.8472,Spain,ES,ESP,"Basque Country","Basque Country",ES-PV,"autonomous community",,343.1,17882,17882,3,Europe/Madrid,FALSE,1724541767
Manilva,Manilva,,36.3833,-5.2500,Spain,ES,ESP,Andalusia,Andalusia,ES-AN,"autonomous community",,510.2,17857,17857,3,Europe/Madrid,FALSE,1724772448
Sangenjo,Sangenjo,Sanjenjo,42.4017,-8.8067,Spain,ES,ESP,Galicia,Galicia,ES-GA,"autonomous community",,405.8,17854,17854,3,Europe/Madrid,FALSE,1724000040
Manzanares,Manzanares,,38.9964,-3.3731,Spain,ES,ESP,"Castille-La Mancha","Castille-La Mancha",ES-CM,"autonomous community",,0.4,17732,17732,3,Europe/Madrid,FALSE,1724101525
Torredembarra,Torredembarra,Torredembara,41.1500,1.4000,Spain,ES,ESP,Catalonia,Catalonia,ES-CT,"autonomous community",,2031.0,17670,17670,2,Europe/Madrid,FALSE,1724533049
Monzón,Monzon,,41.9100,0.1900,Spain,ES,ESP,Aragon,Aragon,ES-AR,"autonomous community",,119.8,17650,17650,3,Europe/Madrid,FALSE,1724852393
Balaguer,Balaguer,,41.7900,0.8050,Spain,ES,ESP,Catalonia,Catalonia,ES-CT,"autonomous community",,308.0,17649,17649,3,Europe/Madrid,FALSE,1724316561
Daimiel,Daimiel,,39.0833,-3.6167,Spain,ES,ESP,"Castille-La Mancha","Castille-La Mancha",ES-CM,"autonomous community",,40.2,17629,17629,3,Europe/Madrid,FALSE,1724840629
Rojales,Rojales,,38.0833,-0.7167,Spain,ES,ESP,Valencia,Valencia,ES-VC,"autonomous community",,633.2,17451,17451,3,Europe/Madrid,FALSE,1724468567
"Tabernes de Valldigna","Tabernes de Valldigna",Tabernas,39.0722,-0.2658,Spain,ES,ESP,Valencia,Valencia,ES-VC,"autonomous community",,354.5,17443,17443,3,Europe/Madrid,FALSE,1724331053
Osuna,Osuna,,37.2333,-5.1000,Spain,ES,ESP,Andalusia,Andalusia,ES-AN,"autonomous community",,29.4,17418,17418,3,Europe/Madrid,FALSE,1724498340
"Villanueva del Pardillo","Villanueva del Pardillo",,40.4833,-3.9667,Spain,ES,ESP,Madrid,Madrid,ES-MD,"autonomous community",,747.5,17382,17382,3,Europe/Madrid,FALSE,1724000236
Mula,Mula,,38.0419,-1.4906,Spain,ES,ESP,Murcia,Murcia,ES-MC,"autonomous community",,27.4,17382,17382,3,Europe/Madrid,FALSE,1724000713
Lumbreras,Lumbreras,"Puerto Lumbreras",37.5633,-1.8072,Spain,ES,ESP,Murcia,Murcia,ES-MC,"autonomous community",,51.3,17346,17346,3,Europe/Madrid,FALSE,1724380246
"Guardamar del Segura","Guardamar del Segura",Guardamar,38.0897,-0.6550,Spain,ES,ESP,Valencia,Valencia,ES-VC,"autonomous community",,487.0,17328,17328,3,Europe/Madrid,FALSE,1724960242
Poyo,Poyo,"San Salvador",42.4333,-8.6667,Spain,ES,ESP,Galicia,Galicia,ES-GA,"autonomous community",,506.4,17297,17297,3,Europe/Madrid,FALSE,1724049171
Barbastro,Barbastro,,42.0361,0.1264,Spain,ES,ESP,Aragon,Aragon,ES-AR,"autonomous community",,160.7,17295,17295,3,Europe/Madrid,FALSE,1724545797
Pollensa,Pollensa,,39.8772,3.0164,Spain,ES,ESP,"Balearic Islands","Balearic Islands",ES-IB,"autonomous community",,113.9,17279,17279,3,Europe/Madrid,FALSE,1724052318
Benavente,Benavente,,42.0031,-5.6742,Spain,ES,ESP,Castille-Leon,Castille-Leon,ES-CL,"autonomous community",,382.6,17261,17261,3,Europe/Madrid,FALSE,1724254951
Bailén,Bailen,,38.0833,-3.7667,Spain,ES,ESP,Andalusia,Andalusia,ES-AN,"autonomous community",,146.4,17211,17211,3,Europe/Madrid,FALSE,1724854020
Piera,Piera,,41.5222,1.7494,Spain,ES,ESP,Catalonia,Catalonia,ES-CT,"autonomous community",,300.8,17203,17203,3,Europe/Madrid,FALSE,1724184364
"Castilleja de la Cuesta","Castilleja de la Cuesta",Castilleja,37.3833,-6.0500,Spain,ES,ESP,Andalusia,Andalusia,ES-AN,"autonomous community",,8583.5,17167,17167,2,Europe/Madrid,FALSE,1724430426
"Ejea de los Caballeros","Ejea de los Caballeros","Egea de los Caballeros",42.1292,-1.1372,Spain,ES,ESP,Aragon,Aragon,ES-AR,"autonomous community",,31.3,17124,17124,3,Europe/Madrid,FALSE,1724015222
Guadarrama,Guadarrama,Guadarram,40.6728,-4.0889,Spain,ES,ESP,Madrid,Madrid,ES-MD,"autonomous community",,299.5,17063,17063,3,Europe/Madrid,FALSE,1724067759
"La Garriga","La Garriga",Garriga,41.6833,2.2833,Spain,ES,ESP,Catalonia,Catalonia,ES-CT,"autonomous community",,907.0,17052,17052,3,Europe/Madrid,FALSE,1724918427
Canovellas,Canovellas,,41.6203,2.2847,Spain,ES,ESP,Catalonia,Catalonia,ES-CT,"autonomous community",,2544.9,17051,17051,2,Europe/Madrid,FALSE,1724734999
"Guernica y Luno","Guernica y Luno",Guernica,43.3167,-2.6667,Spain,ES,ESP,"Basque Country","Basque Country",ES-PV,"autonomous community",,1982.6,17050,17050,3,Europe/Madrid,FALSE,1724279131
Albal,Albal,,39.3972,-0.4156,Spain,ES,ESP,Valencia,Valencia,ES-VC,"autonomous community",,2309.9,17024,17024,2,Europe/Madrid,FALSE,1724860489
Berga,Berga,,42.1011,1.8439,Spain,ES,ESP,Catalonia,Catalonia,ES-CT,"autonomous community",,750.4,16959,16959,3,Europe/Madrid,FALSE,1724869982
Pozoblanco,Pozoblanco,,38.3833,-4.8500,Spain,ES,ESP,Andalusia,Andalusia,ES-AN,"autonomous community",,51.4,16946,16946,3,Europe/Madrid,FALSE,1724804150
Cubellas,Cubellas,Cubelles|Cubella,41.2100,1.6736,Spain,ES,ESP,Catalonia,Catalonia,ES-CT,"autonomous community",,1252.9,16914,16914,3,Europe/Madrid,FALSE,1724725097
"Navalmoral de la Mata","Navalmoral de la Mata","Navalmoral de la Mota|Navalmoral",39.8983,-5.5403,Spain,ES,ESP,Extremadura,Extremadura,ES-EX,"autonomous community",,108.3,16895,16895,3,Europe/Madrid,FALSE,1724575983
Bermeo,Bermeo,,43.4200,-2.7264,Spain,ES,ESP,"Basque Country","Basque Country",ES-PV,"autonomous community",,494.7,16878,16878,3,Europe/Madrid,FALSE,1724977150
Sada,Sada,,43.3500,-8.2500,Spain,ES,ESP,Galicia,Galicia,ES-GA,"autonomous community",,609.6,16874,16874,3,Europe/Madrid,FALSE,1724976865
"Montornés del Vallés","Montornes del Valles",,41.5333,2.2667,Spain,ES,ESP,Catalonia,Catalonia,ES-CT,"autonomous community",,1647.1,16800,16800,3,Europe/Madrid,FALSE,1724726528
Masamagrell,Masamagrell,Masamgrell,39.5703,-0.3300,Spain,ES,ESP,Valencia,Valencia,ES-VC,"autonomous community",,2704.2,16766,16766,2,Europe/Madrid,FALSE,1724682871
Chiva,Chiva,,39.4714,-0.7197,Spain,ES,ESP,Valencia,Valencia,ES-VC,"autonomous community",,93.7,16750,16750,3,Europe/Madrid,FALSE,1724224613
Zafra,Zafra,,38.4167,-6.4167,Spain,ES,ESP,Extremadura,Extremadura,ES-EX,"autonomous community",,266.3,16672,16672,3,Europe/Madrid,FALSE,1724035487
"El Escorial","El Escorial",Escorial,40.5817,-4.1258,Spain,ES,ESP,Madrid,Madrid,ES-MD,"autonomous community",,252.6,16618,16618,3,Europe/Madrid,FALSE,1724408477
"La Algaba","La Algaba",Algaba,37.4500,-6.0000,Spain,ES,ESP,Andalusia,Andalusia,ES-AN,"autonomous community",,923.2,16618,16618,3,Europe/Madrid,FALSE,1724135955
Espartinas,Espartinas,,37.3833,-6.1167,Spain,ES,ESP,Andalusia,Andalusia,ES-AN,"autonomous community",,717.6,16505,16505,3,Europe/Madrid,FALSE,1724191526
"Churriana de la Vega","Churriana de la Vega",Churriana,37.1500,-3.6500,Spain,ES,ESP,Andalusia,Andalusia,ES-AN,"autonomous community",,2349.3,16445,16445,2,Europe/Madrid,FALSE,1724576958
"Las Cabezas de San Juan","Las Cabezas de San Juan","Las Cabezas San Juan",36.9817,-5.9406,Spain,ES,ESP,Andalusia,Andalusia,ES-AN,"autonomous community",,71.4,16400,16400,3,Europe/Madrid,FALSE,1724899014
Ubrique,Ubrique,,36.6833,-5.4500,Spain,ES,ESP,Andalusia,Andalusia,ES-AN,"autonomous community",,230.5,16363,16363,3,Europe/Madrid,FALSE,1724430804
"Arenys de Mar","Arenys de Mar",,41.5819,2.5503,Spain,ES,ESP,Catalonia,Catalonia,ES-CT,"autonomous community",,2403.2,16342,16342,2,Europe/Madrid,FALSE,1724290074
Santomera,Santomera,,38.0617,-1.0492,Spain,ES,ESP,Murcia,Murcia,ES-MC,"autonomous community",,369.2,16245,16245,3,Europe/Madrid,FALSE,1724892618
Aguadulce,Aguadulce,"Barriada de Aguadulce",36.7642,-2.6147,Spain,ES,ESP,Andalusia,Andalusia,ES-AN,"autonomous community",,1828.9,16176,16176,3,Europe/Madrid,FALSE,1724436788
Alcañiz,Alcaniz,,41.0511,-0.1336,Spain,ES,ESP,Aragon,Aragon,ES-AR,"autonomous community",,34.2,16151,16151,3,Europe/Madrid,FALSE,1724184358
Carlet,Carlet,,39.2264,-0.5211,Spain,ES,ESP,Valencia,Valencia,ES-VC,"autonomous community",,354.0,16141,16141,3,Europe/Madrid,FALSE,1724149530
"Punta Umbría","Punta Umbria",,37.1667,-6.9500,Spain,ES,ESP,Andalusia,Andalusia,ES-AN,"autonomous community",,422.9,16069,16069,3,Europe/Madrid,FALSE,1724226508
Tuineje,Tuineje,,28.3250,-14.0486,Spain,ES,ESP,"Canary Islands","Canary Islands",ES-CN,"autonomous community",,57.9,15967,15967,3,Atlantic/Canary,FALSE,1724388694
Benetúser,Benetuser,,39.4250,-0.3961,Spain,ES,ESP,Valencia,Valencia,ES-VC,"autonomous community",,16395.8,15879,15879,2,Europe/Madrid,FALSE,1724800602
Villalbilla,Villalbilla,,40.4339,-3.2989,Spain,ES,ESP,Madrid,Madrid,ES-MD,"autonomous community",,365.0,15866,15866,3,Europe/Madrid,FALSE,1724385460
Vallirana,Vallirana,,41.3878,1.9322,Spain,ES,ESP,Catalonia,Catalonia,ES-CT,"autonomous community",,662.1,15823,15823,3,Europe/Madrid,FALSE,1724988283
Tarancón,Tarancon,,40.0167,-3.0000,Spain,ES,ESP,"Castille-La Mancha","Castille-La Mancha",ES-CM,"autonomous community",,155.5,15799,15799,3,Europe/Madrid,FALSE,1724475180
Miguelturra,Miguelturra,,38.9667,-3.9500,Spain,ES,ESP,"Castille-La Mancha","Castille-La Mancha",ES-CM,"autonomous community",,133.2,15769,15769,3,Europe/Madrid,FALSE,1724947836
Baeza,Baeza,,37.9833,-3.4667,Spain,ES,ESP,Andalusia,Andalusia,ES-AN,"autonomous community",,81.0,15723,15723,3,Europe/Madrid,FALSE,1724128455
Ermúa,Ermua,,43.1875,-2.5008,Spain,ES,ESP,"Basque Country","Basque Country",ES-PV,"autonomous community",,2528.2,15599,15599,2,Europe/Madrid,FALSE,1724922522
"La Roda","La Roda",,39.2070,-2.1604,Spain,ES,ESP,"Castille-La Mancha","Castille-La Mancha",ES-CM,"autonomous community",,44.6,15542,15542,3,Europe/Madrid,FALSE,1724000113
Montijo,Montijo,,38.9100,-6.6175,Spain,ES,ESP,Extremadura,Extremadura,ES-EX,"autonomous community",,143.7,15483,15427,3,Europe/Madrid,FALSE,1724772763
"Corbera de Llobregat","Corbera de Llobregat","Corbera Baja|Corbera|Corbera del Llobregat",41.4169,1.9314,Spain,ES,ESP,Catalonia,Catalonia,ES-CT,"autonomous community",,840.5,15466,15466,3,Europe/Madrid,FALSE,1724982789
"Santa Cruz de la Palma","Santa Cruz de la Palma",,28.6825,-17.7650,Spain,ES,ESP,"Canary Islands","Canary Islands",ES-CN,"autonomous community",,355.9,15441,15441,3,Atlantic/Canary,FALSE,1724730721
Meco,Meco,,40.5539,-3.3261,Spain,ES,ESP,Madrid,Madrid,ES-MD,"autonomous community",,439.2,15404,15404,3,Europe/Madrid,FALSE,1724484406
Fraga,Fraga,,41.5200,0.3500,Spain,ES,ESP,Aragon,Aragon,ES-AR,"autonomous community",,35.1,15373,15373,3,Europe/Madrid,FALSE,1724042587
"Santa Úrsula","Santa Ursula",,28.4250,-16.4917,Spain,ES,ESP,"Canary Islands","Canary Islands",ES-CN,"autonomous community",,676.6,15285,15285,3,Atlantic/Canary,FALSE,1724982663
Cunit,Cunit,,41.1983,1.6406,Spain,ES,ESP,Catalonia,Catalonia,ES-CT,"autonomous community",,1575.1,15278,15278,3,Europe/Madrid,FALSE,1724738474
"La Solana","La Solana",,38.6500,-3.0667,Spain,ES,ESP,"Castille-La Mancha","Castille-La Mancha",ES-CM,"autonomous community",,113.7,15242,15242,3,Europe/Madrid,FALSE,1724007812
Vieiro,Vieiro,"San Cipriano",43.6481,-7.5900,Spain,ES,ESP,Galicia,Galicia,ES-GA,"autonomous community",,139.3,15221,15221,3,Europe/Madrid,FALSE,1724508956
Arnedo,Arnedo,,42.2167,-2.1000,Spain,ES,ESP,"La Rioja","La Rioja",ES-RI,"autonomous community",,178.0,15201,15201,3,Europe/Madrid,FALSE,1724772767
Azpeitia,Azpeitia,,43.1819,-2.2653,Spain,ES,ESP,"Basque Country","Basque Country",ES-PV,"autonomous community",,218.8,15183,15183,3,Europe/Madrid,FALSE,1724450790
Gondomar,Gondomar,,42.1111,-8.7611,Spain,ES,ESP,Galicia,Galicia,ES-GA,"autonomous community",,201.9,15043,15043,3,Europe/Madrid,FALSE,1724301277
Mollerusa,Mollerusa,Morellusa,41.6319,0.8961,Spain,ES,ESP,Catalonia,Catalonia,ES-CT,"autonomous community",,2117.9,15037,15037,2,Europe/Madrid,FALSE,1724107781
"Cuevas del Almanzora","Cuevas del Almanzora","Cuevas de Vera|Cuevas de Almanzora",37.3000,-1.8667,Spain,ES,ESP,Andalusia,Andalusia,ES-AN,"autonomous community",,57.0,15023,15023,3,Europe/Madrid,FALSE,1724152622
"Canet de Mar","Canet de Mar",,41.5833,2.5833,Spain,ES,ESP,Catalonia,Catalonia,ES-CT,"autonomous community",,2680.4,15010,15010,2,Europe/Madrid,FALSE,1724398623
Alpedrete,Alpedrete,,40.6583,-4.0322,Spain,ES,ESP,Madrid,Madrid,ES-MD,"autonomous community",,1249.2,15006,15006,3,Europe/Madrid,FALSE,1724547365
Villaviciosa,Villaviciosa,,43.4833,-5.4333,Spain,ES,ESP,Asturias,Asturias,ES-AS,"autonomous community",,54.3,15000,15000,3,Europe/Madrid,FALSE,1724121275
Torelló,Torello,"San Feliu de Torelló",42.0495,2.2650,Spain,ES,ESP,Catalonia,Catalonia,ES-CT,"autonomous community",,1103.9,14902,14902,3,Europe/Madrid,FALSE,1724191754
Sopelana,Sopelana,,43.3814,-2.9792,Spain,ES,ESP,"Basque Country","Basque Country",ES-PV,"autonomous community",,1770.5,14872,14872,3,Europe/Madrid,FALSE,1724497959
Ogíjares,Ogijares,,37.1167,-3.6000,Spain,ES,ESP,Andalusia,Andalusia,ES-AN,"autonomous community",,2142.3,14803,14803,2,Europe/Madrid,FALSE,1724843693
"La Carolina","La Carolina",,38.2667,-3.6167,Spain,ES,ESP,Andalusia,Andalusia,ES-AN,"autonomous community",,73.6,14801,14801,3,Europe/Madrid,FALSE,1724252481
"Cuarte de Huerva","Cuarte de Huerva",,41.5833,-0.9167,Spain,ES,ESP,Aragon,Aragon,ES-AR,"autonomous community",,1643.2,14701,14701,3,Europe/Madrid,FALSE,1724381446
"Santa Marta de Tormes","Santa Marta de Tormes",,40.9494,-5.6325,Spain,ES,ESP,Castille-Leon,Castille-Leon,ES-CL,"autonomous community",,1563.3,14661,14661,3,Europe/Madrid,FALSE,1724596061
Andoain,Andoain,,43.2167,-2.0167,Spain,ES,ESP,"Basque Country","Basque Country",ES-PV,"autonomous community",,531.2,14555,14555,3,Europe/Madrid,FALSE,1724830496
Cehegín,Cehegin,,38.0925,-1.7989,Spain,ES,ESP,Murcia,Murcia,ES-MC,"autonomous community",,49.5,14485,14485,3,Europe/Madrid,FALSE,1724606574
Alginet,Alginet,,39.2625,-0.4683,Spain,ES,ESP,Valencia,Valencia,ES-VC,"autonomous community",,600.0,14442,14442,3,Europe/Madrid,FALSE,1724793089
"Bollullos par del Condado","Bollullos par del Condado",Bollullos,37.3358,-6.5364,Spain,ES,ESP,Andalusia,Andalusia,ES-AN,"autonomous community",,285.3,14263,14263,3,Europe/Madrid,FALSE,1724227724
"La Carlota","La Carlota",,37.6667,-4.9333,Spain,ES,ESP,Andalusia,Andalusia,ES-AN,"autonomous community",,180.5,14258,14258,3,Europe/Madrid,FALSE,1724972174
"Sanlúcar la Mayor","Sanlucar la Mayor",,37.3831,-6.2000,Spain,ES,ESP,Andalusia,Andalusia,ES-AN,"autonomous community",,104.7,14172,14172,3,Europe/Madrid,FALSE,1724032342
Noya,Noya,,42.7833,-8.8833,Spain,ES,ESP,Galicia,Galicia,ES-GA,"autonomous community",,379.4,14115,14115,3,Europe/Madrid,FALSE,1724537566
Pilas,Pilas,,37.3017,-6.2986,Spain,ES,ESP,Andalusia,Andalusia,ES-AN,"autonomous community",,305.9,14052,14052,3,Europe/Madrid,FALSE,1724984763
Beasain,Beasain,,43.0458,-2.1894,Spain,ES,ESP,"Basque Country","Basque Country",ES-PV,"autonomous community",,465.4,13970,13970,3,Europe/Madrid,FALSE,1724630898
Llanera,Llanera,"Santa Cruz",43.4667,-5.9333,Spain,ES,ESP,Asturias,Asturias,ES-AS,"autonomous community",,130.7,13948,13948,3,Europe/Madrid,FALSE,1724716854
Moralzarzal,Moralzarzal,,40.6750,-3.9694,Spain,ES,ESP,Madrid,Madrid,ES-MD,"autonomous community",,320.7,13905,13905,3,Europe/Madrid,FALSE,1724782308
Torrijos,Torrijos,Torrijas,39.9833,-4.2814,Spain,ES,ESP,"Castille-La Mancha","Castille-La Mancha",ES-CM,"autonomous community",,816.8,13885,13885,3,Europe/Madrid,FALSE,1724246544
"Torre del Campo","Torre del Campo","Torre del Compo",37.7667,-3.8833,Spain,ES,ESP,Andalusia,Andalusia,ES-AN,"autonomous community",,76.2,13871,13871,3,Europe/Madrid,FALSE,1724707407
Villalba,Villalba,,43.3000,-7.6833,Spain,ES,ESP,Galicia,Galicia,ES-GA,"autonomous community",,36.6,13870,13870,3,Europe/Madrid,FALSE,1724414757
Ocaña,Ocana,,39.9569,-3.4967,Spain,ES,ESP,"Castille-La Mancha","Castille-La Mancha",ES-CM,"autonomous community",,93.7,13868,13868,3,Europe/Madrid,FALSE,1724751955
Tomiño,Tomino,"Santa María",41.9833,-8.7167,Spain,ES,ESP,Galicia,Galicia,ES-GA,"autonomous community",,129.9,13836,13836,3,Europe/Madrid,FALSE,1724945871
Nules,Nules,,39.8525,-0.1506,Spain,ES,ESP,Valencia,Valencia,ES-VC,"autonomous community",,276.5,13827,13827,3,Europe/Madrid,FALSE,1724279489
"Santa Cruz de Bezana","Santa Cruz de Bezana",,43.4442,-3.9031,Spain,ES,ESP,Cantabria,Cantabria,ES-CB,"autonomous community",,795.9,13689,13689,3,Europe/Madrid,FALSE,1724616596
Cambados,Cambados,,42.5000,-8.8000,Spain,ES,ESP,Galicia,Galicia,ES-GA,"autonomous community",,582.7,13681,13681,3,Europe/Madrid,FALSE,1724551317
"San Agustín de Guadalix","San Agustin de Guadalix","San Agustín del Guadalix|San Agustín",40.6781,-3.6150,Spain,ES,ESP,Madrid,Madrid,ES-MD,"autonomous community",,356.4,13650,13650,3,Europe/Madrid,FALSE,1724232823
"Santa Coloma de Farnés","Santa Coloma de Farnes","Santa Colama de Farnés",41.8647,2.6642,Spain,ES,ESP,Catalonia,Catalonia,ES-CT,"autonomous community",,193.1,13634,13634,3,Europe/Madrid,FALSE,1724089787
Jaca,Jaca,,42.5500,-0.5500,Spain,ES,ESP,Aragon,Aragon,ES-AR,"autonomous community",,33.0,13620,13620,3,Europe/Madrid,FALSE,1724277088
Verín,Verin,,41.9408,-7.4358,Spain,ES,ESP,Galicia,Galicia,ES-GA,"autonomous community",,144.7,13612,13612,3,Europe/Madrid,FALSE,1724261912
Sóller,Soller,,39.7675,2.7140,Spain,ES,ESP,"Balearic Islands","Balearic Islands",ES-IB,"autonomous community",,318.0,13610,13610,3,Europe/Madrid,FALSE,1724439575
Llanes,Llanes,,43.4214,-4.7564,Spain,ES,ESP,Asturias,Asturias,ES-AS,"autonomous community",,51.3,13524,13524,3,Europe/Madrid,FALSE,1724106388
Antigua,Antigua,"La Antigua",28.4186,-14.0111,Spain,ES,ESP,"Canary Islands","Canary Islands",ES-CN,"autonomous community",,54.0,13523,13523,3,Atlantic/Canary,FALSE,1724978313
Gines,Gines,,37.3875,-6.0781,Spain,ES,ESP,Andalusia,Andalusia,ES-AN,"autonomous community",,4493.7,13481,13481,2,Europe/Madrid,FALSE,1724319564
Valdemorillo,Valdemorillo,,40.5017,-4.0667,Spain,ES,ESP,Madrid,Madrid,ES-MD,"autonomous community",,151.9,13453,13453,3,Europe/Madrid,FALSE,1724632141
Torredonjimeno,Torredonjimeno,Torredongimeno,37.7667,-3.9500,Spain,ES,ESP,Andalusia,Andalusia,ES-AN,"autonomous community",,84.7,13301,13301,3,Europe/Madrid,FALSE,1724172384
Aguilar,Aguilar,"Aguilar de la Frontera",37.5167,-4.6500,Spain,ES,ESP,Andalusia,Andalusia,ES-AN,"autonomous community",,79.8,13282,13282,3,Europe/Madrid,FALSE,1724391215
Guillena,Guillena,,37.5333,-6.0500,Spain,ES,ESP,Andalusia,Andalusia,ES-AN,"autonomous community",,59.4,13279,13279,3,Europe/Madrid,FALSE,1724767687
Sarria,Sarria,Sorria,42.7833,-7.4167,Spain,ES,ESP,Galicia,Galicia,ES-GA,"autonomous community",,14.5,13221,13221,3,Europe/Madrid,FALSE,1724423830
Muriedas,Muriedas,,43.4303,-3.8603,Spain,ES,ESP,Cantabria,Cantabria,ES-CB,"autonomous community",,927.2,13216,13216,3,Europe/Madrid,FALSE,1724481585
"La Llagosta","La Llagosta",,41.5156,2.1928,Spain,ES,ESP,Catalonia,Catalonia,ES-CT,"autonomous community",,4389.7,13169,13169,2,Europe/Madrid,FALSE,1724195852
Canals,Canals,"Canals de Cañolas",38.9611,-0.5850,Spain,ES,ESP,Valencia,Valencia,ES-VC,"autonomous community",,601.0,13162,13162,3,Europe/Madrid,FALSE,1724671799
"Santa Margarita","Santa Margarita",,39.7033,3.1036,Spain,ES,ESP,"Balearic Islands","Balearic Islands",ES-IB,"autonomous community",,152.1,13160,13160,3,Europe/Madrid,FALSE,1724447564
Alovera,Alovera,,40.5967,-3.2481,Spain,ES,ESP,"Castille-La Mancha","Castille-La Mancha",ES-CM,"autonomous community",,893.48,13142,13142,3,Europe/Madrid,FALSE,1724090496
Albatera,Albatera,,38.1786,-0.8681,Spain,ES,ESP,Valencia,Valencia,ES-VC,"autonomous community",,197.4,13092,13092,3,Europe/Madrid,FALSE,1724280918
Betanzos,Betanzos,,43.2792,-8.2106,Spain,ES,ESP,Galicia,Galicia,ES-GA,"autonomous community",,540.8,13082,13082,3,Europe/Madrid,FALSE,1724011741
Godella,Godella,,39.5200,-0.4114,Spain,ES,ESP,Valencia,Valencia,ES-VC,"autonomous community",,1782.4,13050,13050,3,Europe/Madrid,FALSE,1724346773
Abarán,Abaran,Albaran,38.2031,-1.4003,Spain,ES,ESP,Murcia,Murcia,ES-MC,"autonomous community",,112.7,12964,12964,3,Europe/Madrid,FALSE,1724553721
"Campo de Criptana","Campo de Criptana",,39.4000,-3.1167,Spain,ES,ESP,"Castille-La Mancha","Castille-La Mancha",ES-CM,"autonomous community",,42.9,12960,12960,3,Europe/Madrid,FALSE,1724221240
"Sant Sadurní d’Anoia","Sant Sadurni d'Anoia",,41.4261,1.7850,Spain,ES,ESP,Catalonia,Catalonia,ES-CT,"autonomous community",,681.3,12945,12945,3,Europe/Madrid,FALSE,1724266131
Gibraleón,Gibraleon,,37.3753,-6.9694,Spain,ES,ESP,Andalusia,Andalusia,ES-AN,"autonomous community",,39.5,12940,12940,3,Europe/Madrid,FALSE,1724585426
Berja,Berja,,36.8453,-2.9469,Spain,ES,ESP,Andalusia,Andalusia,ES-AN,"autonomous community",,59.3,12917,12917,3,Europe/Madrid,FALSE,1724229322
"Vejer de la Frontera","Vejer de la Frontera",,36.2500,-5.9667,Spain,ES,ESP,Andalusia,Andalusia,ES-AN,"autonomous community",,53.8,12864,12864,3,Europe/Madrid,FALSE,1724776060
Abrera,Abrera,,41.5167,1.9000,Spain,ES,ESP,Catalonia,Catalonia,ES-CT,"autonomous community",,645.6,12848,12848,3,Europe/Madrid,FALSE,1724786014
Argentona,Argentona,,41.5500,2.4000,Spain,ES,ESP,Catalonia,Catalonia,ES-CT,"autonomous community",,505.7,12846,12846,3,Europe/Madrid,FALSE,1724175024
Castellbisbal,Castellbisbal,Castelbispal|Castellbispal,41.4760,1.9830,Spain,ES,ESP,Catalonia,Catalonia,ES-CT,"autonomous community",,413.3,12813,12813,3,Europe/Madrid,FALSE,1724327677
Brenes,Brenes,,37.5500,-5.8667,Spain,ES,ESP,Andalusia,Andalusia,ES-AN,"autonomous community",,582.0,12804,12804,3,Europe/Madrid,FALSE,1724993123
Teror,Teror,,28.0589,-15.5475,Spain,ES,ESP,"Canary Islands","Canary Islands",ES-CN,"autonomous community",,498.0,12799,12799,3,Atlantic/Canary,FALSE,1724300080
"Velilla de San Antonio","Velilla de San Antonio",,40.3667,-3.4833,Spain,ES,ESP,Madrid,Madrid,ES-MD,"autonomous community",,1101.6,12770,12770,3,Europe/Madrid,FALSE,1724060021
"Vilanova del Camí","Vilanova del Cami",,41.5667,1.6333,Spain,ES,ESP,Catalonia,Catalonia,ES-CT,"autonomous community",,1567.0,12736,12699,3,Europe/Madrid,FALSE,1724654906
Ceuti,Ceuti,,38.0789,-1.2722,Spain,ES,ESP,Murcia,Murcia,ES-MC,"autonomous community",,1242.0,12668,12668,3,Europe/Madrid,FALSE,1724039482
"Valverde del Camino","Valverde del Camino",,37.5667,-6.7500,Spain,ES,ESP,Andalusia,Andalusia,ES-AN,"autonomous community",,57.9,12655,12655,3,Europe/Madrid,FALSE,1724355645
Salobreña,Salobrena,,36.7467,-3.5869,Spain,ES,ESP,Andalusia,Andalusia,ES-AN,"autonomous community",,359.8,12562,12562,3,Europe/Madrid,FALSE,1724046465
Fene,Fene,"San Salvador",43.4667,-8.1667,Spain,ES,ESP,Galicia,Galicia,ES-GA,"autonomous community",,477.8,12561,12561,3,Europe/Madrid,FALSE,1724145974
Monóvar,Monovar,,38.4369,-0.8381,Spain,ES,ESP,Valencia,Valencia,ES-VC,"autonomous community",,82.5,12542,12542,3,Europe/Madrid,FALSE,1724870019
"Palos de la Frontera","Palos de la Frontera",,37.2278,-6.8932,Spain,ES,ESP,Andalusia,Andalusia,ES-AN,"autonomous community",,254.3,12537,12537,3,Europe/Madrid,FALSE,1724003384
Teulada,Teulada,,38.7292,0.1019,Spain,ES,ESP,Valencia,Valencia,ES-VC,"autonomous community",,388.2,12515,12515,3,Europe/Madrid,FALSE,1724756789
Santañy,Santany,,39.3542,3.1283,Spain,ES,ESP,"Balearic Islands","Balearic Islands",ES-IB,"autonomous community",,100.3,12480,12480,3,Europe/Madrid,FALSE,1724113241
Mongat,Mongat,Montgat,41.4690,2.2805,Spain,ES,ESP,Catalonia,Catalonia,ES-CT,"autonomous community",,4297.2,12462,12462,2,Europe/Madrid,FALSE,1724914506
Bayona,Bayona,,42.1178,-8.8506,Spain,ES,ESP,Galicia,Galicia,ES-GA,"autonomous community",,351.0,12407,12407,3,Europe/Madrid,FALSE,1724188693
Estepa,Estepa,,37.2917,-4.8792,Spain,ES,ESP,Andalusia,Andalusia,ES-AN,"autonomous community",,61.1,12373,12373,3,Europe/Madrid,FALSE,1724708314
"Villafranca de los Barros","Villafranca de los Barros",,38.5667,-6.3333,Spain,ES,ESP,Extremadura,Extremadura,ES-EX,"autonomous community",,118.9,12366,12366,3,Europe/Madrid,FALSE,1724272394
"Torroella de Montgrí","Torroella de Montgri","Torroella de Mongri|Torroella",42.0439,3.1286,Spain,ES,ESP,Catalonia,Catalonia,ES-CT,"autonomous community",,187.5,12356,12356,3,Europe/Madrid,FALSE,1724010202
"Pola de Laviana","Pola de Laviana","Pola de Labiana|Laviana|Labiana",43.2358,-5.5563,Spain,ES,ESP,Asturias,Asturias,ES-AS,"autonomous community",,94.3,12355,12355,3,Europe/Madrid,FALSE,1724362497
Capdepera,Capdepera,Capdapera,39.7000,3.4167,Spain,ES,ESP,"Balearic Islands","Balearic Islands",ES-IB,"autonomous community",,224.7,12340,12340,3,Europe/Madrid,FALSE,1724014685
"Acalá del Río","Acala del Rio",Alcalá,37.5167,-5.9667,Spain,ES,ESP,Andalusia,Andalusia,ES-AN,"autonomous community",,148.0,12288,12288,3,Europe/Madrid,FALSE,1724367182
Benisa,Benisa,,38.7145,0.0527,Spain,ES,ESP,Valencia,Valencia,ES-VC,"autonomous community",,176.1,12279,12279,3,Europe/Madrid,FALSE,1724749904
Béjar,Bejar,,40.3833,-5.7667,Spain,ES,ESP,Castille-Leon,Castille-Leon,ES-CL,"autonomous community",,318.2,12269,12099,3,Europe/Madrid,FALSE,1724324799
Villamartín,Villamartin,,36.8667,-5.6500,Spain,ES,ESP,Andalusia,Andalusia,ES-AN,"autonomous community",,57.9,12165,12165,3,Europe/Madrid,FALSE,1724057832
"Huétor Vega","Huetor Vega",,37.1500,-3.5667,Spain,ES,ESP,Andalusia,Andalusia,ES-AN,"autonomous community",,2867.7,12159,12159,2,Europe/Madrid,FALSE,1724497090
Socuéllamos,Socuellamos,,39.2933,-2.7942,Spain,ES,ESP,"Castille-La Mancha","Castille-La Mancha",ES-CM,"autonomous community",,32.4,12123,12123,3,Europe/Madrid,FALSE,1724254841
Albox,Albox,,37.3833,-2.1333,Spain,ES,ESP,Andalusia,Andalusia,ES-AN,"autonomous community",,80.7,12087,12087,3,Europe/Madrid,FALSE,1724868693
Ciudad-Rodrigo,Ciudad-Rodrigo,Siudad-Rodrigo,40.5969,-6.5392,Spain,ES,ESP,Castille-Leon,Castille-Leon,ES-CL,"autonomous community",,57.5,12065,11973,3,Europe/Madrid,FALSE,1724479453
Fuensalida,Fuensalida,,40.0500,-4.2000,Spain,ES,ESP,"Castille-La Mancha","Castille-La Mancha",ES-CM,"autonomous community",,207.8,12004,12004,3,Europe/Madrid,FALSE,1724253725
"Bolaños de Calatrava","Bolanos de Calatrava",Bolaños,38.8831,-3.7167,Spain,ES,ESP,"Castille-La Mancha","Castille-La Mancha",ES-CM,"autonomous community",,136.4,11991,11991,3,Europe/Madrid,FALSE,1724659404
Benifayó,Benifayo,,39.2847,-0.4281,Spain,ES,ESP,Valencia,Valencia,ES-VC,"autonomous community",,596.2,11984,11984,3,Europe/Madrid,FALSE,1724017102
"Santiago del Teide","Santiago del Teide","Santiago|Santiago del Teyde",28.2972,-16.8139,Spain,ES,ESP,"Canary Islands","Canary Islands",ES-CN,"autonomous community",,229.3,11972,11972,3,Atlantic/Canary,FALSE,1724546976
Arrigorriaga,Arrigorriaga,Arrigunaga,43.2078,-2.8861,Spain,ES,ESP,"Basque Country","Basque Country",ES-PV,"autonomous community",,730.7,11954,11954,3,Europe/Madrid,FALSE,1724012334
Bueu,Bueu,Buen,42.3167,-8.7833,Spain,ES,ESP,Galicia,Galicia,ES-GA,"autonomous community",,387.0,11922,11922,3,Europe/Madrid,FALSE,1724614511
Benaguacil,Benaguacil,,39.5933,-0.5864,Spain,ES,ESP,Valencia,Valencia,ES-VC,"autonomous community",,467.6,11877,11877,3,Europe/Madrid,FALSE,1724868425
"La Puebla del Río","La Puebla del Rio","Puebla del Río",37.2667,-6.0500,Spain,ES,ESP,Andalusia,Andalusia,ES-AN,"autonomous community",,31.5,11862,11862,3,Europe/Madrid,FALSE,1724618051
"Son Servera","Son Servera",,39.6208,3.3600,Spain,ES,ESP,"Balearic Islands","Balearic Islands",ES-IB,"autonomous community",,354.2,11835,11752,3,Europe/Madrid,FALSE,1724006232
Andraitx,Andraitx,,39.5833,2.4167,Spain,ES,ESP,"Balearic Islands","Balearic Islands",ES-IB,"autonomous community",,145.3,11833,11833,3,Europe/Madrid,FALSE,1724876017
"San Andrés de Llevaneras","San Andres de Llevaneras","San Andrés|San Andres de Llevaneres|San Andrés de Llavaneras",41.5733,2.4828,Spain,ES,ESP,Catalonia,Catalonia,ES-CT,"autonomous community",,1002.6,11831,11831,3,Europe/Madrid,FALSE,1724176719
Olivenza,Olivenza,,38.6858,-7.1008,Spain,ES,ESP,Extremadura,Extremadura,ES-EX,"autonomous community",,27.4,11776,11776,3,Europe/Madrid,FALSE,1724189870
"Campos del Puerto","Campos del Puerto","Campos|Puerto de Campos",39.4306,3.0194,Spain,ES,ESP,"Balearic Islands","Balearic Islands",ES-IB,"autonomous community",,78.6,11763,11763,3,Europe/Madrid,FALSE,1724079497
Picaña,Picana,,39.4361,-0.4350,Spain,ES,ESP,Valencia,Valencia,ES-VC,"autonomous community",,1656.3,11760,11760,3,Europe/Madrid,FALSE,1724147430
"Medina Sidonia","Medina Sidonia",,36.4667,-5.9167,Spain,ES,ESP,Andalusia,Andalusia,ES-AN,"autonomous community",,23.8,11738,11738,3,Europe/Madrid,FALSE,1724265557
Pallejá,Palleja,,41.4242,1.9978,Spain,ES,ESP,Catalonia,Catalonia,ES-CT,"autonomous community",,1414.0,11736,11736,3,Europe/Madrid,FALSE,1724638711
Peligros,Peligros,,37.2333,-3.6333,Spain,ES,ESP,Andalusia,Andalusia,ES-AN,"autonomous community",,1297.3,11676,11676,3,Europe/Madrid,FALSE,1724473390
Bullas,Bullas,,38.0497,-1.6706,Spain,ES,ESP,Murcia,Murcia,ES-MC,"autonomous community",,141.9,11664,11664,3,Europe/Madrid,FALSE,1724151285
Azcoitia,Azcoitia,,43.1792,-2.3106,Spain,ES,ESP,"Basque Country","Basque Country",ES-PV,"autonomous community",,210.0,11636,11636,3,Europe/Madrid,FALSE,1724640950
Utiel,Utiel,,39.5672,-1.2067,Spain,ES,ESP,Valencia,Valencia,ES-VC,"autonomous community",,49.1,11632,11632,3,Europe/Madrid,FALSE,1724584294
"Castelló de Ampurias","Castello de Ampurias","Castelló|Castellón de Ampurias",42.2583,3.0750,Spain,ES,ESP,Catalonia,Catalonia,ES-CT,"autonomous community",,351.5,11611,11611,3,Europe/Madrid,FALSE,1724127097
"Cangas de Narcea","Cangas de Narcea","Cangas de Tineo|Cangas",43.1714,-6.5389,Spain,ES,ESP,Asturias,Asturias,ES-AS,"autonomous community",,14.1,11596,11596,3,Europe/Madrid,FALSE,1724285161
Oñate,Onate,,43.0333,-2.4167,Spain,ES,ESP,"Basque Country","Basque Country",ES-PV,"autonomous community",,106.9,11567,11567,3,Europe/Madrid,FALSE,1724579376
Beniel,Beniel,,38.0464,-1.0014,Spain,ES,ESP,Murcia,Murcia,ES-MC,"autonomous community",,1150.1,11501,11501,3,Europe/Madrid,FALSE,1724289918
Elgóibar,Elgoibar,,43.2142,-2.4169,Spain,ES,ESP,"Basque Country","Basque Country",ES-PV,"autonomous community",,294.0,11500,11500,3,Europe/Madrid,FALSE,1724034254
Cocentaina,Cocentaina,,38.7450,-0.4406,Spain,ES,ESP,Valencia,Valencia,ES-VC,"autonomous community",,266.7,11451,11298,3,Europe/Madrid,FALSE,1724102234
Jódar,Jodar,,37.8333,-3.3500,Spain,ES,ESP,Andalusia,Andalusia,ES-AN,"autonomous community",,77.0,11449,11449,3,Europe/Madrid,FALSE,1724042149
"Mancha Real","Mancha Real",,37.7864,-3.6125,Spain,ES,ESP,Andalusia,Andalusia,ES-AN,"autonomous community",,117.3,11375,11375,3,Europe/Madrid,FALSE,1724902974
Castalla,Castalla,,38.5967,-0.6708,Spain,ES,ESP,Valencia,Valencia,ES-VC,"autonomous community",,99.2,11365,11365,3,Europe/Madrid,FALSE,1724005276
Tegueste,Tegueste,,28.5167,-16.3333,Spain,ES,ESP,"Canary Islands","Canary Islands",ES-CN,"autonomous community",,429.5,11344,11344,3,Atlantic/Canary,FALSE,1724441974
Lardero,Lardero,,42.4333,-2.4667,Spain,ES,ESP,"La Rioja","La Rioja",ES-RI,"autonomous community",,566.0,11321,11321,3,Europe/Madrid,FALSE,1724575965
Pulpí,Pulpi,,37.4019,-1.7508,Spain,ES,ESP,Andalusia,Andalusia,ES-AN,"autonomous community",,117.2,11247,11247,3,Europe/Madrid,FALSE,1724725882
Beniaján,Beniajan,,37.9833,-1.0667,Spain,ES,ESP,Murcia,Murcia,ES-MC,"autonomous community",,806.7,11233,11233,3,Europe/Madrid,FALSE,1724448777
Sonseca,Sonseca,"Sonseca con Casalgordo",39.7000,-3.9500,Spain,ES,ESP,"Castille-La Mancha","Castille-La Mancha",ES-CM,"autonomous community",,186.7,11205,11205,3,Europe/Madrid,FALSE,1724606218
"Bollullos de la Mitación","Bollullos de la Mitacion",,37.3333,-6.1333,Spain,ES,ESP,Andalusia,Andalusia,ES-AN,"autonomous community",,177.1,11160,11160,3,Europe/Madrid,FALSE,1724782674
