city,city_ascii,city_alt,lat,lng,country,iso2,iso3,admin_name,admin_name_ascii,admin_code,admin_type,capital,density,population,population_proper,ranking,timezone,same_name,id
Khartoum,Khartoum,"Al Khurţūm|Cartum|Khartoun|Al Kharţūm",15.6000,32.5000,Sudan,SD,SDN,Khartoum,Khartoum,SD-KH,state,primary,7632.4,7869000,639598,1,Africa/Khartoum,FALSE,1729268475
Omdurman,Omdurman,"Umm Durmān",15.6500,32.4833,Sudan,SD,SDN,Khartoum,Khartoum,SD-KH,state,,392.2,2805396,2805396,1,Africa/Khartoum,FALSE,1729912179
"Al Mijlad","Al Mijlad","Al Mujlad|El Muglad|Muglad",11.0339,27.7400,Sudan,SD,SDN,"West Kordofan","West Kordofan",SD-GK,state,,7.4,985000,985000,2,Africa/Khartoum,FALSE,1729768355
"Khartoum North","Khartoum North","El Khartūm Bahri|Al Kharţūm Baḩr|Al Kharţūm Bahrī",15.6333,32.6333,Sudan,SD,SDN,Khartoum,Khartoum,SD-KH,state,,126.3,936349,936349,2,Africa/Khartoum,FALSE,1729318628
"Port Sudan","Port Sudan","Būr Tsūdān|Sheikh Barghūth|Shaikh Barghūth|New Sawâkin|Shaykh Burghūth|Būrtsūdān|Būr Sūdān|Būrt Sūdān",19.6167,37.2167,Sudan,SD,SDN,"Red Sea","Red Sea",SD-RS,state,admin,1336.8,579942,579942,2,Africa/Khartoum,FALSE,1729710259
"El Geneina","El Geneina","Geneina|Al Junaynah|Al Geneina|Al Jeneina|Geneina Fort|Al Jinēna|Aj Jinēna|Al-Jinayna",13.4500,22.4500,Sudan,SD,SDN,"West Darfur","West Darfur",SD-DW,state,admin,89.3,538390,538390,2,Africa/Khartoum,FALSE,1729642412
Kassala,Kassala,Cassala|Kasala|Kassalā,15.4500,36.4000,Sudan,SD,SDN,Kassala,Kassala,SD-KA,state,admin,3015.7,536009,536009,2,Africa/Khartoum,FALSE,1729157224
"El Fasher","El Fasher","El-Fashir|Tendelti|Al Fāshir",13.6306,25.3500,Sudan,SD,SDN,"North Darfur","North Darfur",SD-DN,state,admin,55.7,500000,500000,2,Africa/Khartoum,FALSE,1729372385
Nyala,Nyala,Niyālā|Nyāla,12.0500,24.8833,Sudan,SD,SDN,"South Darfur","South Darfur",SD-DS,state,admin,81.6,492984,492984,2,Africa/Khartoum,FALSE,1729833248
"El Obeid","El Obeid","Al Ubayḑ|El Ubeiyad|Al-‘Obêd|‘Ubêd|Al Ubayd|Al Ubayyiḑ|Al Obayyid",13.1833,30.2167,Sudan,SD,SDN,"North Kordofan","North Kordofan",SD-KN,state,admin,88.4,418280,418280,2,Africa/Khartoum,FALSE,1729215531
Gedaref,Gedaref,"Al-Gadarif|El Gedaref|Al Qaḑārif",14.0333,35.3833,Sudan,SD,SDN,Gedaref,Gedaref,SD-GD,state,admin,5438.4,354927,354927,2,Africa/Khartoum,FALSE,1729215057
"Wad Medani","Wad Medani","Wad Madani|Medani|Madanī|Wad Madanī",14.4000,33.5167,Sudan,SD,SDN,Gezira,Gezira,SD-GZ,state,admin,924.3,345290,345290,2,Africa/Khartoum,FALSE,1729581572
Kūstī,Kusti,Costi|Kosti,13.1667,32.6667,Sudan,SD,SDN,"White Nile","White Nile",SD-NW,state,,117.4,345068,345068,2,Africa/Khartoum,FALSE,1729229371
"Ed Daein","Ed Daein","Ed Dueim|Ed Da‘ein|Ad Da‘en|Ad Du‘ayn|Al-Diayn|Aḑ Ḑa‘ayn",11.4608,26.1283,Sudan,SD,SDN,"East Darfur","East Darfur",SD-DE,state,admin,73.1,264734,264734,2,Africa/Khartoum,FALSE,1729512354
Singa,Singa,Sinja|Senga|Sinjah,13.1500,33.9333,Sudan,SD,SDN,Sennar,Sennar,SD-SI,state,admin,112.7,259000,259000,2,Africa/Khartoum,FALSE,1729951108
Kurmuk,Kurmuk,Kurmul,10.5500,34.2833,Sudan,SD,SDN,"Blue Nile","Blue Nile",SD-NB,state,,16.4,250000,250000,2,Africa/Khartoum,FALSE,1729180375
"Ar Ruseris","Ar Ruseris","Er Roseires|Ar Roseris|Ruṣêreṣ|Ar Ruşayriş",11.8500,34.3833,Sudan,SD,SDN,"Blue Nile","Blue Nile",SD-NB,state,,40.5,215857,215857,2,Africa/Khartoum,FALSE,1729614147
"Ed Damazin","Ed Damazin","Damazin|Ad Damāzīn|Al-Damazeen",11.7667,34.3500,Sudan,SD,SDN,"Blue Nile","Blue Nile",SD-NB,state,admin,167.0,186051,186051,2,Africa/Khartoum,FALSE,1729684147
"Al Manāqil","Al Manaqil","El Managil|Manaqil|El Manāqil",14.2467,32.9861,Sudan,SD,SDN,Gezira,Gezira,SD-GZ,state,,163.2,151827,151827,2,Africa/Khartoum,FALSE,1729742500
Sannār,Sannar,Sennār|Sennaar|Sinnar,13.5500,33.5833,Sudan,SD,SDN,Sennar,Sennar,SD-SI,state,,66.7,143059,143059,2,Africa/Khartoum,FALSE,1729986512
Atbara,Atbara,"‘Aţbarah|Madent Atbara",17.6972,33.9783,Sudan,SD,SDN,"River Nile","River Nile",SD-NR,state,,20.7,139768,139768,2,Africa/Khartoum,FALSE,1729042522
"Ed Damer","Ed Damer","El Damar|Ad Dāmir|Ad Damar|Al-Damir",17.5900,33.9600,Sudan,SD,SDN,"River Nile","River Nile",SD-NR,state,admin,10.2,122944,122944,2,Africa/Khartoum,FALSE,1729791168
"An Nuhūd","An Nuhud","An Nahūd|Nahad|En Nahūd",12.6925,28.4233,Sudan,SD,SDN,"West Kordofan","West Kordofan",SD-GK,state,,22.4,108008,108008,2,Africa/Khartoum,FALSE,1729223651
Kadugli,Kadugli,Kāduqlī,11.0167,29.7167,Sudan,SD,SDN,"South Kordofan","South Kordofan",SD-KS,state,admin,9.2,92674,92674,2,Africa/Khartoum,FALSE,1729757472
"Ad Diwem","Ad Diwem","Ad Duwaym|Ed Dueim|Dueim|Ad Duwēm",14.0000,32.3167,Sudan,SD,SDN,"White Nile","White Nile",SD-NW,state,,66.6,87068,87068,3,Africa/Khartoum,FALSE,1729364292
Dongola,Dongola,Donkola|Dunkula|Dunqulah|Dunqulā|Donqola,19.1698,30.4749,Sudan,SD,SDN,Northern,Northern,SD-NO,state,admin,4.0,56167,56167,2,Africa/Khartoum,FALSE,1729300155
"Umm Ruwaba","Umm Ruwaba","Um Ruaba|Umm Ruwābah|Um Ruwwāba",12.9046,31.2079,Sudan,SD,SDN,"North Kordofan","North Kordofan",SD-KN,state,,39.2,55742,55742,3,Africa/Khartoum,FALSE,1729566926
Shendi,Shendi,Shandi|Shindî,16.6833,33.4333,Sudan,SD,SDN,"River Nile","River Nile",SD-NR,state,,30.3,55516,55516,3,Africa/Khartoum,FALSE,1729244380
"Ad Dabbah","Ad Dabbah","Al Dabbah|Debbeh|Debbat el Muaskar|Ad Dabba|Dabbah|Ed Debba|Debba",18.0502,30.9495,Sudan,SD,SDN,Northern,Northern,SD-NO,state,,4.2,52000,52000,3,Africa/Khartoum,FALSE,1729074461
"Abū Ḩamad","Abu Hamad","Abu Hamed",19.5433,33.3378,Sudan,SD,SDN,"River Nile","River Nile",SD-NR,state,,3.3,50000,50000,3,Africa/Khartoum,FALSE,1729554381
Kutum,Kutum,,14.2056,24.6500,Sudan,SD,SDN,"North Darfur","North Darfur",SD-DN,state,,6.5,45000,45000,3,Africa/Khartoum,FALSE,1729748758
Sawākin,Sawakin,Suakin,19.1025,37.3300,Sudan,SD,SDN,"Red Sea","Red Sea",SD-RS,state,,73.1,43337,43337,3,Africa/Khartoum,FALSE,1729959085
Tokār,Tokar,Ţawkar,18.4253,37.7292,Sudan,SD,SDN,"Red Sea","Red Sea",SD-RS,state,,26.3,37051,37051,3,Africa/Khartoum,FALSE,1729512860
Zalingei,Zalingei,Zalinji|Zālinjī|Zalinje,12.9000,23.4833,Sudan,SD,SDN,"Central Darfur","Central Darfur",SD-DC,state,admin,16.1,27258,27258,2,Africa/Khartoum,FALSE,1729805075
"Al Qiţena","Al Qitena","El Geteina|Al Quţaynah|El Qeteina",14.8612,32.3692,Sudan,SD,SDN,"White Nile","White Nile",SD-NW,state,,63.1,26893,26893,3,Africa/Khartoum,FALSE,1729413594
Babanūsah,Babanusah,Babanusa,11.3333,27.8000,Sudan,SD,SDN,"West Kordofan","West Kordofan",SD-GK,state,,11.2,19700,19700,3,Africa/Khartoum,FALSE,1729601692
"Wādī Ḩalfā’","Wadi Halfa'",,21.8000,31.3500,Sudan,SD,SDN,Northern,Northern,SD-NO,state,,0.0,17121,17121,3,Africa/Khartoum,FALSE,1729435342
Berber,Berber,Barbar,18.0306,33.9933,Sudan,SD,SDN,"River Nile","River Nile",SD-NR,state,,15.1,16650,16650,3,Africa/Khartoum,FALSE,1729960469
Kuraymah,Kuraymah,Karêmah|Kareima|Karima,18.5500,31.8500,Sudan,SD,SDN,Northern,Northern,SD-NO,state,,11.5,13981,13981,3,Africa/Khartoum,FALSE,1729460308
"Umm Badr","Umm Badr","Um Bādir",14.2167,27.9333,Sudan,SD,SDN,"North Kordofan","North Kordofan",SD-KN,state,,4.5,12000,12000,3,Africa/Khartoum,FALSE,1729226320
Marawī,Marawi,Merowe|Merawi,18.4833,31.8167,Sudan,SD,SDN,Northern,Northern,SD-NO,state,,11.5,10234,10234,3,Africa/Khartoum,FALSE,1729782394
Thābit,Thabit,,13.3130,25.0870,Sudan,SD,SDN,"North Darfur","North Darfur",SD-DN,state,,55.7,7000,7000,4,Africa/Khartoum,FALSE,1729727536
"Karmah an Nuzul","Karmah an Nuzul","Kermah|Kerma en Nuzl|Karma An Nuzul|Karmah|Kerma",19.6008,30.4097,Sudan,SD,SDN,Northern,Northern,SD-NO,state,,79.2,3928,3928,3,Africa/Khartoum,FALSE,1729918529
Haya,Haya,Hayyā,18.3461,36.3969,Sudan,SD,SDN,"Red Sea","Red Sea",SD-RS,state,,14.5,1000,1000,3,Africa/Khartoum,FALSE,1729440799
Tadagamo,Tadagamo,,10.5366,30.0265,Sudan,SD,SDN,"South Kordofan","South Kordofan",SD-KS,state,,9.2,,,5,Africa/Khartoum,FALSE,1729037799
"Umm Bishār","Umm Bishar",,12.7000,30.5333,Sudan,SD,SDN,"North Kordofan","North Kordofan",SD-KN,state,,39.2,,,4,Africa/Khartoum,FALSE,1729124353
"Bunduq as Sa‘d","Bunduq as Sa`d","Bunduq es Sa‘d|Bundug es Sa‘d",13.7000,32.9500,Sudan,SD,SDN,"White Nile","White Nile",SD-NW,state,,66.7,,,4,Africa/Khartoum,FALSE,1729874873
"Um Dom","Um Dom",,12.3911,31.5085,Sudan,SD,SDN,"South Kordofan","South Kordofan",SD-KS,state,,25.2,,,4,Africa/Khartoum,FALSE,1729235852
Tolia,Tolia,,10.6885,30.0247,Sudan,SD,SDN,"South Kordofan","South Kordofan",SD-KS,state,,9.2,,,5,Africa/Khartoum,FALSE,1729187322
"Qoz Gaba","Qoz Gaba",,16.7571,33.4504,Sudan,SD,SDN,"River Nile","River Nile",SD-NR,state,,21.8,,,4,Africa/Khartoum,FALSE,1729113961
"Abū Ţunayţin","Abu Tunaytin","Abu Tineitin",14.4000,31.0167,Sudan,SD,SDN,"North Kordofan","North Kordofan",SD-KN,state,,21.8,,,4,Africa/Khartoum,FALSE,1729769081
Attib,Attib,,12.5167,34.1167,Sudan,SD,SDN,Sennar,Sennar,SD-SI,state,,42.7,,,4,Africa/Khartoum,FALSE,1729828833
Tarambal,Tarambal,,11.6303,31.0583,Sudan,SD,SDN,"South Kordofan","South Kordofan",SD-KS,state,,25.2,,,4,Africa/Khartoum,FALSE,1729824679
Za‘afaya,Za`afaya,,12.7167,30.9333,Sudan,SD,SDN,"North Kordofan","North Kordofan",SD-KN,state,,39.2,,,4,Africa/Khartoum,FALSE,1729755523
Jaylī,Jayli,Geili,13.2000,31.3833,Sudan,SD,SDN,"North Kordofan","North Kordofan",SD-KN,state,,39.2,,,4,Africa/Khartoum,FALSE,1729645553
"Qaryat al Ledea","Qaryat al Ledea",,15.3010,32.5452,Sudan,SD,SDN,Khartoum,Khartoum,SD-KH,state,,1734.9,,,3,Africa/Khartoum,FALSE,1729489024
"Qoz Nginnu","Qoz Nginnu","Qawz Nginnu",14.1077,22.6613,Sudan,SD,SDN,"West Darfur","West Darfur",SD-DW,state,,16.2,,,4,Africa/Khartoum,FALSE,1729478975
Siga,Siga,,13.0795,24.3346,Sudan,SD,SDN,"Central Darfur","Central Darfur",SD-DC,state,,5.6,,,5,Africa/Khartoum,FALSE,1729918345
"Hosh ed Dar","Hosh ed Dar","Ḩawsh ad Dār",18.0368,33.9872,Sudan,SD,SDN,"River Nile","River Nile",SD-NR,state,,15.1,,,4,Africa/Khartoum,FALSE,1729023791
"Wad ‘Agib","Wad `Agib",,15.5167,32.4833,Sudan,SD,SDN,Khartoum,Khartoum,SD-KH,state,,5635.2,,,2,Africa/Khartoum,FALSE,1729000001
"Al Milḩ","Al Milh","El Milh|Milh",12.4833,30.0333,Sudan,SD,SDN,"South Kordofan","South Kordofan",SD-KS,state,,39.5,,,4,Africa/Khartoum,FALSE,1729090764
"Qawz Baynah","Qawz Baynah","Qoz Beina",13.4000,25.4500,Sudan,SD,SDN,"North Darfur","North Darfur",SD-DN,state,,55.7,,,4,Africa/Khartoum,FALSE,1729960458
"Al Kurnuk","Al Kurnuk","El Kurnuk",12.9500,30.7167,Sudan,SD,SDN,"North Kordofan","North Kordofan",SD-KN,state,,39.2,,,4,Africa/Khartoum,FALSE,1729930529
"Ţayba al Qadlāb","Tayba al Qadlab",,14.0561,33.0817,Sudan,SD,SDN,Sennar,Sennar,SD-SI,state,,163.2,,,4,Africa/Khartoum,FALSE,1729473317
"Al ‘Ileqa","Al `Ileqa",,13.3235,32.4992,Sudan,SD,SDN,"White Nile","White Nile",SD-NW,state,,117.4,,,4,Africa/Khartoum,FALSE,1729257388
"Umm Zariba","Umm Zariba",,15.5667,33.6833,Sudan,SD,SDN,Gedaref,Gedaref,SD-GD,state,,4.1,,,5,Africa/Khartoum,FALSE,1729548914
"Ar Riheiwa","Ar Riheiwa","Er Riheiwa|Riheiwa",13.2667,29.5833,Sudan,SD,SDN,"North Kordofan","North Kordofan",SD-KN,state,,88.4,,,4,Africa/Khartoum,FALSE,1729343735
"Umm Ruwaba","Umm Ruwaba",,14.0469,22.8572,Sudan,SD,SDN,"West Darfur","West Darfur",SD-DW,state,,16.2,,,4,Africa/Khartoum,FALSE,1729017154
"Arak al Katib","Arak al Katib","Fadl el Mula el Katib",15.2747,32.6808,Sudan,SD,SDN,Khartoum,Khartoum,SD-KH,state,,275.1,,,3,Africa/Khartoum,FALSE,1729912495
"An Nāyra","An Nayra",,12.8020,34.0866,Sudan,SD,SDN,Sennar,Sennar,SD-SI,state,,44.7,,,4,Africa/Khartoum,FALSE,1729226247
"Ad Dandour","Ad Dandour",,11.2404,30.0919,Sudan,SD,SDN,"South Kordofan","South Kordofan",SD-KS,state,,9.2,,,5,Africa/Khartoum,FALSE,1729929314
"Wad al Ḩilew","Wad al Hilew","Wad el Hilu|Wad al Ḩulw",14.4693,33.0207,Sudan,SD,SDN,Gezira,Gezira,SD-GZ,state,,181.2,,,4,Africa/Khartoum,FALSE,1729764571
"Abū Darīsah","Abu Darisah","Abu Derisa",14.2916,36.2589,Sudan,SD,SDN,Gedaref,Gedaref,SD-GD,state,,23.3,,,4,Africa/Khartoum,FALSE,1729483942
Kiḑebāt,Kidebat,,12.9924,33.6298,Sudan,SD,SDN,Sennar,Sennar,SD-SI,state,,112.7,,,4,Africa/Khartoum,FALSE,1729246570
Yafila,Yafila,,13.6500,27.0167,Sudan,SD,SDN,"North Darfur","North Darfur",SD-DN,state,,11.1,,,4,Africa/Khartoum,FALSE,1729134112
"Hillat el Kubbo Shab","Hillat el Kubbo Shab",,16.8715,33.6757,Sudan,SD,SDN,"River Nile","River Nile",SD-NR,state,,30.3,,,4,Africa/Khartoum,FALSE,1729608225
Geri,Geri,,13.2251,22.2204,Sudan,SD,SDN,"West Darfur","West Darfur",SD-DW,state,,89.3,,,4,Africa/Khartoum,FALSE,1729137936
Hilla,Hilla,,16.5067,33.4734,Sudan,SD,SDN,"River Nile","River Nile",SD-NR,state,,30.3,,,4,Africa/Khartoum,FALSE,1729706661
"Wad Sider","Wad Sider",,14.3578,32.7818,Sudan,SD,SDN,Gezira,Gezira,SD-GZ,state,,163.2,,,4,Africa/Khartoum,FALSE,1729428309
Tobreik,Tobreik,,10.9921,24.3096,Sudan,SD,SDN,"South Darfur","South Darfur",SD-DS,state,,42.4,,,4,Africa/Khartoum,FALSE,1729017216
Maţmar,Matmar,,14.0167,32.5667,Sudan,SD,SDN,Gezira,Gezira,SD-GZ,state,,163.2,,,4,Africa/Khartoum,FALSE,1729083051
"Wad al Murād","Wad al Murad",,14.4431,32.7843,Sudan,SD,SDN,Gezira,Gezira,SD-GZ,state,,163.2,,,4,Africa/Khartoum,FALSE,1729637170
"Wad al Murād","Wad al Murad",,14.3791,32.9862,Sudan,SD,SDN,Gezira,Gezira,SD-GZ,state,,163.2,,,4,Africa/Khartoum,TRUE,1729598567
"Hillat al Arid","Hillat al Arid",,15.6909,35.3947,Sudan,SD,SDN,Kassala,Kassala,SD-KA,state,,76.9,,,4,Africa/Khartoum,FALSE,1729081824
Birtu,Birtu,,14.0667,25.8667,Sudan,SD,SDN,"North Darfur","North Darfur",SD-DN,state,,26.2,,,4,Africa/Khartoum,FALSE,1729514278
Maḩbūb,Mahbub,Mahbut,13.3500,29.2333,Sudan,SD,SDN,"West Kordofan","West Kordofan",SD-GK,state,,22.5,,,4,Africa/Khartoum,FALSE,1729203521
"‘Id Aj Jim","`Id Aj Jim",,12.5129,32.3115,Sudan,SD,SDN,"White Nile","White Nile",SD-NW,state,,15.6,,,4,Africa/Khartoum,FALSE,1729100869
Gaiya,Gaiya,,11.5771,22.7546,Sudan,SD,SDN,"Central Darfur","Central Darfur",SD-DC,state,,9.9,,,5,Africa/Khartoum,FALSE,1729906702
"‘Iyāl Bakhīt","`Iyal Bakhit",,13.4167,28.6833,Sudan,SD,SDN,"West Kordofan","West Kordofan",SD-GK,state,,22.4,,,4,Africa/Khartoum,FALSE,1729183484
Sayyāḩ,Sayyah,Saiyah,14.3000,25.7500,Sudan,SD,SDN,"North Darfur","North Darfur",SD-DN,state,,26.2,,,4,Africa/Khartoum,FALSE,1729105321
"As Suweigat","As Suweigat","Es Suweigat",18.9167,32.3000,Sudan,SD,SDN,"River Nile","River Nile",SD-NR,state,,3.3,,,5,Africa/Khartoum,FALSE,1729601665
"Hillat Qasm es Sed","Hillat Qasm es Sed",,16.3970,32.7972,Sudan,SD,SDN,"River Nile","River Nile",SD-NR,state,,30.3,,,4,Africa/Khartoum,FALSE,1729227052
Chakamchakarei,Chakamchakarei,,12.7328,22.4802,Sudan,SD,SDN,"West Darfur","West Darfur",SD-DW,state,,41.6,,,4,Africa/Khartoum,FALSE,1729424783
"Al Hadra","Al Hadra",,11.4496,30.1368,Sudan,SD,SDN,"South Kordofan","South Kordofan",SD-KS,state,,14.3,,,4,Africa/Khartoum,FALSE,1729224903
"’As Ubri","'As Ubri",,12.7426,35.3916,Sudan,SD,SDN,Gedaref,Gedaref,SD-GD,state,,25.4,,,4,Africa/Khartoum,FALSE,1729236101
Harhassa,Harhassa,,13.8667,25.0333,Sudan,SD,SDN,"North Darfur","North Darfur",SD-DN,state,,55.7,,,4,Africa/Khartoum,FALSE,1729968902
"‘Abd al Ḩāfiz̧","`Abd al Hafiz","‘Abd el Hafiz",14.3524,33.4197,Sudan,SD,SDN,Gezira,Gezira,SD-GZ,state,,214.0,,,3,Africa/Khartoum,FALSE,1729074702
"Um Ṣile‘a","Um Sile`a",,13.2959,32.2295,Sudan,SD,SDN,"White Nile","White Nile",SD-NW,state,,117.4,,,4,Africa/Khartoum,FALSE,1729815869
"As Sanafa","As Sanafa",,15.5359,32.5361,Sudan,SD,SDN,Khartoum,Khartoum,SD-KH,state,,5635.2,,,2,Africa/Khartoum,FALSE,1729798437
"Wad Kibish","Wad Kibish",,14.7113,32.5562,Sudan,SD,SDN,"White Nile","White Nile",SD-NW,state,,181.2,,,4,Africa/Khartoum,FALSE,1729959559
Gedil,Gedil,,15.2500,23.6167,Sudan,SD,SDN,"North Darfur","North Darfur",SD-DN,state,,6.5,,,5,Africa/Khartoum,FALSE,1729354382
"Aḑ Ḑiresāb","Ad Diresab",,14.9691,32.2524,Sudan,SD,SDN,"White Nile","White Nile",SD-NW,state,,63.1,,,4,Africa/Khartoum,FALSE,1729684512
"Wad Al Ḩisen","Wad Al Hisen",,14.8886,33.4130,Sudan,SD,SDN,Gezira,Gezira,SD-GZ,state,,88.3,,,4,Africa/Khartoum,FALSE,1729500784
"Zayd Da‘ash","Zayd Da`ash","Zaid Da‘ash",11.5833,27.0333,Sudan,SD,SDN,"East Darfur","East Darfur",SD-DE,state,,26.4,,,4,Africa/Khartoum,FALSE,1729992453
Jōghanāy,Joghanay,,11.0283,29.8428,Sudan,SD,SDN,"South Kordofan","South Kordofan",SD-KS,state,,9.2,,,5,Africa/Khartoum,FALSE,1729137680
Wawissi,Wawissi,,16.0967,32.5692,Sudan,SD,SDN,Khartoum,Khartoum,SD-KH,state,,263.8,,,3,Africa/Khartoum,FALSE,1729009295
"Um Daqnu","Um Daqnu",,12.5943,34.1696,Sudan,SD,SDN,Sennar,Sennar,SD-SI,state,,42.7,,,4,Africa/Khartoum,FALSE,1729741236
"Umm Kutayrah","Umm Kutayrah","Umm Kuteira",14.7167,25.0333,Sudan,SD,SDN,"North Darfur","North Darfur",SD-DN,state,,6.5,,,5,Africa/Khartoum,FALSE,1729306761
"Shaqq ‘Abd az ‘Azīz","Shaqq `Abd az `Aziz","Shaqq el Asad|Shaqq ‘Abd el ‘Azīz|Godat",11.9000,26.5333,Sudan,SD,SDN,"North Darfur","North Darfur",SD-DN,state,,16.3,,,4,Africa/Khartoum,FALSE,1729705176
"Um Kōrāk","Um Korak",,14.9047,32.8971,Sudan,SD,SDN,Gezira,Gezira,SD-GZ,state,,181.2,,,4,Africa/Khartoum,FALSE,1729866277
Ḩiredāna,Hiredana,,14.3502,32.5107,Sudan,SD,SDN,"White Nile","White Nile",SD-NW,state,,163.2,,,4,Africa/Khartoum,FALSE,1729532569
"Wad ‘Arabi","Wad `Arabi",,14.3398,32.6873,Sudan,SD,SDN,Gezira,Gezira,SD-GZ,state,,163.2,,,4,Africa/Khartoum,FALSE,1729250860
Maraiu,Maraiu,,11.3000,34.7667,Sudan,SD,SDN,"Blue Nile","Blue Nile",SD-NB,state,,40.5,,,4,Africa/Khartoum,FALSE,1729392893
Bānat,Banat,,12.8117,34.0789,Sudan,SD,SDN,Sennar,Sennar,SD-SI,state,,45.0,,,4,Africa/Khartoum,FALSE,1729295428
"Kambu um Ţalaqo","Kambu um Talaqo",,14.4712,33.1708,Sudan,SD,SDN,Gezira,Gezira,SD-GZ,state,,214.0,,,3,Africa/Khartoum,FALSE,1729283752
"El Kilewa Wad Gamal","El Kilewa Wad Gamal",,16.5205,32.9637,Sudan,SD,SDN,"River Nile","River Nile",SD-NR,state,,30.3,,,4,Africa/Khartoum,FALSE,1729216561
Kūrī,Kuri,,14.4500,23.9500,Sudan,SD,SDN,"North Darfur","North Darfur",SD-DN,state,,6.5,,,5,Africa/Khartoum,FALSE,1729382384
"Sarār Fa’r","Sarar Fa'r","Serar Far",14.5167,29.0167,Sudan,SD,SDN,"North Kordofan","North Kordofan",SD-KN,state,,4.5,,,5,Africa/Khartoum,FALSE,1729509090
Hamra,Hamra,,10.3649,25.9661,Sudan,SD,SDN,"East Darfur","East Darfur",SD-DE,state,,35.8,,,4,Africa/Khartoum,FALSE,1729192691
Qinebīla,Qinebila,,12.7720,31.1091,Sudan,SD,SDN,"North Kordofan","North Kordofan",SD-KN,state,,39.2,,,4,Africa/Khartoum,FALSE,1729706248
Hamra,Hamra,,10.3969,25.5010,Sudan,SD,SDN,"South Darfur","South Darfur",SD-DS,state,,22.5,,,4,Africa/Khartoum,FALSE,1729570417
Inderabiro,Inderabiro,,12.5006,22.6668,Sudan,SD,SDN,"West Darfur","West Darfur",SD-DW,state,,41.6,,,4,Africa/Khartoum,FALSE,1729286703
Karanka,Karanka,,12.7434,35.3857,Sudan,SD,SDN,Gedaref,Gedaref,SD-GD,state,,25.4,,,4,Africa/Khartoum,FALSE,1729858252
"Es Salam","Es Salam","As Salām",18.1210,33.9288,Sudan,SD,SDN,"River Nile","River Nile",SD-NR,state,,15.1,,,4,Africa/Khartoum,FALSE,1729904605
Kando,Kando,,10.6996,30.0124,Sudan,SD,SDN,"South Kordofan","South Kordofan",SD-KS,state,,9.2,,,5,Africa/Khartoum,FALSE,1729926202
"Hillat Tartor","Hillat Tartor","El Jabarab",16.7123,33.5638,Sudan,SD,SDN,"River Nile","River Nile",SD-NR,state,,30.3,,,4,Africa/Khartoum,FALSE,1729462017
"Hibeka An Naqar","Hibeka An Naqar",,14.6771,33.4186,Sudan,SD,SDN,Gezira,Gezira,SD-GZ,state,,88.3,,,4,Africa/Khartoum,FALSE,1729837859
"Ash Shirek","Ash Shirek",,13.5083,32.1795,Sudan,SD,SDN,"White Nile","White Nile",SD-NW,state,,42.6,,,4,Africa/Khartoum,FALSE,1729108278
Diri,Diri,,11.9333,24.2667,Sudan,SD,SDN,"South Darfur","South Darfur",SD-DS,state,,110.9,,,4,Africa/Khartoum,FALSE,1729461070
"Al Hebeika","Al Hebeika","El Hebeik|El Hebeika",14.7500,32.3000,Sudan,SD,SDN,"White Nile","White Nile",SD-NW,state,,63.1,,,4,Africa/Khartoum,FALSE,1729202230
Sināda,Sinada,,12.9835,33.7691,Sudan,SD,SDN,Sennar,Sennar,SD-SI,state,,112.7,,,4,Africa/Khartoum,FALSE,1729109731
Muqaddimah,Muqaddimah,Muqoddima,10.8000,27.5333,Sudan,SD,SDN,"West Kordofan","West Kordofan",SD-GK,state,,7.4,,,5,Africa/Khartoum,FALSE,1729360446
"‘Amārat ‘Alī","`Amarat `Ali",,14.5833,33.6667,Sudan,SD,SDN,Gezira,Gezira,SD-GZ,state,,68.9,,,4,Africa/Khartoum,FALSE,1729234552
Attōmāt,Attomat,,11.0023,29.8570,Sudan,SD,SDN,"South Kordofan","South Kordofan",SD-KS,state,,9.2,,,5,Africa/Khartoum,FALSE,1729626967
"Al Budayrīyah","Al Budayriyah","El Bederiria|El Bedeiriya|El Bedeina",12.1333,31.2667,Sudan,SD,SDN,"South Kordofan","South Kordofan",SD-KS,state,,25.2,,,4,Africa/Khartoum,FALSE,1729344761
"Wad at Turābī","Wad at Turabi","Wad et Turabi",15.1350,33.1333,Sudan,SD,SDN,Gezira,Gezira,SD-GZ,state,,275.1,,,3,Africa/Khartoum,FALSE,1729360314
"Ad Diseis","Ad Diseis","Ed Diseis",14.2500,33.0000,Sudan,SD,SDN,Gezira,Gezira,SD-GZ,state,,163.2,,,4,Africa/Khartoum,FALSE,1729830108
Luyūnah,Luyunah,Layuna,13.2500,31.8167,Sudan,SD,SDN,"North Kordofan","North Kordofan",SD-KN,state,,39.2,,,4,Africa/Khartoum,FALSE,1729282250
Şarāya,Saraya,,14.2262,33.4460,Sudan,SD,SDN,Gezira,Gezira,SD-GZ,state,,214.0,,,3,Africa/Khartoum,FALSE,1729533644
Şaraya,Saraya,,14.0684,33.4597,Sudan,SD,SDN,Gezira,Gezira,SD-GZ,state,,214.0,,,3,Africa/Khartoum,TRUE,1729526804
"Ḩāmid aş Şūfī","Hamid as Sufi","Hamed es Sofi",14.2167,35.9000,Sudan,SD,SDN,Gedaref,Gedaref,SD-GD,state,,26.5,,,4,Africa/Khartoum,FALSE,1729382655
Dambo,Dambo,,18.5500,30.6000,Sudan,SD,SDN,Northern,Northern,SD-NO,state,,1.5,,,5,Africa/Khartoum,FALSE,1729743275
Buram,Buram,,11.0167,24.3333,Sudan,SD,SDN,"South Darfur","South Darfur",SD-DS,state,,42.4,,,4,Africa/Khartoum,FALSE,1729321571
Burām,Buram,,10.8167,25.1667,Sudan,SD,SDN,"South Darfur","South Darfur",SD-DS,state,,22.5,,,4,Africa/Khartoum,TRUE,1729897415
"An Nimer","An Nimer",,14.2179,32.8755,Sudan,SD,SDN,Gezira,Gezira,SD-GZ,state,,163.2,,,4,Africa/Khartoum,FALSE,1729071470
Kulkul,Kulkul,,14.1430,22.7366,Sudan,SD,SDN,"West Darfur","West Darfur",SD-DW,state,,16.2,,,4,Africa/Khartoum,FALSE,1729217458
Luyūnah,Luyunah,Laiyuna,12.3167,30.2500,Sudan,SD,SDN,"South Kordofan","South Kordofan",SD-KS,state,,14.3,,,4,Africa/Khartoum,FALSE,1729994099
Ţayyibah,Tayyibah,Taiyiba,15.3647,32.5275,Sudan,SD,SDN,Khartoum,Khartoum,SD-KH,state,,1734.9,,,3,Africa/Khartoum,FALSE,1729702715
"Al Gana","Al Gana","El Gana",11.4000,34.9333,Sudan,SD,SDN,"Blue Nile","Blue Nile",SD-NB,state,,40.5,,,4,Africa/Khartoum,FALSE,1729963964
"Hillat Rattaga","Hillat Rattaga",,15.5298,35.3408,Sudan,SD,SDN,Kassala,Kassala,SD-KA,state,,76.9,,,4,Africa/Khartoum,FALSE,1729235694
Suarda,Suarda,Suwârdah,20.5667,30.3167,Sudan,SD,SDN,Northern,Northern,SD-NO,state,,0.3,,,5,Africa/Khartoum,FALSE,1729279982
Kortala,Kortala,,12.0833,30.3000,Sudan,SD,SDN,"South Kordofan","South Kordofan",SD-KS,state,,14.3,,,4,Africa/Khartoum,FALSE,1729948623
Abugga,Abugga,,11.1500,34.5167,Sudan,SD,SDN,"Blue Nile","Blue Nile",SD-NB,state,,16.4,,,4,Africa/Khartoum,FALSE,1729977554
Sabu,Sabu,,19.9333,30.5500,Sudan,SD,SDN,Northern,Northern,SD-NO,state,,0.9,,,5,Africa/Khartoum,FALSE,1729533636
Dallami,Dallami,Delami|Dalāmī,11.8597,30.4620,Sudan,SD,SDN,"South Kordofan","South Kordofan",SD-KS,state,,14.3,,,4,Africa/Khartoum,FALSE,1729978660
"Wad Ţawīl","Wad Tawil",,13.7167,33.7667,Sudan,SD,SDN,Sennar,Sennar,SD-SI,state,,89.6,,,4,Africa/Khartoum,FALSE,1729326823
Nyama,Nyama,,12.7833,23.5500,Sudan,SD,SDN,"Central Darfur","Central Darfur",SD-DC,state,,16.1,,,4,Africa/Khartoum,FALSE,1729149877
"Hillat el Hassanya","Hillat el Hassanya",,15.7485,32.4198,Sudan,SD,SDN,Khartoum,Khartoum,SD-KH,state,,392.2,,,3,Africa/Khartoum,FALSE,1729459419
"Wad Ab Hajab","Wad Ab Hajab","Wad Abū ‘Agab",14.3013,33.0404,Sudan,SD,SDN,Gezira,Gezira,SD-GZ,state,,163.2,,,4,Africa/Khartoum,FALSE,1729569406
Nyama,Nyama,,12.7554,24.1682,Sudan,SD,SDN,"South Darfur","South Darfur",SD-DS,state,,86.2,,,4,Africa/Khartoum,FALSE,1729154315
Khuwayrāt,Khuwayrat,Kheweirat,13.8000,32.7333,Sudan,SD,SDN,Gezira,Gezira,SD-GZ,state,,163.2,,,4,Africa/Khartoum,FALSE,1729700977
"Al Messin","Al Messin","El Messin",12.2000,31.3333,Sudan,SD,SDN,"South Kordofan","South Kordofan",SD-KS,state,,25.2,,,4,Africa/Khartoum,FALSE,1729325522
"Al ‘Amara Abyad","Al `Amara Abyad",‘Amārah|‘Amara,14.7148,33.3564,Sudan,SD,SDN,Gezira,Gezira,SD-GZ,state,,181.2,,,4,Africa/Khartoum,FALSE,1729919840
"Umm Sheifa","Umm Sheifa",,10.7667,34.7833,Sudan,SD,SDN,"Blue Nile","Blue Nile",SD-NB,state,,39.4,,,4,Africa/Khartoum,FALSE,1729543296
Balūma,Baluma,,14.5290,32.6495,Sudan,SD,SDN,Gezira,Gezira,SD-GZ,state,,163.2,,,4,Africa/Khartoum,FALSE,1729573269
"Al Fahada","Al Fahada",,17.3778,34.3409,Sudan,SD,SDN,"River Nile","River Nile",SD-NR,state,,10.2,,,4,Africa/Khartoum,FALSE,1729520825
"Hillat ar Raboob Al Bayara","Hillat ar Raboob Al Bayara",,15.7715,33.1575,Sudan,SD,SDN,Khartoum,Khartoum,SD-KH,state,,126.3,,,4,Africa/Khartoum,FALSE,1729631598
"Umm Shigil","Umm Shigil","Umm Shegil",13.1167,30.6000,Sudan,SD,SDN,"North Kordofan","North Kordofan",SD-KN,state,,39.2,,,4,Africa/Khartoum,FALSE,1729741912
Guldubar,Guldubar,Gondobar|Goldober,12.1000,23.7500,Sudan,SD,SDN,"South Darfur","South Darfur",SD-DS,state,,9.9,,,5,Africa/Khartoum,FALSE,1729200266
‘Ireqāt,`Ireqat,,12.9005,32.2422,Sudan,SD,SDN,"White Nile","White Nile",SD-NW,state,,42.6,,,4,Africa/Khartoum,FALSE,1729349250
"Wad As Sayyid Sharq","Wad As Sayyid Sharq","Wad as Sa‘īd|Wad es Sa‘id",14.8460,33.2705,Sudan,SD,SDN,Gezira,Gezira,SD-GZ,state,,92.8,,,4,Africa/Khartoum,FALSE,1729655560
Ungwatiri,Ungwatiri,,16.9110,36.0565,Sudan,SD,SDN,Kassala,Kassala,SD-KA,state,,16.7,,,4,Africa/Khartoum,FALSE,1729969689
"Al Gara","Al Gara","El Gara",14.5500,33.5500,Sudan,SD,SDN,Gezira,Gezira,SD-GZ,state,,68.9,,,4,Africa/Khartoum,FALSE,1729933708
"Wad ar Rukayn","Wad ar Rukayn","Wad er Rukein",13.7833,33.9167,Sudan,SD,SDN,Sennar,Sennar,SD-SI,state,,89.6,,,4,Africa/Khartoum,FALSE,1729146061
Kabājin,Kabajin,Kabagin,12.8164,31.7067,Sudan,SD,SDN,"White Nile","White Nile",SD-NW,state,,42.6,,,4,Africa/Khartoum,FALSE,1729604671
Muguf,Muguf,,10.1167,34.2667,Sudan,SD,SDN,"Blue Nile","Blue Nile",SD-NB,state,,16.4,,,4,Africa/Khartoum,FALSE,1729138319
‘Arīd,`Arid,,11.0649,31.4850,Sudan,SD,SDN,"South Kordofan","South Kordofan",SD-KS,state,,8.6,,,5,Africa/Khartoum,FALSE,1729123532
Bulgumeil,Bulgumeil,Bilgyoumeil,13.1117,23.6323,Sudan,SD,SDN,"Central Darfur","Central Darfur",SD-DC,state,,16.1,,,4,Africa/Khartoum,FALSE,1729721873
Abguana,Abguana,,9.6167,34.1167,Sudan,SD,SDN,"Blue Nile","Blue Nile",SD-NB,state,,17.8,,,4,Africa/Addis_Ababa,FALSE,1729831764
"Kaḩlī Ţayyibīn","Kahli Tayyibin","Kahli Taiyibin",14.6833,33.6833,Sudan,SD,SDN,Gezira,Gezira,SD-GZ,state,,69.7,,,4,Africa/Khartoum,FALSE,1729484250
"Qaryat at Tire‘a","Qaryat at Tire`a",,15.4093,32.4967,Sudan,SD,SDN,Khartoum,Khartoum,SD-KH,state,,1734.9,,,3,Africa/Khartoum,FALSE,1729707661
Kinderma,Kinderma,,10.8178,30.3789,Sudan,SD,SDN,"South Kordofan","South Kordofan",SD-KS,state,,9.2,,,5,Africa/Khartoum,FALSE,1729611851
"Et Teitel","Et Teitel",,10.3351,23.7590,Sudan,SD,SDN,"South Darfur","South Darfur",SD-DS,state,,22.5,,,4,Africa/Khartoum,FALSE,1729273030
"Ţayba Ash Shekh Al Qurashi","Tayba Ash Shekh Al Qurashi",,14.7489,33.2420,Sudan,SD,SDN,Gezira,Gezira,SD-GZ,state,,181.2,,,4,Africa/Khartoum,FALSE,1729433072
Geragerab,Geragerab,,13.1852,22.1944,Sudan,SD,SDN,"West Darfur","West Darfur",SD-DW,state,,89.3,,,4,Africa/Khartoum,FALSE,1729385144
Zurzūr,Zurzur,Zarzur,13.6000,32.0833,Sudan,SD,SDN,"White Nile","White Nile",SD-NW,state,,66.6,,,4,Africa/Khartoum,FALSE,1729066512
Gudai,Gudai,,13.2052,23.7101,Sudan,SD,SDN,"Central Darfur","Central Darfur",SD-DC,state,,16.1,,,4,Africa/Khartoum,FALSE,1729430578
Gudai,Gudai,,13.0853,23.8325,Sudan,SD,SDN,"Central Darfur","Central Darfur",SD-DC,state,,5.6,,,5,Africa/Khartoum,TRUE,1729077657
"Al Qarajāb","Al Qarajab",,14.3104,32.8038,Sudan,SD,SDN,Gezira,Gezira,SD-GZ,state,,163.2,,,4,Africa/Khartoum,FALSE,1729861073
"Aţ Ţirenqī‘","At Tirenqi`",,12.7731,31.1771,Sudan,SD,SDN,"North Kordofan","North Kordofan",SD-KN,state,,39.2,,,4,Africa/Khartoum,FALSE,1729301419
"Amān Alla","Aman Alla","Amanullah|Amān Allāh",12.8900,31.0030,Sudan,SD,SDN,"North Kordofan","North Kordofan",SD-KN,state,,39.2,,,4,Africa/Khartoum,FALSE,1729160020
"Al ‘Ulayqah","Al `Ulayqah","El ‘Eleiqa",13.3333,32.5000,Sudan,SD,SDN,"White Nile","White Nile",SD-NW,state,,117.4,,,4,Africa/Khartoum,FALSE,1729458619
Ugheibish,Ugheibish,Ughaybish,10.8474,31.0850,Sudan,SD,SDN,"South Kordofan","South Kordofan",SD-KS,state,,5.6,,,5,Africa/Khartoum,FALSE,1729996332
Abag,Abag,,10.6715,24.9008,Sudan,SD,SDN,"South Darfur","South Darfur",SD-DS,state,,22.5,,,4,Africa/Khartoum,FALSE,1729332431
Maadam,Maadam,,18.1500,38.2833,Sudan,SD,SDN,"Red Sea","Red Sea",SD-RS,state,,18.3,,,4,Africa/Khartoum,FALSE,1729388258
Bergi,Bergi,,11.9564,23.2107,Sudan,SD,SDN,"Central Darfur","Central Darfur",SD-DC,state,,9.9,,,5,Africa/Khartoum,FALSE,1729689083
"Al Qifela","Al Qifela",,14.9086,32.8453,Sudan,SD,SDN,Gezira,Gezira,SD-GZ,state,,181.2,,,4,Africa/Khartoum,FALSE,1729917082
Buram,Buram,,10.6277,29.9433,Sudan,SD,SDN,"South Kordofan","South Kordofan",SD-KS,state,,9.2,,,5,Africa/Khartoum,FALSE,1729591664
Bagirma,Bagirma,,13.3333,24.9000,Sudan,SD,SDN,"North Darfur","North Darfur",SD-DN,state,,55.7,,,4,Africa/Khartoum,FALSE,1729786653
"‘Abd el Qadir","`Abd el Qadir",,15.0808,33.4806,Sudan,SD,SDN,Gezira,Gezira,SD-GZ,state,,88.3,,,4,Africa/Khartoum,FALSE,1729358973
Bumbil,Bumbil,,11.7833,23.0833,Sudan,SD,SDN,"Central Darfur","Central Darfur",SD-DC,state,,9.9,,,5,Africa/Khartoum,FALSE,1729836208
"Umm Rumaylah","Umm Rumaylah","Umm Rumeila",16.6333,34.5667,Sudan,SD,SDN,"River Nile","River Nile",SD-NR,state,,10.2,,,4,Africa/Khartoum,FALSE,1729777800
"Hillat al Kambo","Hillat al Kambo",,15.2368,32.4428,Sudan,SD,SDN,Khartoum,Khartoum,SD-KH,state,,600.1,,,3,Africa/Khartoum,FALSE,1729300126
"Al Kiter aṣ Ṣālḩāb","Al Kiter as Salhab",,13.7664,32.4125,Sudan,SD,SDN,"White Nile","White Nile",SD-NW,state,,66.6,,,4,Africa/Khartoum,FALSE,1729576392
"Um Kheren","Um Kheren",,12.6694,31.3264,Sudan,SD,SDN,"North Kordofan","North Kordofan",SD-KN,state,,39.2,,,4,Africa/Khartoum,FALSE,1729130712
"Um Kheren","Um Kheren",,12.9151,31.3533,Sudan,SD,SDN,"North Kordofan","North Kordofan",SD-KN,state,,39.2,,,4,Africa/Khartoum,TRUE,1729888098
Mas‘ud,Mas`ud,,14.4184,33.0120,Sudan,SD,SDN,Gezira,Gezira,SD-GZ,state,,163.2,,,4,Africa/Khartoum,FALSE,1729113647
"Dabbat at Tār","Dabbat at Tar",,12.1295,32.7282,Sudan,SD,SDN,"White Nile","White Nile",SD-NW,state,,20.7,,,4,Africa/Khartoum,FALSE,1729545521
‘Ajoba,`Ajoba,Agub|Agoba,14.2092,32.5817,Sudan,SD,SDN,Gezira,Gezira,SD-GZ,state,,163.2,,,4,Africa/Khartoum,FALSE,1729609287
Efish,Efish,Aifis,12.8570,31.8570,Sudan,SD,SDN,"White Nile","White Nile",SD-NW,state,,42.6,,,4,Africa/Khartoum,FALSE,1729358722
"Hillat Jurū","Hillat Juru",,11.4154,29.6454,Sudan,SD,SDN,"South Kordofan","South Kordofan",SD-KS,state,,9.2,,,5,Africa/Khartoum,FALSE,1729866968
Ballala,Ballala,,14.1361,33.4041,Sudan,SD,SDN,Gezira,Gezira,SD-GZ,state,,214.0,,,3,Africa/Khartoum,FALSE,1729269839
"Um Hidehid","Um Hidehid","Umm Hudayhid|Umm Hudeihid",12.8904,32.0083,Sudan,SD,SDN,"White Nile","White Nile",SD-NW,state,,42.6,,,4,Africa/Khartoum,FALSE,1729787016
"‘Adlān Godat","`Adlan Godat",,14.8500,33.6500,Sudan,SD,SDN,Gezira,Gezira,SD-GZ,state,,88.3,,,4,Africa/Khartoum,FALSE,1729654851
Saraḩnā,Sarahna,,13.7168,32.4231,Sudan,SD,SDN,"White Nile","White Nile",SD-NW,state,,66.6,,,4,Africa/Khartoum,FALSE,1729617997
"Kiter an Nifediyya","Kiter an Nifediyya",,14.1858,32.8704,Sudan,SD,SDN,Gezira,Gezira,SD-GZ,state,,163.2,,,4,Africa/Khartoum,FALSE,1729191184
Kadādah,Kadadah,Kadada,13.0667,30.8167,Sudan,SD,SDN,"North Kordofan","North Kordofan",SD-KN,state,,39.2,,,4,Africa/Khartoum,FALSE,1729504572
Qallāja,Qallaja,,13.5923,32.0122,Sudan,SD,SDN,"White Nile","White Nile",SD-NW,state,,66.6,,,4,Africa/Khartoum,FALSE,1729946471
Raga,Raga,,12.1491,22.9526,Sudan,SD,SDN,"Central Darfur","Central Darfur",SD-DC,state,,27.8,,,4,Africa/Khartoum,FALSE,1729025113
Raga,Raga,,11.9824,23.3430,Sudan,SD,SDN,"Central Darfur","Central Darfur",SD-DC,state,,9.9,,,5,Africa/Khartoum,TRUE,1729693633
"Hillat Wad ‘Ibed","Hillat Wad `Ibed",,16.4039,32.7828,Sudan,SD,SDN,"River Nile","River Nile",SD-NR,state,,30.3,,,4,Africa/Khartoum,FALSE,1729621803
Gundo,Gundo,,13.2468,22.4692,Sudan,SD,SDN,"West Darfur","West Darfur",SD-DW,state,,89.3,,,4,Africa/Khartoum,FALSE,1729934091
Zumām,Zumam,,14.0658,33.4891,Sudan,SD,SDN,Gezira,Gezira,SD-GZ,state,,214.0,,,3,Africa/Khartoum,FALSE,1729223544
Aroua,Aroua,,14.3417,22.4787,Sudan,SD,SDN,"West Darfur","West Darfur",SD-DW,state,,16.2,,,4,Africa/Khartoum,FALSE,1729491264
"El Fifi","El Fifi","Al Fifi|Afifi",10.0371,25.0223,Sudan,SD,SDN,"South Darfur","South Darfur",SD-DS,state,,1.2,,,5,Africa/Khartoum,FALSE,1729439309
Kododol,Kododol,,13.3387,22.2946,Sudan,SD,SDN,"West Darfur","West Darfur",SD-DW,state,,89.3,,,4,Africa/Khartoum,FALSE,1729249535
"Wad ‘Āyis","Wad `Ayis",,14.3331,32.9411,Sudan,SD,SDN,Gezira,Gezira,SD-GZ,state,,163.2,,,4,Africa/Khartoum,FALSE,1729651638
Ḩukūmah,Hukumah,Mujdadi|Hukuma,13.8667,36.1167,Sudan,SD,SDN,Gedaref,Gedaref,SD-GD,state,,26.4,,,4,Africa/Khartoum,FALSE,1729346107
Kuraydah,Kuraydah,Kereida,14.1167,35.9333,Sudan,SD,SDN,Gedaref,Gedaref,SD-GD,state,,26.5,,,4,Africa/Khartoum,FALSE,1729129058
"Abu Leileiya","Abu Leileiya","Abū Laylāyah",10.4299,24.9557,Sudan,SD,SDN,"South Darfur","South Darfur",SD-DS,state,,22.5,,,4,Africa/Khartoum,FALSE,1729234833
"Shebet Ardu","Shebet Ardu",,13.8593,22.3568,Sudan,SD,SDN,"West Darfur","West Darfur",SD-DW,state,,43.7,,,4,Africa/Khartoum,FALSE,1729450716
Safura,Safura,,12.0167,31.4667,Sudan,SD,SDN,"South Kordofan","South Kordofan",SD-KS,state,,8.6,,,5,Africa/Khartoum,FALSE,1729035094
"Hillat Umm Marih al Jadeda","Hillat Umm Marih al Jadeda",,15.1464,32.3982,Sudan,SD,SDN,"White Nile","White Nile",SD-NW,state,,63.1,,,4,Africa/Khartoum,FALSE,1729898309
Meinarti,Meinarti,,15.3833,35.5833,Sudan,SD,SDN,Kassala,Kassala,SD-KA,state,,185.9,,,4,Africa/Khartoum,FALSE,1729548277
"Um Jub","Um Jub",,13.3808,32.2906,Sudan,SD,SDN,"White Nile","White Nile",SD-NW,state,,117.4,,,4,Africa/Khartoum,FALSE,1729624675
"Al ‘Ayn","Al `Ayn","El ‘Ein",12.3833,30.6167,Sudan,SD,SDN,"North Kordofan","North Kordofan",SD-KN,state,,39.2,,,4,Africa/Khartoum,FALSE,1729412041
"Ḩammād Shuraym ad Dawm","Hammad Shuraym ad Dawm","Shureim Adam Hammad|Shureim ed Dom",13.7833,30.4333,Sudan,SD,SDN,"North Kordofan","North Kordofan",SD-KN,state,,21.8,,,4,Africa/Khartoum,FALSE,1729985366
Kubbī,Kubbi,,11.1333,25.2333,Sudan,SD,SDN,"South Darfur","South Darfur",SD-DS,state,,22.5,,,4,Africa/Khartoum,FALSE,1729926595
Salāmāt,Salamat,,16.5833,33.2333,Sudan,SD,SDN,"River Nile","River Nile",SD-NR,state,,30.3,,,4,Africa/Khartoum,FALSE,1729210187
Salāmāt,Salamat,,19.1333,32.5500,Sudan,SD,SDN,"River Nile","River Nile",SD-NR,state,,3.3,,,5,Africa/Khartoum,TRUE,1729328401
"Ash Shātāwi","Ash Shatawi",Shatawī,14.6462,32.1022,Sudan,SD,SDN,"White Nile","White Nile",SD-NW,state,,51.7,,,4,Africa/Khartoum,FALSE,1729703128
Adrur,Adrur,,15.1037,26.4085,Sudan,SD,SDN,"North Darfur","North Darfur",SD-DN,state,,1.3,,,5,Africa/Khartoum,FALSE,1729747690
"Abū Odham","Abu Odham",,13.5500,27.3833,Sudan,SD,SDN,"North Darfur","North Darfur",SD-DN,state,,11.1,,,4,Africa/Khartoum,FALSE,1729070606
Dameiso,Dameiso,,10.5929,23.4231,Sudan,SD,SDN,"South Darfur","South Darfur",SD-DS,state,,42.4,,,4,Africa/Khartoum,FALSE,1729034848
"‘Abd Al Malik","`Abd Al Malik",,14.9899,33.0804,Sudan,SD,SDN,Gezira,Gezira,SD-GZ,state,,275.1,,,3,Africa/Khartoum,FALSE,1729303012
Ḩufayrah,Hufayrah,Hufeira,14.1000,33.8333,Sudan,SD,SDN,Gezira,Gezira,SD-GZ,state,,68.9,,,4,Africa/Khartoum,FALSE,1729755067
Ghagan,Ghagan,,11.5338,23.1618,Sudan,SD,SDN,"Central Darfur","Central Darfur",SD-DC,state,,18.6,,,4,Africa/Khartoum,FALSE,1729393927
"Um Jumut","Um Jumut",,12.9529,31.5188,Sudan,SD,SDN,"North Kordofan","North Kordofan",SD-KN,state,,39.2,,,4,Africa/Khartoum,FALSE,1729570710
"Abu Hagar","Abu Hagar",,19.5500,30.4333,Sudan,SD,SDN,Northern,Northern,SD-NO,state,,79.2,,,4,Africa/Khartoum,FALSE,1729464604
Amiri,Amiri,,11.4333,34.9333,Sudan,SD,SDN,"Blue Nile","Blue Nile",SD-NB,state,,40.5,,,4,Africa/Khartoum,FALSE,1729691827
Ţābat,Tabat,,12.8812,33.9943,Sudan,SD,SDN,Sennar,Sennar,SD-SI,state,,42.8,,,4,Africa/Khartoum,FALSE,1729076054
Tabat,Tabat,Tabet,13.3667,34.0667,Sudan,SD,SDN,Sennar,Sennar,SD-SI,state,,16.9,,,4,Africa/Khartoum,TRUE,1729705422
"Al Mirebī‘a","Al Mirebi`a",Marabba,12.3017,34.3429,Sudan,SD,SDN,"Blue Nile","Blue Nile",SD-NB,state,,167.0,,,4,Africa/Khartoum,FALSE,1729292652
"Um Salāla","Um Salala",,12.8484,35.1733,Sudan,SD,SDN,Sennar,Sennar,SD-SI,state,,52.0,,,4,Africa/Khartoum,FALSE,1729636928
Qirid,Qirid,,11.0140,31.6972,Sudan,SD,SDN,"South Kordofan","South Kordofan",SD-KS,state,,8.6,,,5,Africa/Khartoum,FALSE,1729122547
Teleihun,Teleihun,,10.9167,25.2667,Sudan,SD,SDN,"South Darfur","South Darfur",SD-DS,state,,22.5,,,4,Africa/Khartoum,FALSE,1729836934
"Qaryah Thalāthan","Qaryah Thalathan","Debeira|Qaryah 3|Diberah",15.1829,35.7248,Sudan,SD,SDN,Kassala,Kassala,SD-KA,state,,185.9,,,4,Africa/Khartoum,FALSE,1729213101
Anjadu,Anjadu,,14.8327,33.1691,Sudan,SD,SDN,Gezira,Gezira,SD-GZ,state,,181.2,,,4,Africa/Khartoum,FALSE,1729358639
Ţabat,Tabat,,12.3532,31.3675,Sudan,SD,SDN,"South Kordofan","South Kordofan",SD-KS,state,,25.2,,,4,Africa/Khartoum,FALSE,1729474991
Abaka,Abaka,,14.3452,22.5461,Sudan,SD,SDN,"West Darfur","West Darfur",SD-DW,state,,16.2,,,4,Africa/Khartoum,FALSE,1729663057
"Bint Ghabat","Bint Ghabat","Bint Ghābāt|Bint Hahab|Bint Habab",10.9393,31.1453,Sudan,SD,SDN,"South Kordofan","South Kordofan",SD-KS,state,,5.6,,,4,Africa/Khartoum,FALSE,1729003082
"Qoz Abu Shanab","Qoz Abu Shanab",,12.8635,31.6444,Sudan,SD,SDN,"North Kordofan","North Kordofan",SD-KN,state,,39.2,,,4,Africa/Khartoum,FALSE,1729428828
Bayyūḑah,Bayyudah,Baiyuda,19.2500,30.1167,Sudan,SD,SDN,Northern,Northern,SD-NO,state,,4.0,,,5,Africa/Khartoum,FALSE,1729039653
Dalawat,Dalawat,,14.6221,33.4161,Sudan,SD,SDN,Gezira,Gezira,SD-GZ,state,,113.9,,,4,Africa/Khartoum,FALSE,1729720769
"‘Idd al Ghanam","`Idd al Ghanam","‘Idd el Ghanam",11.4833,24.3500,Sudan,SD,SDN,"South Darfur","South Darfur",SD-DS,state,,110.9,,,4,Africa/Khartoum,FALSE,1729698537
"Umm Quneitir","Umm Quneitir",,15.1639,33.5364,Sudan,SD,SDN,Gezira,Gezira,SD-GZ,state,,88.3,,,4,Africa/Khartoum,FALSE,1729718984
Karbaka,Karbaka,,18.9500,32.4000,Sudan,SD,SDN,"River Nile","River Nile",SD-NR,state,,3.3,,,5,Africa/Khartoum,FALSE,1729029411
"Abū Dawm","Abu Dawm","Abu Dom",17.9667,31.1667,Sudan,SD,SDN,Northern,Northern,SD-NO,state,,4.2,,,5,Africa/Khartoum,FALSE,1729791114
Kelesaikal,Kelesaikal,,19.4833,33.2833,Sudan,SD,SDN,"River Nile","River Nile",SD-NR,state,,3.3,,,5,Africa/Khartoum,FALSE,1729905241
"Hillat Barakat","Hillat Barakat",,15.1281,32.9606,Sudan,SD,SDN,Gezira,Gezira,SD-GZ,state,,275.1,,,3,Africa/Khartoum,FALSE,1729117893
Korei,Korei,,12.9181,23.3582,Sudan,SD,SDN,"Central Darfur","Central Darfur",SD-DC,state,,16.1,,,4,Africa/Khartoum,FALSE,1729373888
Eina,Eina,,12.2667,27.9833,Sudan,SD,SDN,"West Kordofan","West Kordofan",SD-GK,state,,27.5,,,4,Africa/Khartoum,FALSE,1729237732
"Al Masā‘īd","Al Masa`id",,12.8311,31.5172,Sudan,SD,SDN,"North Kordofan","North Kordofan",SD-KN,state,,39.2,,,4,Africa/Khartoum,FALSE,1729605134
"Kambu Sa‘dān","Kambu Sa`dan",,14.0331,32.6386,Sudan,SD,SDN,Gezira,Gezira,SD-GZ,state,,163.2,,,4,Africa/Khartoum,FALSE,1729177231
"Ad Dibeba","Ad Dibeba","Dubeiba ed Dubasiyin|Dubeiba|Dubaybat ad Dubasiyin",14.9550,33.0176,Sudan,SD,SDN,Gezira,Gezira,SD-GZ,state,,275.1,,,3,Africa/Khartoum,FALSE,1729655077
"Ad Dibeba","Ad Dibeba",,14.5015,32.9278,Sudan,SD,SDN,Gezira,Gezira,SD-GZ,state,,163.2,,,4,Africa/Khartoum,TRUE,1729415706
"Al Matawrad","Al Matawrad","El Matawrad",11.9333,25.9333,Sudan,SD,SDN,"East Darfur","East Darfur",SD-DE,state,,73.1,,,4,Africa/Khartoum,FALSE,1729827240
Sibelāt,Sibelat,,12.8680,32.2180,Sudan,SD,SDN,"White Nile","White Nile",SD-NW,state,,42.6,,,4,Africa/Khartoum,FALSE,1729540443
"Al Khiḑera","Al Khidera",,12.7576,31.8370,Sudan,SD,SDN,"White Nile","White Nile",SD-NW,state,,42.6,,,4,Africa/Khartoum,FALSE,1729582215
Kudayn,Kudayn,Kadein,19.9667,30.5667,Sudan,SD,SDN,Northern,Northern,SD-NO,state,,0.9,,,5,Africa/Khartoum,FALSE,1729754961
"Um Shambo","Um Shambo",,13.0497,32.0763,Sudan,SD,SDN,"White Nile","White Nile",SD-NW,state,,42.6,,,4,Africa/Khartoum,FALSE,1729947324
"Aj ‘Jimayyil","Aj `Jimayyil",,14.1653,32.5643,Sudan,SD,SDN,Gezira,Gezira,SD-GZ,state,,163.2,,,4,Africa/Khartoum,FALSE,1729054662
"Al Hakamab West","Al Hakamab West","El Hakamab West|Al Hakamab Wadi",16.1042,32.5469,Sudan,SD,SDN,Khartoum,Khartoum,SD-KH,state,,339.5,,,3,Africa/Khartoum,FALSE,1729191831
Kasea,Kasea,,18.1833,30.7667,Sudan,SD,SDN,Northern,Northern,SD-NO,state,,4.2,,,5,Africa/Khartoum,FALSE,1729635652
"Abū Shawk","Abu Shawk","Abu Shok",13.9500,31.0833,Sudan,SD,SDN,"North Kordofan","North Kordofan",SD-KN,state,,21.8,,,4,Africa/Khartoum,FALSE,1729595365
"Hillat Umm Owena","Hillat Umm Owena",,15.3796,32.4518,Sudan,SD,SDN,Khartoum,Khartoum,SD-KH,state,,600.1,,,3,Africa/Khartoum,FALSE,1729037668
Shiqela,Shiqela,Shuqaylah|Shegeila,14.1012,33.4081,Sudan,SD,SDN,Gezira,Gezira,SD-GZ,state,,214.0,,,3,Africa/Khartoum,FALSE,1729350433
‘Ibōd,`Ibod,‘Abud,14.2310,33.1335,Sudan,SD,SDN,Gezira,Gezira,SD-GZ,state,,163.2,,,4,Africa/Khartoum,FALSE,1729667102
Tagga,Tagga,,12.4667,25.2667,Sudan,SD,SDN,"South Darfur","South Darfur",SD-DS,state,,81.6,,,4,Africa/Khartoum,FALSE,1729163184
Meshergen,Meshergen,,10.8333,34.8333,Sudan,SD,SDN,"Blue Nile","Blue Nile",SD-NB,state,,39.4,,,4,Africa/Khartoum,FALSE,1729030547
Istereina,Istereina,,14.1851,22.7090,Sudan,SD,SDN,"West Darfur","West Darfur",SD-DW,state,,16.2,,,4,Africa/Khartoum,FALSE,1729205554
"Hillat Kagareb","Hillat Kagareb",,18.2534,37.8235,Sudan,SD,SDN,"Red Sea","Red Sea",SD-RS,state,,18.3,,,4,Africa/Khartoum,FALSE,1729953873
Aramta,Aramta,,13.1821,22.4447,Sudan,SD,SDN,"West Darfur","West Darfur",SD-DW,state,,89.3,,,4,Africa/Khartoum,FALSE,1729911056
Aramta,Aramta,,12.7497,22.4478,Sudan,SD,SDN,"West Darfur","West Darfur",SD-DW,state,,41.6,,,4,Africa/Khartoum,TRUE,1729137707
Kīrān,Kiran,,12.5789,34.1904,Sudan,SD,SDN,Sennar,Sennar,SD-SI,state,,94.5,,,4,Africa/Khartoum,FALSE,1729379503
"Umm Mulayḩah","Umm Mulayhah","Umm Muleiha",13.9667,32.9500,Sudan,SD,SDN,Gezira,Gezira,SD-GZ,state,,163.2,,,4,Africa/Khartoum,FALSE,1729704161
"Umm Sinēnā","Umm Sinena",,11.4126,29.9836,Sudan,SD,SDN,"South Kordofan","South Kordofan",SD-KS,state,,14.3,,,4,Africa/Khartoum,FALSE,1729443055
Bunnai,Bunnai,,10.3864,25.4374,Sudan,SD,SDN,"South Darfur","South Darfur",SD-DS,state,,22.5,,,4,Africa/Khartoum,FALSE,1729090941
Salīma,Salima,Salīmah|Selīma|Seleima,13.0094,32.0477,Sudan,SD,SDN,"White Nile","White Nile",SD-NW,state,,42.6,,,4,Africa/Khartoum,FALSE,1729130467
"Hillat as Sanjak","Hillat as Sanjak",,11.6101,30.3423,Sudan,SD,SDN,"South Kordofan","South Kordofan",SD-KS,state,,14.3,,,4,Africa/Khartoum,FALSE,1729708148
"Ḩillat Al Faki","Hillat Al Faki",,14.6646,33.3723,Sudan,SD,SDN,Gezira,Gezira,SD-GZ,state,,181.2,,,4,Africa/Khartoum,FALSE,1729335403
"Aḩmad al Muşţafa","Ahmad al Mustafa",,14.1998,32.7403,Sudan,SD,SDN,Gezira,Gezira,SD-GZ,state,,163.2,,,4,Africa/Khartoum,FALSE,1729908205
Joku,Joku,,12.9667,30.1667,Sudan,SD,SDN,"North Kordofan","North Kordofan",SD-KN,state,,88.4,,,4,Africa/Khartoum,FALSE,1729588954
"Abū Dulayq","Abu Dulayq","Abu Deleig|Abu Deleiq",15.8968,33.8145,Sudan,SD,SDN,Khartoum,Khartoum,SD-KH,state,,126.3,,,4,Africa/Khartoum,FALSE,1729285454
"Umm an Nār","Umm an Nar","Umm en Nar|Umm Nar",12.0000,31.4833,Sudan,SD,SDN,"South Kordofan","South Kordofan",SD-KS,state,,8.6,,,5,Africa/Khartoum,FALSE,1729323692
"Ar Riqeba Sharq","Ar Riqeba Sharq","Er Ruqeiba|Ar Ruqaybah",11.6609,34.3922,Sudan,SD,SDN,"Blue Nile","Blue Nile",SD-NB,state,,40.5,,,4,Africa/Khartoum,FALSE,1729267720
Balanj,Balanj,,12.9617,31.9225,Sudan,SD,SDN,"White Nile","White Nile",SD-NW,state,,42.6,,,4,Africa/Khartoum,FALSE,1729620291
"Es Sihan","Es Sihan",,19.5167,33.2333,Sudan,SD,SDN,"River Nile","River Nile",SD-NR,state,,3.3,,,5,Africa/Khartoum,FALSE,1729711172
Turmana,Turmana,,10.8129,24.6537,Sudan,SD,SDN,"South Darfur","South Darfur",SD-DS,state,,222.8,,,3,Africa/Khartoum,FALSE,1729157073
Şifer,Sifer,,14.0795,33.1971,Sudan,SD,SDN,Gezira,Gezira,SD-GZ,state,,163.2,,,4,Africa/Khartoum,FALSE,1729688528
"Al Lubeik","Al Lubeik","El Libeik",15.1167,32.4500,Sudan,SD,SDN,"White Nile","White Nile",SD-NW,state,,63.1,,,4,Africa/Khartoum,FALSE,1729783562
Tabsa,Tabsa,,12.3665,31.2474,Sudan,SD,SDN,"South Kordofan","South Kordofan",SD-KS,state,,25.2,,,4,Africa/Khartoum,FALSE,1729189676
Kabr,Kabr,,10.9000,26.8333,Sudan,SD,SDN,"East Darfur","East Darfur",SD-DE,state,,26.4,,,4,Africa/Khartoum,FALSE,1729747675
"At Timet","At Timet",,14.8060,33.2217,Sudan,SD,SDN,Gezira,Gezira,SD-GZ,state,,181.2,,,4,Africa/Khartoum,FALSE,1729492993
Gwimana,Gwimana,,12.0161,22.9369,Sudan,SD,SDN,"Central Darfur","Central Darfur",SD-DC,state,,14.0,,,4,Africa/Khartoum,FALSE,1729018463
"Um Hijelīja","Um Hijelija",,14.0658,32.6113,Sudan,SD,SDN,Gezira,Gezira,SD-GZ,state,,163.2,,,4,Africa/Khartoum,FALSE,1729733542
Fariq,Fariq,,12.6970,22.1617,Sudan,SD,SDN,"West Darfur","West Darfur",SD-DW,state,,38.4,,,4,Africa/Khartoum,FALSE,1729078377
"Umm Ghafur","Umm Ghafur",,19.0167,32.4500,Sudan,SD,SDN,"River Nile","River Nile",SD-NR,state,,3.3,,,5,Africa/Khartoum,FALSE,1729238407
"Hillat al Moqdab","Hillat al Moqdab",Mugdab,15.2587,32.4406,Sudan,SD,SDN,Khartoum,Khartoum,SD-KH,state,,600.1,,,3,Africa/Khartoum,FALSE,1729943169
"Ras al Fil","Ras al Fil",,11.8833,30.6583,Sudan,SD,SDN,"South Kordofan","South Kordofan",SD-KS,state,,25.2,,,4,Africa/Khartoum,FALSE,1729734763
"Ras al Fil","Ras al Fil",,11.8929,29.7057,Sudan,SD,SDN,"South Kordofan","South Kordofan",SD-KS,state,,14.3,,,4,Africa/Khartoum,TRUE,1729992219
"Al Majābi","Al Majabi",,12.4095,32.8212,Sudan,SD,SDN,"White Nile","White Nile",SD-NW,state,,57.5,,,4,Africa/Khartoum,FALSE,1729443859
Tūtī,Tuti,,15.6167,32.5167,Sudan,SD,SDN,Khartoum,Khartoum,SD-KH,state,,263.8,,,3,Africa/Khartoum,FALSE,1729971501
"Duweishat West","Duweishat West",,21.3667,30.9500,Sudan,SD,SDN,Northern,Northern,SD-NO,state,,0.3,,,5,Africa/Khartoum,FALSE,1729690071
"Fēd Annabag","Fed Annabag",,11.1673,29.9059,Sudan,SD,SDN,"South Kordofan","South Kordofan",SD-KS,state,,9.2,,,5,Africa/Khartoum,FALSE,1729262356
Mayda,Mayda,,11.5591,29.6165,Sudan,SD,SDN,"South Kordofan","South Kordofan",SD-KS,state,,14.3,,,4,Africa/Khartoum,FALSE,1729583740
"Ţayyibat Jabrīn","Tayyibat Jabrin","Taiyiba Gabrin",12.2000,34.3333,Sudan,SD,SDN,"Blue Nile","Blue Nile",SD-NB,state,,167.0,,,4,Africa/Khartoum,FALSE,1729055472
"Aş Şaqr","As Saqr","Es Saqr",11.5833,26.9500,Sudan,SD,SDN,"East Darfur","East Darfur",SD-DE,state,,26.4,,,4,Africa/Khartoum,FALSE,1729433818
"Ej Jayli","Ej Jayli","El Geili|Geili|Al Jaylī|El Jayli",16.0122,32.5739,Sudan,SD,SDN,Khartoum,Khartoum,SD-KH,state,,263.8,,,3,Africa/Khartoum,FALSE,1729509912
Mashţūrey,Mashturey,,12.0503,31.0610,Sudan,SD,SDN,"South Kordofan","South Kordofan",SD-KS,state,,25.2,,,4,Africa/Khartoum,FALSE,1729537116
"Hillat Shayab","Hillat Shayab",,18.2330,38.1224,Sudan,SD,SDN,"Red Sea","Red Sea",SD-RS,state,,18.3,,,4,Africa/Khartoum,FALSE,1729251676
"Fareq el Hawaweit","Fareq el Hawaweit",,16.2235,32.6812,Sudan,SD,SDN,Khartoum,Khartoum,SD-KH,state,,263.8,,,3,Africa/Khartoum,FALSE,1729364273
"Umm Kaddādah","Umm Kaddadah","Umm Keddada|Um Kaddada",13.6000,26.7000,Sudan,SD,SDN,"North Darfur","North Darfur",SD-DN,state,,11.1,,,4,Africa/Khartoum,FALSE,1729971044
"Al ‘Amarad","Al `Amarad",,12.3402,32.5243,Sudan,SD,SDN,"White Nile","White Nile",SD-NW,state,,15.6,,,4,Africa/Khartoum,FALSE,1729065227
"Hillat Ra‘","Hillat Ra`",,15.1731,32.8935,Sudan,SD,SDN,Gezira,Gezira,SD-GZ,state,,275.1,,,3,Africa/Khartoum,FALSE,1729452332
"El Kmer","El Kmer",,16.7637,33.4906,Sudan,SD,SDN,"River Nile","River Nile",SD-NR,state,,21.8,,,4,Africa/Khartoum,FALSE,1729938608
"Qaryah Wāhid","Qaryah Wahid",,15.1398,35.7253,Sudan,SD,SDN,Kassala,Kassala,SD-KA,state,,185.9,,,4,Africa/Khartoum,FALSE,1729875430
"Qaryah Wāḩid","Qaryah Wahid",,15.5512,35.5068,Sudan,SD,SDN,Kassala,Kassala,SD-KA,state,,185.9,,,4,Africa/Khartoum,TRUE,1729656565
"Aliba Taringa","Aliba Taringa",,12.6451,24.2014,Sudan,SD,SDN,"South Darfur","South Darfur",SD-DS,state,,86.2,,,4,Africa/Khartoum,FALSE,1729238717
"Abū Shām","Abu Sham",,15.0692,33.4989,Sudan,SD,SDN,Gezira,Gezira,SD-GZ,state,,88.3,,,4,Africa/Khartoum,FALSE,1729352721
"Hillat al Fikire Kheir","Hillat al Fikire Kheir",,15.1601,32.7597,Sudan,SD,SDN,Gezira,Gezira,SD-GZ,state,,275.1,,,3,Africa/Khartoum,FALSE,1729486377
"Qaryah al Laban","Qaryah al Laban","El Leben|Leben|Al Laban",15.1858,35.8385,Sudan,SD,SDN,Kassala,Kassala,SD-KA,state,,11.0,,,4,Africa/Khartoum,FALSE,1729007054
Rufā‘a,Rufa`a,,14.2384,32.9719,Sudan,SD,SDN,Gezira,Gezira,SD-GZ,state,,163.2,,,4,Africa/Khartoum,FALSE,1729722988
Rufā‘a,Rufa`a,Rufā‘ah,14.7660,33.3634,Sudan,SD,SDN,Gezira,Gezira,SD-GZ,state,,88.3,,,4,Africa/Khartoum,TRUE,1729878399
Tungaru,Tungaru,Tanqaru,10.2328,30.6925,Sudan,SD,SDN,"South Kordofan","South Kordofan",SD-KS,state,,5.6,,,5,Africa/Khartoum,FALSE,1729075187
Fāqa,Faqa,,13.0157,32.3318,Sudan,SD,SDN,"White Nile","White Nile",SD-NW,state,,42.6,,,4,Africa/Khartoum,FALSE,1729962572
"Muḩammad ‘Alī","Muhammad `Ali",,14.5667,29.0833,Sudan,SD,SDN,"North Kordofan","North Kordofan",SD-KN,state,,4.5,,,5,Africa/Khartoum,FALSE,1729036553
Ghireqa,Ghireqa,,12.8954,31.9181,Sudan,SD,SDN,"White Nile","White Nile",SD-NW,state,,42.6,,,4,Africa/Khartoum,FALSE,1729105792
"Dār As Salām","Dar As Salam",,12.9621,33.9765,Sudan,SD,SDN,Sennar,Sennar,SD-SI,state,,44.2,,,4,Africa/Khartoum,FALSE,1729938888
"Shaqq al Gawad","Shaqq al Gawad","Shaqq el Gawad",12.4333,25.9167,Sudan,SD,SDN,"East Darfur","East Darfur",SD-DE,state,,50.4,,,4,Africa/Khartoum,FALSE,1729889946
"Habis el Humar","Habis el Humar","Ḩabīs al Ḩumar",10.9765,31.2224,Sudan,SD,SDN,"South Kordofan","South Kordofan",SD-KS,state,,5.6,,,5,Africa/Khartoum,FALSE,1729769630
Katul,Katul,,12.5465,23.3351,Sudan,SD,SDN,"Central Darfur","Central Darfur",SD-DC,state,,27.8,,,4,Africa/Khartoum,FALSE,1729799891
‘Abata,`Abata,,13.1599,23.6353,Sudan,SD,SDN,"Central Darfur","Central Darfur",SD-DC,state,,16.1,,,4,Africa/Khartoum,FALSE,1729652832
Bagadi,Bagadi,,14.2167,33.6167,Sudan,SD,SDN,Gezira,Gezira,SD-GZ,state,,214.0,,,3,Africa/Khartoum,FALSE,1729219311
"Um Hassan","Um Hassan",,13.3447,32.0834,Sudan,SD,SDN,"White Nile","White Nile",SD-NW,state,,42.6,,,4,Africa/Khartoum,FALSE,1729636616
Pomfa,Pomfa,,11.3000,34.1333,Sudan,SD,SDN,"Blue Nile","Blue Nile",SD-NB,state,,25.8,,,4,Africa/Khartoum,FALSE,1729755479
"La‘ota Ba‘ūḑah","La`ota Ba`udah","La‘ota Ba‘uda",15.3500,32.5833,Sudan,SD,SDN,Khartoum,Khartoum,SD-KH,state,,1734.9,,,3,Africa/Khartoum,FALSE,1729683348
Arheit,Arheit,,18.1683,38.2557,Sudan,SD,SDN,"Red Sea","Red Sea",SD-RS,state,,18.3,,,4,Africa/Khartoum,FALSE,1729686627
"Umm Shawkah","Umm Shawkah","Umm Shoka",13.3167,33.7667,Sudan,SD,SDN,Sennar,Sennar,SD-SI,state,,112.7,,,4,Africa/Khartoum,FALSE,1729569020
"Um Shadīda","Um Shadida","Umm Shadīdah|Umm Shadida",14.2783,32.7655,Sudan,SD,SDN,Gezira,Gezira,SD-GZ,state,,163.2,,,4,Africa/Khartoum,FALSE,1729858125
"Um Shadīda","Um Shadida",,14.4337,32.6514,Sudan,SD,SDN,Gezira,Gezira,SD-GZ,state,,163.2,,,4,Africa/Khartoum,TRUE,1729443701
"Al Uzayriq","Al Uzayriq","El Uzeiriq|El Uzeing",11.9667,31.4333,Sudan,SD,SDN,"South Kordofan","South Kordofan",SD-KS,state,,8.6,,,5,Africa/Khartoum,FALSE,1729527127
"Az Zunqāḩa","Az Zunqaha",,13.2416,32.3454,Sudan,SD,SDN,"White Nile","White Nile",SD-NW,state,,117.4,,,4,Africa/Khartoum,FALSE,1729177228
"Girra Barra","Girra Barra",,18.0333,31.0500,Sudan,SD,SDN,Northern,Northern,SD-NO,state,,4.2,,,5,Africa/Khartoum,FALSE,1729584307
Munyiner,Munyiner,,13.8000,25.7833,Sudan,SD,SDN,"North Darfur","North Darfur",SD-DN,state,,55.7,,,4,Africa/Khartoum,FALSE,1729357757
"Um Ribeq","Um Ribeq",,13.4802,32.2502,Sudan,SD,SDN,"White Nile","White Nile",SD-NW,state,,117.4,,,4,Africa/Khartoum,FALSE,1729064716
Tur,Tur,,12.5660,23.0114,Sudan,SD,SDN,"Central Darfur","Central Darfur",SD-DC,state,,27.8,,,4,Africa/Khartoum,FALSE,1729828263
Sania,Sania,Sāniyah,10.8315,31.0792,Sudan,SD,SDN,"South Kordofan","South Kordofan",SD-KS,state,,5.6,,,5,Africa/Khartoum,FALSE,1729621596
"Ḩarā’iz an Nefeidiya","Hara'iz an Nefeidiya","Heraiz en Nefeidiya",14.2000,33.7667,Sudan,SD,SDN,Gezira,Gezira,SD-GZ,state,,68.9,,,4,Africa/Khartoum,FALSE,1729831823
"Wa‘rat az Zurq","Wa`rat az Zurq","Wa‘arat ez Zuruq",14.3500,31.8500,Sudan,SD,SDN,"White Nile","White Nile",SD-NW,state,,51.7,,,4,Africa/Khartoum,FALSE,1729322830
"Qawz adh Dhi’b","Qawz adh Dhi'b","Qoz ed Dib",13.6667,26.7333,Sudan,SD,SDN,"North Darfur","North Darfur",SD-DN,state,,11.1,,,4,Africa/Khartoum,FALSE,1729919074
"Wad Jum‘ah","Wad Jum`ah","Wad Gum‘a",10.1667,34.1500,Sudan,SD,SDN,"Blue Nile","Blue Nile",SD-NB,state,,16.4,,,4,Africa/Khartoum,FALSE,1729978682
Ḩajar,Hajar,Hagar,15.1167,24.2167,Sudan,SD,SDN,"North Darfur","North Darfur",SD-DN,state,,1.3,,,5,Africa/Khartoum,FALSE,1729942545
Talḩāya,Talhaya,,12.5968,32.5431,Sudan,SD,SDN,"White Nile","White Nile",SD-NW,state,,15.6,,,4,Africa/Khartoum,FALSE,1729700729
"Al Biri","Al Biri","Al Birri",15.0000,26.7500,Sudan,SD,SDN,"North Darfur","North Darfur",SD-DN,state,,1.3,,,5,Africa/Khartoum,FALSE,1729217046
Salinga,Salinga,,13.4699,24.8842,Sudan,SD,SDN,"North Darfur","North Darfur",SD-DN,state,,55.7,,,4,Africa/Khartoum,FALSE,1729623732
Baqbaqah,Baqbaqah,Bagbaga,13.9667,36.0500,Sudan,SD,SDN,Gedaref,Gedaref,SD-GD,state,,26.4,,,4,Africa/Khartoum,FALSE,1729121929
Kudanga,Kudanga,,13.3565,24.3074,Sudan,SD,SDN,"North Darfur","North Darfur",SD-DN,state,,5.6,,,5,Africa/Khartoum,FALSE,1729326830
Kadabas,Kadabas,,17.9658,33.9564,Sudan,SD,SDN,"River Nile","River Nile",SD-NR,state,,15.1,,,4,Africa/Khartoum,FALSE,1729451250
"Wāḩat an Nukhaylah","Wahat an Nukhaylah","Wahat An Nukhila",19.0500,26.3167,Sudan,SD,SDN,"North Darfur","North Darfur",SD-DN,state,,1.3,,,5,Africa/Khartoum,FALSE,1729180979
Abbakar,Abbakar,,14.1828,33.4715,Sudan,SD,SDN,Gezira,Gezira,SD-GZ,state,,214.0,,,3,Africa/Khartoum,FALSE,1729013041
"Wad Qinjāri","Wad Qinjari",,14.0369,32.9527,Sudan,SD,SDN,Gezira,Gezira,SD-GZ,state,,163.2,,,4,Africa/Khartoum,FALSE,1729734130
"Um Shukkāba","Um Shukkaba","Umm Shukkaba",12.9250,31.8261,Sudan,SD,SDN,"White Nile","White Nile",SD-NW,state,,42.6,,,4,Africa/Khartoum,FALSE,1729746404
"Al Jurayf","Al Jurayf","El Gereif",19.0167,33.5500,Sudan,SD,SDN,"River Nile","River Nile",SD-NR,state,,3.3,,,5,Africa/Khartoum,FALSE,1729438266
"Ar Ramla","Ar Ramla",,11.8665,31.0827,Sudan,SD,SDN,"South Kordofan","South Kordofan",SD-KS,state,,25.2,,,4,Africa/Khartoum,FALSE,1729038602
Darāfisah,Darafisah,Derafisa,13.3833,31.9833,Sudan,SD,SDN,"North Kordofan","North Kordofan",SD-KN,state,,39.3,,,4,Africa/Khartoum,FALSE,1729645348
"Abū Turay‘ah","Abu Turay`ah","Abu Turei‘a",13.5333,28.9000,Sudan,SD,SDN,"West Kordofan","West Kordofan",SD-GK,state,,22.4,,,4,Africa/Khartoum,FALSE,1729694290
Murr,Murr,,11.6833,24.5667,Sudan,SD,SDN,"South Darfur","South Darfur",SD-DS,state,,110.9,,,4,Africa/Khartoum,FALSE,1729594882
Luba,Luba,,11.0500,29.4833,Sudan,SD,SDN,"South Kordofan","South Kordofan",SD-KS,state,,9.2,,,5,Africa/Khartoum,FALSE,1729745930
Muwayliḩ,Muwaylih,Muweilih,11.3667,31.0167,Sudan,SD,SDN,"South Kordofan","South Kordofan",SD-KS,state,,8.6,,,5,Africa/Khartoum,FALSE,1729410736
"Abū Ḩirāb","Abu Hirab","Abu Hurab",12.4667,34.2500,Sudan,SD,SDN,Sennar,Sennar,SD-SI,state,,95.0,,,4,Africa/Khartoum,FALSE,1729716777
"Abu Shotāl","Abu Shotal",,12.8463,34.0537,Sudan,SD,SDN,Sennar,Sennar,SD-SI,state,,42.7,,,4,Africa/Khartoum,FALSE,1729895805
"El Barun","El Barun","Al Barun",11.7283,33.4892,Sudan,SD,SDN,"Blue Nile","Blue Nile",SD-NB,state,,14.5,,,4,Africa/Khartoum,FALSE,1729946036
Ḩajlījah,Hajlijah,Hegliga,14.3667,33.6167,Sudan,SD,SDN,Gezira,Gezira,SD-GZ,state,,924.3,,,3,Africa/Khartoum,FALSE,1729435215
"Al Kadū","Al Kadu",,11.1251,29.8982,Sudan,SD,SDN,"South Kordofan","South Kordofan",SD-KS,state,,9.2,,,5,Africa/Khartoum,FALSE,1729931503
"Wirim Bau","Wirim Bau",,12.7369,23.4312,Sudan,SD,SDN,"Central Darfur","Central Darfur",SD-DC,state,,16.1,,,4,Africa/Khartoum,FALSE,1729939382
"Al Hajarraj","Al Hajarraj",,12.7931,32.7159,Sudan,SD,SDN,"White Nile","White Nile",SD-NW,state,,117.4,,,4,Africa/Khartoum,FALSE,1729938315
Bagras,Bagras,,13.3833,34.0333,Sudan,SD,SDN,Sennar,Sennar,SD-SI,state,,16.9,,,4,Africa/Khartoum,FALSE,1729763412
Magrur,Magrur,Majrūr,15.0460,30.5167,Sudan,SD,SDN,"North Kordofan","North Kordofan",SD-KN,state,,6.2,,,5,Africa/Khartoum,FALSE,1729783388
"Al Kāmilīn","Al Kamilin","El Kamlin|Al Kamlin",15.0778,33.1778,Sudan,SD,SDN,Gezira,Gezira,SD-GZ,state,,275.1,,,3,Africa/Khartoum,FALSE,1729683763
Kākamūta,Kakamuta,,12.7363,35.4506,Sudan,SD,SDN,Gedaref,Gedaref,SD-GD,state,,25.4,,,4,Africa/Khartoum,FALSE,1729588091
Garōra,Garora,Qarora|Karora,17.7004,38.3630,Sudan,SD,SDN,"Red Sea","Red Sea",SD-RS,state,,18.3,,,4,Africa/Khartoum,FALSE,1729461897
"Farig Wlad Khalid Wad Ibrahim","Farig Wlad Khalid Wad Ibrahim",,15.6117,33.2824,Sudan,SD,SDN,Khartoum,Khartoum,SD-KH,state,,126.3,,,4,Africa/Khartoum,FALSE,1729667799
Salūm,Salum,Sallom,19.3894,37.1108,Sudan,SD,SDN,"Red Sea","Red Sea",SD-RS,state,,2.8,,,5,Africa/Khartoum,FALSE,1729795823
Kereiti,Kereiti,,18.9833,32.4333,Sudan,SD,SDN,"River Nile","River Nile",SD-NR,state,,3.3,,,5,Africa/Khartoum,FALSE,1729791433
"Um Duwānā Allaḩāmda","Um Duwana Allahamda","Umm Duwana",14.5384,33.0667,Sudan,SD,SDN,Gezira,Gezira,SD-GZ,state,,181.2,,,4,Africa/Khartoum,FALSE,1729802647
Sali,Sali,,10.7833,34.1833,Sudan,SD,SDN,"Blue Nile","Blue Nile",SD-NB,state,,16.4,,,4,Africa/Khartoum,FALSE,1729344419
"El Gohara","El Gohara","Gohur|Al Jawharah|Gokhur",10.3492,30.7161,Sudan,SD,SDN,"South Kordofan","South Kordofan",SD-KS,state,,5.6,,,4,Africa/Khartoum,FALSE,1729021528
Sali,Sali,,18.6500,30.5667,Sudan,SD,SDN,Northern,Northern,SD-NO,state,,1.5,,,5,Africa/Khartoum,FALSE,1729189301
"Ed Dayomab","Ed Dayomab",,16.4097,32.7933,Sudan,SD,SDN,"River Nile","River Nile",SD-NR,state,,30.3,,,4,Africa/Khartoum,FALSE,1729041986
Kajalangi,Kajalangi,,12.9200,22.4806,Sudan,SD,SDN,"West Darfur","West Darfur",SD-DW,state,,41.6,,,4,Africa/Khartoum,FALSE,1729187280
"Al ‘Ushara","Al `Ushara",‘Ushara|‘Usharah,14.4651,32.4207,Sudan,SD,SDN,"White Nile","White Nile",SD-NW,state,,148.9,,,4,Africa/Khartoum,FALSE,1729048292
Mulbas,Mulbas,,13.0167,30.2333,Sudan,SD,SDN,"North Kordofan","North Kordofan",SD-KN,state,,88.4,,,4,Africa/Khartoum,FALSE,1729886076
"Ar Raddah","Ar Raddah","Er Rudda|Rudda",14.1833,31.9667,Sudan,SD,SDN,"White Nile","White Nile",SD-NW,state,,66.6,,,4,Africa/Khartoum,FALSE,1729597058
‘Abalānj,`Abalanj,Abalang,12.6699,31.3475,Sudan,SD,SDN,"North Kordofan","North Kordofan",SD-KN,state,,39.2,,,4,Africa/Khartoum,FALSE,1729768199
Sahaba,Sahaba,,18.9167,30.4667,Sudan,SD,SDN,Northern,Northern,SD-NO,state,,4.0,,,5,Africa/Khartoum,FALSE,1729619185
"Hillat ‘Atra","Hillat `Atra",,16.7382,33.5342,Sudan,SD,SDN,"River Nile","River Nile",SD-NR,state,,30.3,,,4,Africa/Khartoum,FALSE,1729382525
Niarshige,Niarshige,,14.9500,23.6667,Sudan,SD,SDN,"North Darfur","North Darfur",SD-DN,state,,6.5,,,5,Africa/Khartoum,FALSE,1729566624
Karādīs,Karadis,Kharadis,14.1833,35.3500,Sudan,SD,SDN,Gedaref,Gedaref,SD-GD,state,,13.2,,,4,Africa/Khartoum,FALSE,1729923121
"Wad Afūdi","Wad Afudi",,11.9930,34.3527,Sudan,SD,SDN,"Blue Nile","Blue Nile",SD-NB,state,,40.5,,,4,Africa/Khartoum,FALSE,1729372856
Khummī,Khummi,,13.5333,30.4167,Sudan,SD,SDN,"North Kordofan","North Kordofan",SD-KN,state,,21.8,,,4,Africa/Khartoum,FALSE,1729289422
Gamma,Gamma,,15.0131,33.3042,Sudan,SD,SDN,Gezira,Gezira,SD-GZ,state,,88.3,,,4,Africa/Khartoum,FALSE,1729792591
"‘Abka West","`Abka West",‘Abka,21.8333,31.1833,Sudan,SD,SDN,Northern,Northern,SD-NO,state,,0.3,,,5,Africa/Khartoum,FALSE,1729570010
Burayr,Burayr,Bareir,13.1333,28.5333,Sudan,SD,SDN,"West Kordofan","West Kordofan",SD-GK,state,,22.4,,,4,Africa/Khartoum,FALSE,1729821232
Mugdeit,Mugdeit,,13.4000,34.9167,Sudan,SD,SDN,Gedaref,Gedaref,SD-GD,state,,19.1,,,4,Africa/Khartoum,FALSE,1729388272
"Umm Gawad","Umm Gawad",,15.6464,33.2508,Sudan,SD,SDN,Khartoum,Khartoum,SD-KH,state,,126.3,,,4,Africa/Khartoum,FALSE,1729418438
Kara,Kara,Kuwārah|Kowara,11.6701,29.5514,Sudan,SD,SDN,"South Kordofan","South Kordofan",SD-KS,state,,14.3,,,4,Africa/Khartoum,FALSE,1729312223
"Takkāl Ab Ji‘erīnā","Takkal Ab Ji`erina",,12.7682,31.6223,Sudan,SD,SDN,"North Kordofan","North Kordofan",SD-KN,state,,39.2,,,4,Africa/Khartoum,FALSE,1729547084
Musteria,Musteria,,15.1667,23.6500,Sudan,SD,SDN,"North Darfur","North Darfur",SD-DN,state,,6.5,,,5,Africa/Khartoum,FALSE,1729299292
Kedari,Kedari,Tedari,12.3333,23.9333,Sudan,SD,SDN,"South Darfur","South Darfur",SD-DS,state,,86.0,,,4,Africa/Khartoum,FALSE,1729165674
"Abu Mirekha","Abu Mirekha",,14.2479,32.5128,Sudan,SD,SDN,Gezira,Gezira,SD-GZ,state,,163.2,,,4,Africa/Khartoum,FALSE,1729107306
"Teis Koko","Teis Koko",,10.2106,30.7222,Sudan,SD,SDN,"South Kordofan","South Kordofan",SD-KS,state,,5.6,,,5,Africa/Khartoum,FALSE,1729274440
"Shaqq an Nimr","Shaqq an Nimr","Shaqq en Nimr",13.3333,27.2833,Sudan,SD,SDN,"North Darfur","North Darfur",SD-DN,state,,11.1,,,4,Africa/Khartoum,FALSE,1729624919
"Hajar ar Rakuba","Hajar ar Rakuba","Er Raqaba|Er Ragaba|Ar Raqabah",11.5187,30.2639,Sudan,SD,SDN,"South Kordofan","South Kordofan",SD-KS,state,,14.3,,,4,Africa/Khartoum,FALSE,1729903955
"Abu Kortod","Abu Kortod","Abū Kartod",11.5875,34.4313,Sudan,SD,SDN,"Blue Nile","Blue Nile",SD-NB,state,,39.8,,,4,Africa/Khartoum,FALSE,1729581440
Mismeis,Mismeis,,10.8500,34.8500,Sudan,SD,SDN,"Blue Nile","Blue Nile",SD-NB,state,,39.4,,,4,Africa/Khartoum,FALSE,1729925082
"Al ‘Amāra Kāsīr","Al `Amara Kasir",,14.6290,33.1127,Sudan,SD,SDN,Gezira,Gezira,SD-GZ,state,,181.2,,,4,Africa/Khartoum,FALSE,1729994279
"Hillat al Qamarab","Hillat al Qamarab",Ghamarab,15.4911,32.3719,Sudan,SD,SDN,Khartoum,Khartoum,SD-KH,state,,600.1,,,3,Africa/Khartoum,FALSE,1729688889
"Um Bīru","Um Biru",,13.0254,32.3254,Sudan,SD,SDN,"White Nile","White Nile",SD-NW,state,,42.6,,,4,Africa/Khartoum,FALSE,1729920636
Magabadi,Magabadi,,13.2555,22.2348,Sudan,SD,SDN,"West Darfur","West Darfur",SD-DW,state,,89.3,,,4,Africa/Khartoum,FALSE,1729973522
"Al Buḩayr","Al Buhayr","El Buheir",14.1000,30.7667,Sudan,SD,SDN,"North Kordofan","North Kordofan",SD-KN,state,,21.8,,,4,Africa/Khartoum,FALSE,1729937865
Magun,Magun,,13.3500,27.0667,Sudan,SD,SDN,"North Darfur","North Darfur",SD-DN,state,,11.1,,,4,Africa/Khartoum,FALSE,1729482543
Dīs,Dis,,10.7833,34.3333,Sudan,SD,SDN,"Blue Nile","Blue Nile",SD-NB,state,,16.4,,,4,Africa/Khartoum,FALSE,1729200499
"Al Manārah","Al Manarah",,14.1235,32.1795,Sudan,SD,SDN,"White Nile","White Nile",SD-NW,state,,66.6,,,4,Africa/Khartoum,FALSE,1729375346
"Ginis West","Ginis West","Ginnis West",20.8333,30.5000,Sudan,SD,SDN,Northern,Northern,SD-NO,state,,0.3,,,5,Africa/Khartoum,FALSE,1729113306
"Hillat Deim el Qarray","Hillat Deim el Qarray",,16.8093,33.6481,Sudan,SD,SDN,"River Nile","River Nile",SD-NR,state,,30.3,,,4,Africa/Khartoum,FALSE,1729774665
Abalga,Abalga,,13.5333,23.7833,Sudan,SD,SDN,"North Darfur","North Darfur",SD-DN,state,,220.8,,,3,Africa/Khartoum,FALSE,1729330240
"Hillat ash Sheqeq","Hillat ash Sheqeq",,15.0719,32.3467,Sudan,SD,SDN,"White Nile","White Nile",SD-NW,state,,63.1,,,4,Africa/Khartoum,FALSE,1729473109
"Al ‘Awayda ‘Izezat","Al `Awayda `Izezat",,14.1495,33.4806,Sudan,SD,SDN,Gezira,Gezira,SD-GZ,state,,214.0,,,3,Africa/Khartoum,FALSE,1729311081
Tadoro,Tadoro,,10.6838,30.0177,Sudan,SD,SDN,"South Kordofan","South Kordofan",SD-KS,state,,9.2,,,5,Africa/Khartoum,FALSE,1729345194
"Abu Rus","Abu Rus",,15.0681,33.1206,Sudan,SD,SDN,Gezira,Gezira,SD-GZ,state,,275.1,,,3,Africa/Khartoum,FALSE,1729891189
‘Uţayshah,`Utayshah,‘Uteisha,14.2833,33.1500,Sudan,SD,SDN,Gezira,Gezira,SD-GZ,state,,197.6,,,4,Africa/Khartoum,FALSE,1729907837
"Um Duwena","Um Duwena","Umm Duwaynah|Umm Duweina",14.4939,33.2516,Sudan,SD,SDN,Gezira,Gezira,SD-GZ,state,,181.2,,,4,Africa/Khartoum,FALSE,1729770922
Jirewa,Jirewa,Gireiwa,11.8352,33.5227,Sudan,SD,SDN,"Blue Nile","Blue Nile",SD-NB,state,,14.5,,,4,Africa/Khartoum,FALSE,1729637670
Andaboka,Andaboka,,12.7003,22.1697,Sudan,SD,SDN,"West Darfur","West Darfur",SD-DW,state,,38.4,,,4,Africa/Khartoum,FALSE,1729382971
"Ash Shilekha","Ash Shilekha",Shulaykhah|Sheleikha,14.2981,33.3166,Sudan,SD,SDN,Gezira,Gezira,SD-GZ,state,,214.0,,,3,Africa/Khartoum,FALSE,1729688281
"Fayḑ aţ Ţayr","Fayd at Tayr","Feid et Teir|Feid et Tei’",11.5500,30.7500,Sudan,SD,SDN,"South Kordofan","South Kordofan",SD-KS,state,,8.6,,,5,Africa/Khartoum,FALSE,1729767974
Fazarykerkery,Fazarykerkery,,13.9000,22.6167,Sudan,SD,SDN,"West Darfur","West Darfur",SD-DW,state,,43.7,,,4,Africa/Khartoum,FALSE,1729976852
"Al Ḩajer","Al Hajer","Umm Ḩujayr|Umm Hugeir",14.0989,33.2257,Sudan,SD,SDN,Gezira,Gezira,SD-GZ,state,,163.2,,,4,Africa/Khartoum,FALSE,1729485052
"Imtidād Hay Az Zihūr","Imtidad Hay Az Zihur",,11.7747,34.3589,Sudan,SD,SDN,"Blue Nile","Blue Nile",SD-NB,state,,167.0,,,4,Africa/Khartoum,FALSE,1729505149
Baqīs,Baqis,,11.5747,34.1847,Sudan,SD,SDN,"Blue Nile","Blue Nile",SD-NB,state,,25.8,,,4,Africa/Khartoum,FALSE,1729452756
"Şarāya ‘Amārat Wad Yūsif","Saraya `Amarat Wad Yusif",,14.3898,33.2486,Sudan,SD,SDN,Gezira,Gezira,SD-GZ,state,,214.0,,,3,Africa/Khartoum,FALSE,1729616320
"Wad Bilāl","Wad Bilal",,14.9391,32.4543,Sudan,SD,SDN,"White Nile","White Nile",SD-NW,state,,63.1,,,4,Africa/Khartoum,FALSE,1729489135
"Hillat Wad Saqqa","Hillat Wad Saqqa",,16.8186,33.6581,Sudan,SD,SDN,"River Nile","River Nile",SD-NR,state,,30.3,,,4,Africa/Khartoum,FALSE,1729739085
Amora,Amora,,10.9500,34.8333,Sudan,SD,SDN,"Blue Nile","Blue Nile",SD-NB,state,,39.4,,,4,Africa/Khartoum,FALSE,1729772421
"Shaykh Idrīs","Shaykh Idris","Sheikh Idris",11.7167,33.5000,Sudan,SD,SDN,"Blue Nile","Blue Nile",SD-NB,state,,14.5,,,4,Africa/Khartoum,FALSE,1729958286
"Umm ‘Asal","Umm `Asal",,13.5167,28.5833,Sudan,SD,SDN,"West Kordofan","West Kordofan",SD-GK,state,,22.4,,,4,Africa/Khartoum,FALSE,1729382610
"Umm Buwayrah","Umm Buwayrah","Umm Beweira",13.7500,32.1833,Sudan,SD,SDN,"White Nile","White Nile",SD-NW,state,,66.6,,,4,Africa/Khartoum,FALSE,1729113158
"Al Hebayel","Al Hebayel",,11.0645,30.1070,Sudan,SD,SDN,"South Kordofan","South Kordofan",SD-KS,state,,9.2,,,5,Africa/Khartoum,FALSE,1729615990
"Al Wāḩa","Al Waha",,14.9084,32.7345,Sudan,SD,SDN,Gezira,Gezira,SD-GZ,state,,181.2,,,4,Africa/Khartoum,FALSE,1729521787
"Umm Ḩarr","Umm Harr",,13.4833,34.4500,Sudan,SD,SDN,Gedaref,Gedaref,SD-GD,state,,63.2,,,4,Africa/Khartoum,FALSE,1729277401
"Um ‘Ūd","Um `Ud",,13.1828,32.2261,Sudan,SD,SDN,"White Nile","White Nile",SD-NW,state,,117.4,,,4,Africa/Khartoum,FALSE,1729909618
"Um ‘Ūd","Um `Ud",,13.0171,32.4753,Sudan,SD,SDN,"White Nile","White Nile",SD-NW,state,,117.4,,,4,Africa/Khartoum,TRUE,1729186931
"‘Abd Allāh Nā’imah","`Abd Allah Na'imah","‘Abdullah Naima",13.9167,32.8833,Sudan,SD,SDN,Gezira,Gezira,SD-GZ,state,,163.2,,,4,Africa/Khartoum,FALSE,1729810972
"Umm Sarba","Umm Sarba",,14.3667,30.9333,Sudan,SD,SDN,"North Kordofan","North Kordofan",SD-KN,state,,21.8,,,4,Africa/Khartoum,FALSE,1729589430
"Abū Shawag","Abu Shawag",,13.4500,27.9500,Sudan,SD,SDN,"West Kordofan","West Kordofan",SD-GK,state,,22.4,,,4,Africa/Khartoum,FALSE,1729879079
Feina,Feina,,12.8831,24.4870,Sudan,SD,SDN,"South Darfur","South Darfur",SD-DS,state,,11.4,,,4,Africa/Khartoum,FALSE,1729557963
"Al Ḩijerāt","Al Hijerat",,14.1416,32.8202,Sudan,SD,SDN,Gezira,Gezira,SD-GZ,state,,163.2,,,4,Africa/Khartoum,FALSE,1729643318
Kamashēr,Kamasher,,11.6918,31.6360,Sudan,SD,SDN,"South Kordofan","South Kordofan",SD-KS,state,,8.6,,,5,Africa/Khartoum,FALSE,1729027487
"Gungo ‘Alī Ya‘qūb","Gungo `Ali Ya`qub",,14.5333,26.0667,Sudan,SD,SDN,"North Darfur","North Darfur",SD-DN,state,,26.2,,,4,Africa/Khartoum,FALSE,1729781542
Geliem,Geliem,,13.9500,35.3333,Sudan,SD,SDN,Gedaref,Gedaref,SD-GD,state,,13.2,,,4,Africa/Khartoum,FALSE,1729611007
Samasim,Samasim,,11.8064,29.7511,Sudan,SD,SDN,"South Kordofan","South Kordofan",SD-KS,state,,14.3,,,4,Africa/Khartoum,FALSE,1729417875
Muşţafá,Mustafa,,13.0833,28.2667,Sudan,SD,SDN,"West Kordofan","West Kordofan",SD-GK,state,,18.9,,,4,Africa/Khartoum,FALSE,1729995986
"Al ‘Udayd","Al `Udayd","El ‘Udeid",13.9000,32.6667,Sudan,SD,SDN,"White Nile","White Nile",SD-NW,state,,148.2,,,4,Africa/Khartoum,FALSE,1729515934
Sarelli,Sarelli,,10.9876,29.5577,Sudan,SD,SDN,"South Kordofan","South Kordofan",SD-KS,state,,9.2,,,5,Africa/Khartoum,FALSE,1729672991
Marabba,Marabba,,12.3500,32.1833,Sudan,SD,SDN,"White Nile","White Nile",SD-NW,state,,15.6,,,4,Africa/Khartoum,FALSE,1729136368
Ḩimedān,Himedan,,12.9609,32.7804,Sudan,SD,SDN,"White Nile","White Nile",SD-NW,state,,117.4,,,4,Africa/Khartoum,FALSE,1729027406
Karakulla,Karakulla,,12.7167,23.8333,Sudan,SD,SDN,"South Darfur","South Darfur",SD-DS,state,,16.1,,,4,Africa/Khartoum,FALSE,1729085316
Gharbas,Gharbas,,10.5667,34.2833,Sudan,SD,SDN,"Blue Nile","Blue Nile",SD-NB,state,,16.4,,,4,Africa/Khartoum,FALSE,1729709605
"Al Qidresh","Al Qidresh",,12.7946,33.0583,Sudan,SD,SDN,"White Nile","White Nile",SD-NW,state,,57.5,,,4,Africa/Khartoum,FALSE,1729431889
Dardog,Dardog,,12.6500,27.4833,Sudan,SD,SDN,"West Kordofan","West Kordofan",SD-GK,state,,18.9,,,4,Africa/Khartoum,FALSE,1729718095
"Abu Rukba","Abu Rukba","Abu Rukha|Abū Rukbah",12.9187,31.9855,Sudan,SD,SDN,"White Nile","White Nile",SD-NW,state,,42.6,,,4,Africa/Khartoum,FALSE,1729125956
"Sheikh Habibullah","Sheikh Habibullah",,15.5500,32.5333,Sudan,SD,SDN,Khartoum,Khartoum,SD-KH,state,,5635.2,,,2,Africa/Khartoum,FALSE,1729037327
"Al Mu‘ayliq","Al Mu`ayliq","Maleig|Mieiliq|El Mieliq|El Mi‘eiliq",15.0167,33.1000,Sudan,SD,SDN,Gezira,Gezira,SD-GZ,state,,275.1,,,3,Africa/Khartoum,FALSE,1729737300
"Sanţat Şaqr","Santat Saqr","Suntat Saqr",13.1000,33.8333,Sudan,SD,SDN,Sennar,Sennar,SD-SI,state,,112.7,,,4,Africa/Khartoum,FALSE,1729531087
Bardei,Bardei,Chukanei,12.6906,22.1143,Sudan,SD,SDN,"West Darfur","West Darfur",SD-DW,state,,38.4,,,4,Africa/Khartoum,FALSE,1729987713
Bardei,Bardei,,13.1347,22.0963,Sudan,SD,SDN,"West Darfur","West Darfur",SD-DW,state,,38.4,,,4,Africa/Khartoum,TRUE,1729594953
Sayyālah,Sayyalah,Saiyala,15.0167,32.3667,Sudan,SD,SDN,"White Nile","White Nile",SD-NW,state,,63.1,,,4,Africa/Khartoum,FALSE,1729693911
Martei,Martei,,12.8667,25.6833,Sudan,SD,SDN,"North Darfur","North Darfur",SD-DN,state,,16.4,,,4,Africa/Khartoum,FALSE,1729581059
"Al Basabir","Al Basabir","El Basabir",16.5211,32.9411,Sudan,SD,SDN,"River Nile","River Nile",SD-NR,state,,30.3,,,4,Africa/Khartoum,FALSE,1729433486
Bulgar,Bulgar,Bul’gar,15.4240,26.4500,Sudan,SD,SDN,"North Darfur","North Darfur",SD-DN,state,,1.3,,,5,Africa/Khartoum,FALSE,1729326240
"Umm Seilha","Umm Seilha",,10.8873,24.9796,Sudan,SD,SDN,"South Darfur","South Darfur",SD-DS,state,,222.8,,,3,Africa/Khartoum,FALSE,1729335097
Loda,Loda,,10.6514,24.8172,Sudan,SD,SDN,"South Darfur","South Darfur",SD-DS,state,,22.5,,,4,Africa/Khartoum,FALSE,1729486940
"Eish Bara","Eish Bara",,13.0647,22.1572,Sudan,SD,SDN,"West Darfur","West Darfur",SD-DW,state,,38.4,,,4,Africa/Khartoum,FALSE,1729194054
"Ad Dilebāt","Ad Dilebat",,11.4066,31.3621,Sudan,SD,SDN,"South Kordofan","South Kordofan",SD-KS,state,,8.6,,,5,Africa/Khartoum,FALSE,1729495363
"Umm Digulgulaya","Umm Digulgulaya",,10.4652,24.9328,Sudan,SD,SDN,"South Darfur","South Darfur",SD-DS,state,,22.5,,,4,Africa/Khartoum,FALSE,1729334788
’Idin,'Idin,,11.6826,30.3689,Sudan,SD,SDN,"South Kordofan","South Kordofan",SD-KS,state,,14.3,,,4,Africa/Khartoum,FALSE,1729537034
Hameida,Hameida,Ḩumaydah,14.3762,22.5055,Sudan,SD,SDN,"West Darfur","West Darfur",SD-DW,state,,16.2,,,4,Africa/Khartoum,FALSE,1729713976
"Hillat al Kiweib","Hillat al Kiweib",,17.3900,34.3183,Sudan,SD,SDN,"River Nile","River Nile",SD-NR,state,,10.2,,,4,Africa/Khartoum,FALSE,1729716093
"Dar Muqām","Dar Muqam",,14.2162,33.0229,Sudan,SD,SDN,Gezira,Gezira,SD-GZ,state,,163.2,,,4,Africa/Khartoum,FALSE,1729329868
Sunayţ,Sunayt,Suneit,14.6167,32.5667,Sudan,SD,SDN,"White Nile","White Nile",SD-NW,state,,170.0,,,4,Africa/Khartoum,FALSE,1729677072
Kairi,Kairi,,12.8770,24.4009,Sudan,SD,SDN,"South Darfur","South Darfur",SD-DS,state,,86.2,,,4,Africa/Khartoum,FALSE,1729165904
Kobbei,Kobbei,Kobbai,14.0667,23.9667,Sudan,SD,SDN,"North Darfur","North Darfur",SD-DN,state,,40.8,,,4,Africa/Khartoum,FALSE,1729210623
"Abū Ḩajar","Abu Hajar","Abu Hagar",18.7500,33.5833,Sudan,SD,SDN,"River Nile","River Nile",SD-NR,state,,3.3,,,5,Africa/Khartoum,FALSE,1729853154
Gughana,Gughana,Jughana,11.9833,25.1500,Sudan,SD,SDN,"South Darfur","South Darfur",SD-DS,state,,81.6,,,4,Africa/Khartoum,FALSE,1729564434
Kairi,Kairi,,13.0068,24.2045,Sudan,SD,SDN,"Central Darfur","Central Darfur",SD-DC,state,,5.6,,,5,Africa/Khartoum,FALSE,1729128907
"Abu Gabaya","Abu Gabaya",,13.3122,24.9520,Sudan,SD,SDN,"North Darfur","North Darfur",SD-DN,state,,55.7,,,4,Africa/Khartoum,FALSE,1729421449
Usli,Usli,,18.2167,31.6500,Sudan,SD,SDN,Northern,Northern,SD-NO,state,,11.5,,,4,Africa/Khartoum,FALSE,1729111697
"Al Manţiqa","Al Mantiqa",,14.9438,33.4237,Sudan,SD,SDN,Gezira,Gezira,SD-GZ,state,,88.3,,,4,Africa/Khartoum,FALSE,1729234674
Balūlah,Balulah,Belula,15.1194,33.1736,Sudan,SD,SDN,Gezira,Gezira,SD-GZ,state,,88.3,,,4,Africa/Khartoum,FALSE,1729286133
Kuarday,Kuarday,,11.0333,30.4833,Sudan,SD,SDN,"South Kordofan","South Kordofan",SD-KS,state,,9.2,,,5,Africa/Khartoum,FALSE,1729263827
"Abū Sinun","Abu Sinun",,11.1000,29.3500,Sudan,SD,SDN,"South Kordofan","South Kordofan",SD-KS,state,,9.2,,,5,Africa/Khartoum,FALSE,1729845786
Momona,Momona,,11.7336,22.6576,Sudan,SD,SDN,"Central Darfur","Central Darfur",SD-DC,state,,27.8,,,4,Africa/Khartoum,FALSE,1729738089
Buldanga,Buldanga,Baldan|Bulding,13.4667,23.7000,Sudan,SD,SDN,"North Darfur","North Darfur",SD-DN,state,,100.5,,,4,Africa/Khartoum,FALSE,1729812064
"Hillat Anjulosaja","Hillat Anjulosaja",,11.5811,29.8395,Sudan,SD,SDN,"South Kordofan","South Kordofan",SD-KS,state,,14.3,,,4,Africa/Khartoum,FALSE,1729305139
"Muḩammad Qol","Muhammad Qol","Muḩammad Qawl|Muḩammad Qūl|Mohammed Gul",20.9047,37.1591,Sudan,SD,SDN,"Red Sea","Red Sea",SD-RS,state,,3.0,,,4,Africa/Khartoum,FALSE,1729556872
"Umm Zimām","Umm Zimam","Umm Zumam|Umm Zuman",13.3000,28.8333,Sudan,SD,SDN,"West Kordofan","West Kordofan",SD-GK,state,,22.4,,,4,Africa/Khartoum,FALSE,1729340167
"Aj Jarif","Aj Jarif","El Garef|El Garet|Al Garef",12.0598,34.3197,Sudan,SD,SDN,"Blue Nile","Blue Nile",SD-NB,state,,40.5,,,4,Africa/Khartoum,FALSE,1729580281
Tekkus,Tekkus,,11.4667,27.3833,Sudan,SD,SDN,"West Kordofan","West Kordofan",SD-GK,state,,27.5,,,4,Africa/Khartoum,FALSE,1729236436
Sa‘īd,Sa`id,,14.4437,33.1770,Sudan,SD,SDN,Gezira,Gezira,SD-GZ,state,,214.0,,,3,Africa/Khartoum,FALSE,1729628469
"Al Kidewa","Al Kidewa",Kedeiwa|Kudaywah,14.8940,33.2940,Sudan,SD,SDN,Gezira,Gezira,SD-GZ,state,,88.3,,,4,Africa/Khartoum,FALSE,1729317387
Maqdūr,Maqdur,,13.6500,34.0333,Sudan,SD,SDN,Sennar,Sennar,SD-SI,state,,89.6,,,4,Africa/Khartoum,FALSE,1729770950
Kurcha,Kurcha,,12.8173,22.4556,Sudan,SD,SDN,"West Darfur","West Darfur",SD-DW,state,,41.6,,,4,Africa/Khartoum,FALSE,1729942854
Markundi,Markundi,,11.5500,23.8167,Sudan,SD,SDN,"South Darfur","South Darfur",SD-DS,state,,110.9,,,4,Africa/Khartoum,FALSE,1729402918
"Umm Buram","Umm Buram",,10.6937,33.5365,Sudan,SD,SDN,"Blue Nile","Blue Nile",SD-NB,state,,25.8,,,4,Africa/Khartoum,FALSE,1729706472
"Hillat Al Sifayah","Hillat Al Sifayah",,15.6679,35.5049,Sudan,SD,SDN,Kassala,Kassala,SD-KA,state,,185.9,,,4,Africa/Khartoum,FALSE,1729224457
"At Thawra","At Thawra",,14.6046,32.9748,Sudan,SD,SDN,Gezira,Gezira,SD-GZ,state,,171.3,,,4,Africa/Khartoum,FALSE,1729519647
"Ash Shawal","Ash Shawal","Shawal|Esh Shawal",13.5667,32.6500,Sudan,SD,SDN,"White Nile","White Nile",SD-NW,state,,191.4,,,4,Africa/Khartoum,FALSE,1729254726
Ţayba,Tayba,,12.3806,31.2217,Sudan,SD,SDN,"South Kordofan","South Kordofan",SD-KS,state,,25.2,,,4,Africa/Khartoum,FALSE,1729366512
Ţayba,Tayba,,11.4780,31.2148,Sudan,SD,SDN,"South Kordofan","South Kordofan",SD-KS,state,,8.6,,,5,Africa/Khartoum,TRUE,1729939717
Ţayba,Tayba,,11.1396,31.6148,Sudan,SD,SDN,"South Kordofan","South Kordofan",SD-KS,state,,8.6,,,5,Africa/Khartoum,TRUE,1729412546
"Al Mandakāb","Al Mandakab",,12.2607,32.8385,Sudan,SD,SDN,"White Nile","White Nile",SD-NW,state,,57.5,,,4,Africa/Khartoum,FALSE,1729754667
Bernij,Bernij,,11.3618,30.2476,Sudan,SD,SDN,"South Kordofan","South Kordofan",SD-KS,state,,14.3,,,4,Africa/Khartoum,FALSE,1729962601
Amergu,Amergu,,10.5667,25.1667,Sudan,SD,SDN,"South Darfur","South Darfur",SD-DS,state,,22.5,,,4,Africa/Khartoum,FALSE,1729381201
Tandaltī,Tandalti,Tendelti,13.8167,22.8167,Sudan,SD,SDN,"West Darfur","West Darfur",SD-DW,state,,16.2,,,4,Africa/Khartoum,FALSE,1729691535
"El Geref","El Geref",,10.7436,29.4031,Sudan,SD,SDN,"West Kordofan","West Kordofan",SD-GK,state,,4.9,,,5,Africa/Khartoum,FALSE,1729129610
"Al ‘Aţāyā","Al `Ataya","Et ‘Ataya|‘Ataya",14.1667,33.5000,Sudan,SD,SDN,Gezira,Gezira,SD-GZ,state,,214.0,,,3,Africa/Khartoum,FALSE,1729112602
Ya‘qūb,Ya`qub,,11.1167,29.3167,Sudan,SD,SDN,"West Kordofan","West Kordofan",SD-GK,state,,4.9,,,5,Africa/Khartoum,FALSE,1729226580
"Al Kiter Balla","Al Kiter Balla",,13.7509,32.4259,Sudan,SD,SDN,"White Nile","White Nile",SD-NW,state,,66.6,,,4,Africa/Khartoum,FALSE,1729436980
Dulaybah,Dulaybah,Doleiba,11.0000,31.6500,Sudan,SD,SDN,"South Kordofan","South Kordofan",SD-KS,state,,8.6,,,5,Africa/Khartoum,FALSE,1729144284
Mīrī,Miri,,13.0052,23.9728,Sudan,SD,SDN,"Central Darfur","Central Darfur",SD-DC,state,,5.6,,,5,Africa/Khartoum,FALSE,1729316083
Rubayţah,Rubaytah,Rabeita,13.0833,31.7000,Sudan,SD,SDN,"North Kordofan","North Kordofan",SD-KN,state,,39.2,,,4,Africa/Khartoum,FALSE,1729586900
"Fakī Şādiq","Faki Sadiq","Fiki Sadig",12.1333,23.9167,Sudan,SD,SDN,"South Darfur","South Darfur",SD-DS,state,,9.9,,,5,Africa/Khartoum,FALSE,1729815642
Durayshāb,Durayshab,Dereishab,15.8333,32.5500,Sudan,SD,SDN,Khartoum,Khartoum,SD-KH,state,,263.8,,,3,Africa/Khartoum,FALSE,1729597827
"Umm Sikkīnah","Umm Sikkinah","Umm Sikkina",10.4824,30.3132,Sudan,SD,SDN,"South Kordofan","South Kordofan",SD-KS,state,,5.6,,,5,Africa/Khartoum,FALSE,1729105661
"En Nuba","En Nuba",,15.8988,32.5316,Sudan,SD,SDN,Khartoum,Khartoum,SD-KH,state,,339.5,,,3,Africa/Khartoum,FALSE,1729680696
"Umm Sawadib","Umm Sawadib",,17.2667,34.5333,Sudan,SD,SDN,"River Nile","River Nile",SD-NR,state,,10.2,,,4,Africa/Khartoum,FALSE,1729252880
Nabaqa,Nabaqa,,14.4319,32.8930,Sudan,SD,SDN,Gezira,Gezira,SD-GZ,state,,163.2,,,4,Africa/Khartoum,FALSE,1729666073
Jimmeza,Jimmeza,,12.8381,34.0711,Sudan,SD,SDN,Sennar,Sennar,SD-SI,state,,92.6,,,4,Africa/Khartoum,FALSE,1729148833
"Abū Shūk","Abu Shuk",,13.7321,32.3899,Sudan,SD,SDN,"White Nile","White Nile",SD-NW,state,,66.6,,,4,Africa/Khartoum,FALSE,1729155169
"Wad Jam‘ān","Wad Jam`an","Wad Gam‘an",14.0705,33.3445,Sudan,SD,SDN,Gezira,Gezira,SD-GZ,state,,214.0,,,3,Africa/Khartoum,FALSE,1729705562
"Bashāyir Sulemān","Bashayir Suleman",Bashā’ir,14.0641,32.9997,Sudan,SD,SDN,Gezira,Gezira,SD-GZ,state,,163.2,,,4,Africa/Khartoum,FALSE,1729366294
"Ma’adat el Eida","Ma'adat el Eida",,10.3564,25.2865,Sudan,SD,SDN,"South Darfur","South Darfur",SD-DS,state,,22.5,,,4,Africa/Khartoum,FALSE,1729353542
"Hillat Sharafat","Hillat Sharafat",,15.2108,32.4303,Sudan,SD,SDN,Khartoum,Khartoum,SD-KH,state,,600.1,,,3,Africa/Khartoum,FALSE,1729226636
"’Abu Ḑulū‘","'Abu Dulu`",,12.5706,32.8803,Sudan,SD,SDN,"White Nile","White Nile",SD-NW,state,,57.5,,,4,Africa/Khartoum,FALSE,1729840820
Qiref,Qiref,,13.5167,32.1346,Sudan,SD,SDN,"White Nile","White Nile",SD-NW,state,,66.6,,,4,Africa/Khartoum,FALSE,1729074592
"Abū Shajar","Abu Shajar","Abu Shagar|Abu Shidar",12.5167,32.7333,Sudan,SD,SDN,"White Nile","White Nile",SD-NW,state,,15.6,,,4,Africa/Khartoum,FALSE,1729700563
"Al Qal‘a","Al Qal`a",,14.9392,32.6477,Sudan,SD,SDN,"White Nile","White Nile",SD-NW,state,,181.2,,,4,Africa/Khartoum,FALSE,1729637917
Dogum,Dogum,Dogoum,13.2000,22.6167,Sudan,SD,SDN,"West Darfur","West Darfur",SD-DW,state,,16.9,,,4,Africa/Khartoum,FALSE,1729043458
Takoi,Takoi,,10.2409,30.7459,Sudan,SD,SDN,"South Kordofan","South Kordofan",SD-KS,state,,5.6,,,5,Africa/Khartoum,FALSE,1729551317
Laqur,Laqur,,11.4988,30.4110,Sudan,SD,SDN,"South Kordofan","South Kordofan",SD-KS,state,,14.3,,,4,Africa/Khartoum,FALSE,1729056343
"Hillat Uzeirqab","Hillat Uzeirqab","Uzeirqab|Al Uzayriqāb",15.7301,32.5528,Sudan,SD,SDN,Khartoum,Khartoum,SD-KH,state,,263.8,,,3,Africa/Khartoum,FALSE,1729878972
Deimbo,Deimbo,,11.9000,23.7167,Sudan,SD,SDN,"Central Darfur","Central Darfur",SD-DC,state,,9.9,,,5,Africa/Khartoum,FALSE,1729604760
"Abu Hindi","Abu Hindi",,13.7025,32.4984,Sudan,SD,SDN,"White Nile","White Nile",SD-NW,state,,63.1,,,4,Africa/Khartoum,FALSE,1729164139
Shukri,Shukri,,14.3908,32.0953,Sudan,SD,SDN,"White Nile","White Nile",SD-NW,state,,63.1,,,4,Africa/Khartoum,FALSE,1729093580
"Um Marraḩi Dubār","Um Marrahi Dubar","Abu Dubara|Abū Ḑabārah",14.2702,33.3739,Sudan,SD,SDN,Gezira,Gezira,SD-GZ,state,,214.0,,,3,Africa/Khartoum,FALSE,1729129235
"Umm Suriba","Umm Suriba",,12.3667,32.1833,Sudan,SD,SDN,"White Nile","White Nile",SD-NW,state,,15.6,,,4,Africa/Khartoum,FALSE,1729544066
Sulaym,Sulaym,Seleim,19.1500,30.5167,Sudan,SD,SDN,Northern,Northern,SD-NO,state,,4.0,,,5,Africa/Khartoum,FALSE,1729839708
"Melik en Nasir West","Melik en Nasir West",,21.2833,30.7500,Sudan,SD,SDN,Northern,Northern,SD-NO,state,,0.3,,,5,Africa/Khartoum,FALSE,1729516665
Shānīsha,Shanisha,Shunayshah|Sheneisha,11.9644,34.3681,Sudan,SD,SDN,"Blue Nile","Blue Nile",SD-NB,state,,40.5,,,4,Africa/Khartoum,FALSE,1729537609
Qaddāla,Qaddala,,11.9329,34.3834,Sudan,SD,SDN,"Blue Nile","Blue Nile",SD-NB,state,,40.5,,,4,Africa/Khartoum,FALSE,1729409100
"Jubārt Alla","Jubart Alla",,12.8309,34.0767,Sudan,SD,SDN,Sennar,Sennar,SD-SI,state,,95.0,,,4,Africa/Khartoum,FALSE,1729785037
"Kimang Kergil","Kimang Kergil",,13.5167,24.3500,Sudan,SD,SDN,"North Darfur","North Darfur",SD-DN,state,,157.1,,,4,Africa/Khartoum,FALSE,1729542638
Şafārja,Safarja,,11.0234,31.0807,Sudan,SD,SDN,"South Kordofan","South Kordofan",SD-KS,state,,5.6,,,5,Africa/Khartoum,FALSE,1729769395
Muqalladāt,Muqalladat,Mugelledat,14.3000,30.1000,Sudan,SD,SDN,"North Kordofan","North Kordofan",SD-KN,state,,21.8,,,4,Africa/Khartoum,FALSE,1729891385
"Abu Jibeha","Abu Jibeha","Abu-Gebeiha|Abū Jubayhah|Abu Gibeyah|Abu Gubeiha",11.4562,31.2285,Sudan,SD,SDN,"South Kordofan","South Kordofan",SD-KS,state,,8.6,,,4,Africa/Khartoum,FALSE,1729689863
Segargarri,Segargarri,,12.4996,22.9497,Sudan,SD,SDN,"Central Darfur","Central Darfur",SD-DC,state,,27.8,,,4,Africa/Khartoum,FALSE,1729567493
"Hagar Beida","Hagar Beida","Ḩajar Bayḑā’",13.8652,22.2155,Sudan,SD,SDN,"West Darfur","West Darfur",SD-DW,state,,43.7,,,4,Africa/Khartoum,FALSE,1729317492
Mulwad,Mulwad,Malwad,18.6500,30.5833,Sudan,SD,SDN,Northern,Northern,SD-NO,state,,1.5,,,5,Africa/Khartoum,FALSE,1729442792
Hantub,Hantub,,14.4167,33.5333,Sudan,SD,SDN,Gezira,Gezira,SD-GZ,state,,924.3,,,3,Africa/Khartoum,FALSE,1729137048
"Hillat el Qussa","Hillat el Qussa",,17.3340,33.7739,Sudan,SD,SDN,"River Nile","River Nile",SD-NR,state,,10.2,,,4,Africa/Khartoum,FALSE,1729390578
Feţes,Fetes,Futeis,14.5727,33.1055,Sudan,SD,SDN,Gezira,Gezira,SD-GZ,state,,181.2,,,4,Africa/Khartoum,FALSE,1729902901
"Muḩammad al Amīn","Muhammad al Amin","Muhammad el Amin",15.0500,32.4667,Sudan,SD,SDN,"White Nile","White Nile",SD-NW,state,,63.1,,,4,Africa/Khartoum,FALSE,1729602893
"Dar Chemola","Dar Chemola",,13.6000,34.0167,Sudan,SD,SDN,Sennar,Sennar,SD-SI,state,,89.6,,,4,Africa/Khartoum,FALSE,1729642114
"Abu Ramād","Abu Ramad",,12.4685,32.8242,Sudan,SD,SDN,"White Nile","White Nile",SD-NW,state,,57.5,,,4,Africa/Khartoum,FALSE,1729380110
"Abū ‘Uşfūr","Abu `Usfur",,13.2167,32.1833,Sudan,SD,SDN,"White Nile","White Nile",SD-NW,state,,117.4,,,4,Africa/Khartoum,FALSE,1729795965
Wakara,Wakara,,12.1020,31.5292,Sudan,SD,SDN,"South Kordofan","South Kordofan",SD-KS,state,,8.6,,,5,Africa/Khartoum,FALSE,1729409499
"Qōz‘ Abd As Salām","Qoz` Abd As Salam",,14.7952,33.0986,Sudan,SD,SDN,Gezira,Gezira,SD-GZ,state,,181.2,,,4,Africa/Khartoum,FALSE,1729633041
"Wad An Nōra","Wad An Nora",,14.5196,32.5067,Sudan,SD,SDN,Gezira,Gezira,SD-GZ,state,,163.2,,,4,Africa/Khartoum,FALSE,1729680211
Fawar,Fawar,Fowar,11.2000,25.1000,Sudan,SD,SDN,"South Darfur","South Darfur",SD-DS,state,,222.8,,,3,Africa/Khartoum,FALSE,1729774040
Dagarti,Dagarti,,19.6833,30.3667,Sudan,SD,SDN,Northern,Northern,SD-NO,state,,30.6,,,4,Africa/Khartoum,FALSE,1729518664
Faroga,Faroga,Farroga,13.5167,29.9667,Sudan,SD,SDN,"North Kordofan","North Kordofan",SD-KN,state,,88.4,,,4,Africa/Khartoum,FALSE,1729797323
Mufrāka,Mufraka,,12.1436,31.2271,Sudan,SD,SDN,"South Kordofan","South Kordofan",SD-KS,state,,25.2,,,4,Africa/Khartoum,FALSE,1729252208
"Ed Dwemat","Ed Dwemat",,16.6606,33.3061,Sudan,SD,SDN,"River Nile","River Nile",SD-NR,state,,30.3,,,4,Africa/Khartoum,FALSE,1729841197
Duggu,Duggu,,13.4545,23.9326,Sudan,SD,SDN,"North Darfur","North Darfur",SD-DN,state,,157.1,,,4,Africa/Khartoum,FALSE,1729044558
Lidqu,Lidqu,,11.3227,30.4269,Sudan,SD,SDN,"South Kordofan","South Kordofan",SD-KS,state,,9.2,,,5,Africa/Khartoum,FALSE,1729698821
"Umm Şubbah","Umm Subbah","Umm Subba",14.0333,31.4000,Sudan,SD,SDN,"North Kordofan","North Kordofan",SD-KN,state,,21.8,,,4,Africa/Khartoum,FALSE,1729044087
"‘Id Um ‘Ush","`Id Um `Ush",,14.6886,32.1166,Sudan,SD,SDN,"White Nile","White Nile",SD-NW,state,,51.7,,,4,Africa/Khartoum,FALSE,1729352957
Idrīs,Idris,,14.4500,33.3500,Sudan,SD,SDN,Gezira,Gezira,SD-GZ,state,,214.0,,,3,Africa/Khartoum,FALSE,1729668332
Hawak,Hawak,,10.6957,23.6443,Sudan,SD,SDN,"South Darfur","South Darfur",SD-DS,state,,42.4,,,4,Africa/Khartoum,FALSE,1729612483
"Birkat Ţayr","Birkat Tayr","Birket Teir",13.5333,22.6000,Sudan,SD,SDN,"West Darfur","West Darfur",SD-DW,state,,31.6,,,4,Africa/Khartoum,FALSE,1729706083
"Hillat et Tiresat","Hillat et Tiresat",,15.6211,32.4083,Sudan,SD,SDN,Khartoum,Khartoum,SD-KH,state,,392.2,,,3,Africa/Khartoum,FALSE,1729562736
"Umm Shujayrah","Umm Shujayrah","Umm Shugeira",12.5000,25.7167,Sudan,SD,SDN,"East Darfur","East Darfur",SD-DE,state,,50.4,,,4,Africa/Khartoum,FALSE,1729964446
Buldidini,Buldidini,,10.9833,34.9000,Sudan,SD,SDN,"Blue Nile","Blue Nile",SD-NB,state,,39.4,,,4,Africa/Khartoum,FALSE,1729310995
"Aţ Ţileha","At Tileha",,14.2401,33.4133,Sudan,SD,SDN,Gezira,Gezira,SD-GZ,state,,214.0,,,3,Africa/Khartoum,FALSE,1729268303
"Aţ Ţileḩa","At Tileha",,14.9765,33.4616,Sudan,SD,SDN,Gezira,Gezira,SD-GZ,state,,88.3,,,4,Africa/Khartoum,TRUE,1729096711
Buronga,Buronga,,11.9667,23.2500,Sudan,SD,SDN,"Central Darfur","Central Darfur",SD-DC,state,,9.9,,,5,Africa/Khartoum,FALSE,1729022779
Bal‘ar,Bal`ar,,11.8759,34.3701,Sudan,SD,SDN,"Blue Nile","Blue Nile",SD-NB,state,,61.6,,,4,Africa/Khartoum,FALSE,1729120683
Baylah,Baylah,Beila,13.6833,34.8333,Sudan,SD,SDN,Gedaref,Gedaref,SD-GD,state,,63.2,,,4,Africa/Khartoum,FALSE,1729715298
"Umm Erig","Umm Erig",,13.1333,30.6833,Sudan,SD,SDN,"North Kordofan","North Kordofan",SD-KN,state,,39.2,,,4,Africa/Khartoum,FALSE,1729338716
"Takkāl Ḩanadnalla","Takkal Hanadnalla",,12.8196,31.8808,Sudan,SD,SDN,"White Nile","White Nile",SD-NW,state,,42.6,,,4,Africa/Khartoum,FALSE,1729134570
"‘Abd al Bāqī","`Abd al Baqi","‘Abd el Bagi",13.6333,32.5167,Sudan,SD,SDN,"White Nile","White Nile",SD-NW,state,,117.4,,,4,Africa/Khartoum,FALSE,1729945495
"Umm ‘Asha","Umm `Asha",,14.7500,33.5167,Sudan,SD,SDN,Gezira,Gezira,SD-GZ,state,,88.3,,,4,Africa/Khartoum,FALSE,1729422441
Endur,Endur,Sigara,12.1833,24.9667,Sudan,SD,SDN,"South Darfur","South Darfur",SD-DS,state,,81.6,,,4,Africa/Khartoum,FALSE,1729535554
Mitti,Mitti,,13.0120,23.9909,Sudan,SD,SDN,"Central Darfur","Central Darfur",SD-DC,state,,5.6,,,5,Africa/Khartoum,FALSE,1729245548
"Wad al Amīn","Wad al Amin","Wad el Amin",15.3486,33.2656,Sudan,SD,SDN,Khartoum,Khartoum,SD-KH,state,,126.3,,,4,Africa/Khartoum,FALSE,1729385161
"Al Wali al Ḩajar","Al Wali al Hajar",,14.0020,33.0472,Sudan,SD,SDN,Gezira,Gezira,SD-GZ,state,,163.2,,,4,Africa/Khartoum,FALSE,1729699054
Ismā‘tliyya,Isma`tliyya,,14.2657,32.7804,Sudan,SD,SDN,Gezira,Gezira,SD-GZ,state,,163.2,,,4,Africa/Khartoum,FALSE,1729600789
"Ḩājjū Abū Qarn","Hajju Abu Qarn","Hago Abu Qarn",13.8833,33.4000,Sudan,SD,SDN,Sennar,Sennar,SD-SI,state,,66.7,,,4,Africa/Khartoum,FALSE,1729957404
"Ḩilat Ḩamad","Hilat Hamad",,14.5349,33.3280,Sudan,SD,SDN,Gezira,Gezira,SD-GZ,state,,181.2,,,4,Africa/Khartoum,FALSE,1729567695
"Ḩājj Mūsá","Hajj Musa","Hag Musa",14.5833,33.6167,Sudan,SD,SDN,Gezira,Gezira,SD-GZ,state,,68.9,,,4,Africa/Khartoum,FALSE,1729005580
"Umm Burmah","Umm Burmah","Umm Burma",12.8500,33.8833,Sudan,SD,SDN,Sennar,Sennar,SD-SI,state,,42.7,,,4,Africa/Khartoum,FALSE,1729199885
"El Qirenab","El Qirenab",,16.6447,33.2692,Sudan,SD,SDN,"River Nile","River Nile",SD-NR,state,,30.3,,,4,Africa/Khartoum,FALSE,1729251478
Jegu,Jegu,,11.5167,34.0667,Sudan,SD,SDN,"Blue Nile","Blue Nile",SD-NB,state,,25.8,,,4,Africa/Khartoum,FALSE,1729501674
"Um Zikra","Um Zikra",,14.1069,32.8925,Sudan,SD,SDN,Gezira,Gezira,SD-GZ,state,,163.2,,,4,Africa/Khartoum,FALSE,1729000560
"Ad Dai","Ad Dai","Ed Dai",13.2500,31.5000,Sudan,SD,SDN,"North Kordofan","North Kordofan",SD-KN,state,,39.2,,,4,Africa/Khartoum,FALSE,1729715292
"El Bakrya el Qa a’","El Bakrya el Qa a'","El Qa’a",16.5768,32.9490,Sudan,SD,SDN,"River Nile","River Nile",SD-NR,state,,21.8,,,4,Africa/Khartoum,FALSE,1729301532
Samareit,Samareit,,18.4000,31.7833,Sudan,SD,SDN,Northern,Northern,SD-NO,state,,11.5,,,4,Africa/Khartoum,FALSE,1729877761
"Ash Shewen","Ash Shewen",,15.2259,32.9973,Sudan,SD,SDN,Gezira,Gezira,SD-GZ,state,,275.1,,,3,Africa/Khartoum,FALSE,1729057404
"Al Bān Jadīd","Al Ban Jadid",,11.5172,31.1830,Sudan,SD,SDN,"South Kordofan","South Kordofan",SD-KS,state,,8.6,,,5,Africa/Khartoum,FALSE,1729847762
Tarabo,Tarabo,,12.3090,22.7459,Sudan,SD,SDN,"Central Darfur","Central Darfur",SD-DC,state,,27.8,,,4,Africa/Khartoum,FALSE,1729316853
"Sāqiyat al ‘Abd","Saqiyat al `Abd","Saqiat el ‘Abd|Sagiat el ‘Abd",20.8000,30.3167,Sudan,SD,SDN,Northern,Northern,SD-NO,state,,0.3,,,5,Africa/Khartoum,FALSE,1729995448
"Al Khulaywah","Al Khulaywah","Khuleiwa|Kheleiwa|El Khelaiun",18.3500,30.6833,Sudan,SD,SDN,Northern,Northern,SD-NO,state,,1.5,,,4,Africa/Khartoum,FALSE,1729324684
Jughub,Jughub,,12.8866,32.2932,Sudan,SD,SDN,"White Nile","White Nile",SD-NW,state,,42.6,,,4,Africa/Khartoum,FALSE,1729320358
"Khalīfah Sharīf","Khalifah Sharif","Khalifa Sherif",14.0500,33.6333,Sudan,SD,SDN,Gezira,Gezira,SD-GZ,state,,214.0,,,3,Africa/Khartoum,FALSE,1729808533
"Aj Jalaleib","Aj Jalaleib",,11.0992,30.1432,Sudan,SD,SDN,"South Kordofan","South Kordofan",SD-KS,state,,9.2,,,5,Africa/Khartoum,FALSE,1729262069
Tabya,Tabya,,16.3228,32.6968,Sudan,SD,SDN,Khartoum,Khartoum,SD-KH,state,,263.8,,,3,Africa/Khartoum,FALSE,1729317940
Mabeig,Mabeig,,9.5667,28.5667,Sudan,SD,SDN,"West Kordofan","West Kordofan",SD-GK,state,,7.4,,,5,Africa/Khartoum,FALSE,1729751244
"Umm Garun","Umm Garun","Omm Garun",12.6167,30.1500,Sudan,SD,SDN,"North Kordofan","North Kordofan",SD-KN,state,,88.4,,,4,Africa/Khartoum,FALSE,1729715066
"Wad an Nūr","Wad an Nur","Wad en Nur",14.2500,33.5667,Sudan,SD,SDN,Gezira,Gezira,SD-GZ,state,,214.0,,,3,Africa/Khartoum,FALSE,1729181017
"Wad Kutna","Wad Kutna",,13.1833,28.5833,Sudan,SD,SDN,"West Kordofan","West Kordofan",SD-GK,state,,22.4,,,4,Africa/Khartoum,FALSE,1729843029
"Dankūj ash Shluk","Dankuj ash Shluk",,12.8915,32.7468,Sudan,SD,SDN,"White Nile","White Nile",SD-NW,state,,117.4,,,4,Africa/Khartoum,FALSE,1729973583
Ţayyibah,Tayyibah,Taiyiba,12.4500,29.1667,Sudan,SD,SDN,"West Kordofan","West Kordofan",SD-GK,state,,22.5,,,4,Africa/Khartoum,FALSE,1729654645
Turra,Turra,Ţurrah,13.2555,24.3376,Sudan,SD,SDN,"Central Darfur","Central Darfur",SD-DC,state,,5.6,,,5,Africa/Khartoum,FALSE,1729914348
"Al Budayrīyah","Al Budayriyah","El Bedeiriya",12.5500,28.7000,Sudan,SD,SDN,"West Kordofan","West Kordofan",SD-GK,state,,22.4,,,4,Africa/Khartoum,FALSE,1729327097
"Ed Dikka North","Ed Dikka North","Ad Dikka North",18.0018,33.9951,Sudan,SD,SDN,"River Nile","River Nile",SD-NR,state,,15.1,,,4,Africa/Khartoum,FALSE,1729176292
"Aj Jab Bārin","Aj Jab Barin",,12.7452,31.5020,Sudan,SD,SDN,"North Kordofan","North Kordofan",SD-KN,state,,39.2,,,4,Africa/Khartoum,FALSE,1729978472
Qumur,Qumur,,11.9178,33.6205,Sudan,SD,SDN,"Blue Nile","Blue Nile",SD-NB,state,,14.5,,,4,Africa/Khartoum,FALSE,1729938710
Ţayyibah,Tayyibah,Taiyiba,14.2333,33.6333,Sudan,SD,SDN,Gezira,Gezira,SD-GZ,state,,564.9,,,3,Africa/Khartoum,FALSE,1729388011
Ţayyibah,Tayyibah,Taiyiba,14.4500,33.6833,Sudan,SD,SDN,Gezira,Gezira,SD-GZ,state,,68.9,,,4,Africa/Khartoum,TRUE,1729788270
Qirbah,Qirbah,Girbe,15.1167,23.9667,Sudan,SD,SDN,"North Darfur","North Darfur",SD-DN,state,,6.5,,,5,Africa/Khartoum,FALSE,1729369220
"At Tur‘ah","At Tur`ah","Et Tur‘a",14.2833,32.1167,Sudan,SD,SDN,"White Nile","White Nile",SD-NW,state,,66.6,,,4,Africa/Khartoum,FALSE,1729065639
"Faras East","Faras East",,15.1500,35.7667,Sudan,SD,SDN,Kassala,Kassala,SD-KA,state,,185.9,,,4,Africa/Khartoum,FALSE,1729227219
"Al Kuduk","Al Kuduk","El Kuduk",18.8333,33.5000,Sudan,SD,SDN,"River Nile","River Nile",SD-NR,state,,3.3,,,5,Africa/Khartoum,FALSE,1729908557
"Wad Sa‘īd","Wad Sa`id",,14.3837,32.7086,Sudan,SD,SDN,Gezira,Gezira,SD-GZ,state,,163.2,,,4,Africa/Khartoum,FALSE,1729507110
"At Tur‘ah","At Tur`ah","Et Tur‘a",18.9000,33.5167,Sudan,SD,SDN,"River Nile","River Nile",SD-NR,state,,3.3,,,5,Africa/Khartoum,FALSE,1729968237
"Al ‘Amāra Karamalla","Al `Amara Karamalla",,14.3348,32.8503,Sudan,SD,SDN,Gezira,Gezira,SD-GZ,state,,163.2,,,4,Africa/Khartoum,FALSE,1729699200
"Al Urus","Al Urus","El Urus",15.1333,32.7000,Sudan,SD,SDN,"White Nile","White Nile",SD-NW,state,,275.1,,,3,Africa/Khartoum,FALSE,1729626023
"Um Duwāna","Um Duwana",,14.4175,33.0823,Sudan,SD,SDN,Gezira,Gezira,SD-GZ,state,,169.0,,,4,Africa/Khartoum,FALSE,1729609222
"Al Moreb North","Al Moreb North",,12.2452,31.0468,Sudan,SD,SDN,"South Kordofan","South Kordofan",SD-KS,state,,25.2,,,4,Africa/Khartoum,FALSE,1729927183
"At Tur‘ah","At Tur`ah","Et Tur‘a",19.3167,30.4667,Sudan,SD,SDN,Northern,Northern,SD-NO,state,,4.0,,,5,Africa/Khartoum,FALSE,1729667339
Gargarat,Gargarat,,13.7833,32.4333,Sudan,SD,SDN,"White Nile","White Nile",SD-NW,state,,66.6,,,4,Africa/Khartoum,FALSE,1729119274
"Um Qurād","Um Qurad","Umm Qurrad|Umm Qurād",12.7215,34.1383,Sudan,SD,SDN,Sennar,Sennar,SD-SI,state,,85.7,,,4,Africa/Khartoum,FALSE,1729376729
"Qaryat al Abākin","Qaryat al Abakin",,16.4401,35.2477,Sudan,SD,SDN,"River Nile","River Nile",SD-NR,state,,10.2,,,4,Africa/Khartoum,FALSE,1729876418
Ḩimera,Himera,Humeira|Ḩumayrah,14.1443,33.1353,Sudan,SD,SDN,Gezira,Gezira,SD-GZ,state,,163.2,,,4,Africa/Khartoum,FALSE,1729114366
"An Naiya","An Naiya","En Naiya",15.9833,32.5667,Sudan,SD,SDN,Khartoum,Khartoum,SD-KH,state,,263.8,,,3,Africa/Khartoum,FALSE,1729719700
Tawarit,Tawarit,,13.5500,35.6500,Sudan,SD,SDN,Gedaref,Gedaref,SD-GD,state,,23.2,,,4,Africa/Khartoum,FALSE,1729981229
"Ej Jikeka","Ej Jikeka",,16.6009,33.1492,Sudan,SD,SDN,"River Nile","River Nile",SD-NR,state,,21.8,,,4,Africa/Khartoum,FALSE,1729152335
Dawmāyah,Dawmayah,Domaya,11.5167,24.6333,Sudan,SD,SDN,"South Darfur","South Darfur",SD-DS,state,,64.1,,,4,Africa/Khartoum,FALSE,1729355029
Zurq,Zurq,,11.0298,29.1906,Sudan,SD,SDN,"West Kordofan","West Kordofan",SD-GK,state,,4.9,,,5,Africa/Khartoum,FALSE,1729960999
"Umm ‘Asalah","Umm `Asalah","Umm ‘Asala",14.3000,32.4833,Sudan,SD,SDN,"White Nile","White Nile",SD-NW,state,,163.2,,,4,Africa/Khartoum,FALSE,1729023814
Ariel,Ariel,,15.5333,35.7167,Sudan,SD,SDN,Kassala,Kassala,SD-KA,state,,23.1,,,4,Africa/Khartoum,FALSE,1729476429
Tugarar,Tugarar,Tugurar,15.5833,36.3333,Sudan,SD,SDN,Kassala,Kassala,SD-KA,state,,72.7,,,4,Africa/Khartoum,FALSE,1729665885
Irqud,Irqud,,13.0264,24.4827,Sudan,SD,SDN,"South Darfur","South Darfur",SD-DS,state,,11.4,,,4,Africa/Khartoum,FALSE,1729000586
"Masgid Qaryat Māmān","Masgid Qaryat Maman",,16.2795,36.6703,Sudan,SD,SDN,Kassala,Kassala,SD-KA,state,,65.2,,,4,Africa/Khartoum,FALSE,1729308358
Bāqetu,Baqetu,,12.6847,34.1515,Sudan,SD,SDN,Sennar,Sennar,SD-SI,state,,95.0,,,4,Africa/Khartoum,FALSE,1729553224
‘Abdūn,`Abdun,,14.4421,32.6989,Sudan,SD,SDN,Gezira,Gezira,SD-GZ,state,,163.2,,,4,Africa/Khartoum,FALSE,1729473963
"Abu Shāma","Abu Shama",,13.3530,32.2154,Sudan,SD,SDN,"White Nile","White Nile",SD-NW,state,,117.4,,,4,Africa/Khartoum,FALSE,1729374599
"Wad Marzūq","Wad Marzuq",,14.3021,33.1770,Sudan,SD,SDN,Gezira,Gezira,SD-GZ,state,,214.0,,,3,Africa/Khartoum,FALSE,1729192868
"Abū ‘Urf","Abu `Urf",,13.7833,32.1833,Sudan,SD,SDN,"White Nile","White Nile",SD-NW,state,,66.6,,,4,Africa/Khartoum,FALSE,1729722153
"Al Fitūḩ","Al Fituh",,13.7194,32.3067,Sudan,SD,SDN,"White Nile","White Nile",SD-NW,state,,66.6,,,4,Africa/Khartoum,FALSE,1729521742
"Wad Ab Rākūba","Wad Ab Rakuba",,13.2526,32.0422,Sudan,SD,SDN,"North Kordofan","North Kordofan",SD-KN,state,,42.6,,,4,Africa/Khartoum,FALSE,1729472281
Haskanit,Haskanit,,14.2333,29.3333,Sudan,SD,SDN,"North Kordofan","North Kordofan",SD-KN,state,,4.5,,,5,Africa/Khartoum,FALSE,1729910620
Maryod,Maryod,Maryud,14.5378,33.1867,Sudan,SD,SDN,Gezira,Gezira,SD-GZ,state,,181.2,,,4,Africa/Khartoum,FALSE,1729676045
"Umm Jun","Umm Jun",,11.2869,30.4516,Sudan,SD,SDN,"South Kordofan","South Kordofan",SD-KS,state,,9.2,,,5,Africa/Khartoum,FALSE,1729104403
"Gungo Karkara","Gungo Karkara",,14.5667,26.0000,Sudan,SD,SDN,"North Darfur","North Darfur",SD-DN,state,,26.2,,,4,Africa/Khartoum,FALSE,1729566852
"Umm Kamadu","Umm Kamadu",,14.2167,33.3167,Sudan,SD,SDN,Gezira,Gezira,SD-GZ,state,,214.0,,,3,Africa/Khartoum,FALSE,1729783630
"Hagel Murra","Hagel Murra",,13.2772,22.2379,Sudan,SD,SDN,"West Darfur","West Darfur",SD-DW,state,,89.3,,,4,Africa/Khartoum,FALSE,1729412777
Fallala,Fallala,,13.0056,24.7238,Sudan,SD,SDN,"South Darfur","South Darfur",SD-DS,state,,11.4,,,4,Africa/Khartoum,FALSE,1729297855
"Hillat Wad Kasir","Hillat Wad Kasir",,16.0846,33.1504,Sudan,SD,SDN,Khartoum,Khartoum,SD-KH,state,,126.3,,,4,Africa/Khartoum,FALSE,1729432231
Lukji,Lukji,,9.7036,28.4241,Sudan,SD,SDN,"West Kordofan","West Kordofan",SD-GK,state,,7.4,,,5,Africa/Khartoum,FALSE,1729254993
"Al Cardud","Al Cardud",Qardud,11.9527,30.4602,Sudan,SD,SDN,"South Kordofan","South Kordofan",SD-KS,state,,14.3,,,4,Africa/Khartoum,FALSE,1729588184
"El Ushara","El Ushara",,16.7204,33.4800,Sudan,SD,SDN,"River Nile","River Nile",SD-NR,state,,30.3,,,4,Africa/Khartoum,FALSE,1729794639
"El Ushara","El Ushara",,16.6643,33.3165,Sudan,SD,SDN,"River Nile","River Nile",SD-NR,state,,30.3,,,4,Africa/Khartoum,TRUE,1729440626
"Qurdūd al Lubān","Qurdud al Luban","Wad Ghubeish|Qardud el Luban",12.3000,30.6000,Sudan,SD,SDN,"North Kordofan","North Kordofan",SD-KN,state,,39.2,,,4,Africa/Khartoum,FALSE,1729077860
Quraywid,Quraywid,Qereiwid,13.3333,29.7333,Sudan,SD,SDN,"North Kordofan","North Kordofan",SD-KN,state,,88.4,,,4,Africa/Khartoum,FALSE,1729686420
Quraywid,Quraywid,Qereiwid,14.5833,30.4500,Sudan,SD,SDN,"North Kordofan","North Kordofan",SD-KN,state,,6.2,,,5,Africa/Khartoum,TRUE,1729646223
Quraywid,Quraywid,Qereiwid,14.4667,29.0667,Sudan,SD,SDN,"North Kordofan","North Kordofan",SD-KN,state,,4.5,,,5,Africa/Khartoum,TRUE,1729071038
"Hillat Ed al Had","Hillat Ed al Had",,15.2700,32.4430,Sudan,SD,SDN,Khartoum,Khartoum,SD-KH,state,,600.1,,,3,Africa/Khartoum,FALSE,1729329811
"Umm Dawan Ban","Umm Dawan Ban","Umm Dubban|Umm Dhibbān|Um Duwwan Bān",15.4312,32.8356,Sudan,SD,SDN,Khartoum,Khartoum,SD-KH,state,,126.3,,,4,Africa/Khartoum,FALSE,1729171740
"Hillat Umm ‘Owena","Hillat Umm `Owena","Umm ‘Uwaynah|Umm ‘Uweina",15.4064,32.4505,Sudan,SD,SDN,Khartoum,Khartoum,SD-KH,state,,600.1,,,3,Africa/Khartoum,FALSE,1729037580
Miberika,Miberika,,18.3000,33.8000,Sudan,SD,SDN,"River Nile","River Nile",SD-NR,state,,15.1,,,4,Africa/Khartoum,FALSE,1729770337
Wiḑema,Widema,,14.5104,32.8046,Sudan,SD,SDN,Gezira,Gezira,SD-GZ,state,,163.2,,,4,Africa/Khartoum,FALSE,1729844128
"Wad Muhayrah","Wad Muhayrah","Wad Muheira",13.6833,33.1833,Sudan,SD,SDN,Sennar,Sennar,SD-SI,state,,66.7,,,4,Africa/Khartoum,FALSE,1729214114
"Al ‘Azāzah","Al `Azazah","El ‘Azaza",14.9833,32.8167,Sudan,SD,SDN,Gezira,Gezira,SD-GZ,state,,181.2,,,4,Africa/Khartoum,FALSE,1729977275
Furayk,Furayk,Feraik,13.5000,31.4500,Sudan,SD,SDN,"North Kordofan","North Kordofan",SD-KN,state,,39.2,,,4,Africa/Khartoum,FALSE,1729851080
Zumurka,Zumurka,,12.8835,34.0456,Sudan,SD,SDN,Sennar,Sennar,SD-SI,state,,95.0,,,4,Africa/Khartoum,FALSE,1729316403
