city,city_ascii,city_alt,lat,lng,country,iso2,iso3,admin_name,admin_name_ascii,admin_code,admin_type,capital,density,population,population_proper,ranking,timezone,same_name,id
Stockholm,Stockholm,Tukholma,59.3294,18.0686,Sweden,SE,SWE,Stockholm,Stockholm,SE-AB,county,primary,5261.5,2121000,984748,1,Europe/Stockholm,FALSE,1752425602
Gothenburg,Gothenburg,Gottenborg|Goteburg|Goeteborg|Göteborg,57.7075,11.9675,Sweden,SE,SWE,"Västra Götaland","Vastra Gotaland",SE-O,county,admin,3942.4,607882,607882,2,Europe/Stockholm,FALSE,1752059374
Malmö,Malmo,,55.6058,13.0358,Sweden,SE,SWE,Skåne,Skane,SE-M,county,admin,4049.0,360249,360249,2,Europe/Stockholm,FALSE,1752705818
Uppsala,Uppsala,,59.8581,17.6447,Sweden,SE,SWE,Uppsala,Uppsala,SE-C,county,admin,3856.1,166698,166698,2,Europe/Stockholm,FALSE,1752953686
Norrköping,Norrkoping,,58.6000,16.2000,Sweden,SE,SWE,Östergötland,Ostergotland,SE-E,county,minor,2446.0,137326,137326,2,Europe/Stockholm,FALSE,1752803583
Uppsala,Uppsala,Upsala,59.8601,17.6400,Sweden,SE,SWE,Stockholm,Stockholm,SE-AB,county,,3772.5,133117,133117,2,Europe/Stockholm,FALSE,1752330831
Västerås,Vasteras,,59.6161,16.5528,Sweden,SE,SWE,Västmanland,Vastmanland,SE-U,county,admin,688.2,128660,128660,2,Europe/Stockholm,FALSE,1752826955
Örebro,Orebro,,59.2739,15.2075,Sweden,SE,SWE,Örebro,Orebro,SE-T,county,admin,2172.0,126604,126604,2,Europe/Stockholm,FALSE,1752223019
Linköping,Linkoping,,58.4158,15.6253,Sweden,SE,SWE,Östergötland,Ostergotland,SE-E,county,admin,2769.5,115682,115682,2,Europe/Stockholm,FALSE,1752963378
Borås,Boras,Celfsborg,57.7211,12.9403,Sweden,SE,SWE,"Västra Götaland","Vastra Gotaland",SE-O,county,minor,126.13,114445,114445,2,Europe/Stockholm,FALSE,1752555835
Helsingborg,Helsingborg,Hälsingborg|Halsingbord,56.0500,12.7167,Sweden,SE,SWE,Skåne,Skane,SE-M,county,minor,2876.6,113828,113828,2,Europe/Stockholm,FALSE,1752789933
Jönköping,Jonkoping,,57.7828,14.1606,Sweden,SE,SWE,Jönköping,Jonkoping,SE-F,county,admin,2516.0,112766,112766,2,Europe/Stockholm,FALSE,1752079041
Sundsvall,Sundsvall,,62.4000,17.3167,Sweden,SE,SWE,Västernorrland,Vasternorrland,SE-Y,county,minor,1847.0,99825,58807,3,Europe/Stockholm,FALSE,1752024232
Gävle,Gavle,Gefle|Gäfle,60.6747,17.1417,Sweden,SE,SWE,Gävleborg,Gavleborg,SE-X,county,admin,111.8,96969,79004,2,Europe/Stockholm,FALSE,1752586931
Umeå,Umea,,63.8250,20.2639,Sweden,SE,SWE,Västerbotten,Vasterbotten,SE-AC,county,admin,383.1,75643,75643,2,Europe/Stockholm,FALSE,1752273881
Skellefteå,Skelleftea,,64.7500,20.9500,Sweden,SE,SWE,Västerbotten,Vasterbotten,SE-AC,county,minor,102.9,74402,36395,3,Europe/Stockholm,FALSE,1752233025
Södertälje,Sodertalje,,59.1958,17.6281,Sweden,SE,SWE,Stockholm,Stockholm,SE-AB,county,minor,727.7,72704,72704,3,Europe/Stockholm,FALSE,1752403970
Halmstad,Halmstad,Hamstad,56.6739,12.8572,Sweden,SE,SWE,Halland,Halland,SE-N,county,admin,275.1,71422,71422,2,Europe/Stockholm,FALSE,1752392511
Eskilstuna,Eskilstuna,,59.3708,16.5097,Sweden,SE,SWE,Södermanland,Sodermanland,SE-D,county,minor,2083.0,69948,69948,2,Europe/Stockholm,FALSE,1752784934
Karlskrona,Karlskrona,,56.1608,15.5861,Sweden,SE,SWE,Blekinge,Blekinge,SE-K,county,admin,1621.0,66675,66675,2,Europe/Stockholm,FALSE,1752316086
Växjö,Vaxjo,Vexiö,56.8769,14.8092,Sweden,SE,SWE,Kronoberg,Kronoberg,SE-G,county,admin,2011.0,66275,66275,2,Europe/Stockholm,FALSE,1752263370
Karlstad,Karlstad,,59.3783,13.5042,Sweden,SE,SWE,Värmland,Varmland,SE-S,county,admin,2035.0,65856,65856,2,Europe/Stockholm,FALSE,1752502445
Täby,Taby,,59.4333,18.0833,Sweden,SE,SWE,Stockholm,Stockholm,SE-AB,county,minor,2374.0,65364,65364,2,Europe/Stockholm,FALSE,1752810519
Trollhättan,Trollhattan,,58.2828,12.2892,Sweden,SE,SWE,"Västra Götaland","Vastra Gotaland",SE-O,county,minor,1954.0,59210,59210,3,Europe/Stockholm,FALSE,1752863731
Östersund,Ostersund,,63.1792,14.6358,Sweden,SE,SWE,Jämtland,Jamtland,SE-Z,county,admin,532.8,49806,49806,2,Europe/Stockholm,FALSE,1752026711
Luleå,Lulea,,65.5844,22.1539,Sweden,SE,SWE,Norrbotten,Norrbotten,SE-BD,county,admin,465.5,49123,49123,2,Europe/Stockholm,FALSE,1752765449
"Upplands Väsby","Upplands Vasby","Väsby Villastad|Uplands Väsby|Väsby",59.5167,17.9167,Sweden,SE,SWE,Stockholm,Stockholm,SE-AB,county,minor,2653.0,48907,48907,2,Europe/Stockholm,FALSE,1752271400
Borlänge,Borlange,,60.4856,15.4364,Sweden,SE,SWE,Dalarna,Dalarna,SE-W,county,minor,93.2,44898,44898,3,Europe/Stockholm,FALSE,1752944924
Trelleborg,Trelleborg,Trälleborg,55.3667,13.1667,Sweden,SE,SWE,Skåne,Skane,SE-M,county,minor,2071.0,43359,43359,2,Europe/Stockholm,FALSE,1752823325
Ängelholm,Angelholm,,56.2500,12.8500,Sweden,SE,SWE,Skåne,Skane,SE-M,county,minor,467.3,42131,42131,3,Europe/Stockholm,FALSE,1752870016
Kalmar,Kalmar,,56.6614,16.3628,Sweden,SE,SWE,Kalmar,Kalmar,SE-H,county,admin,2238.1,41852,41852,2,Europe/Stockholm,FALSE,1752640618
Lidköping,Lidkoping,,58.5000,13.1833,Sweden,SE,SWE,"Västra Götaland","Vastra Gotaland",SE-O,county,minor,1652.0,40000,40000,3,Europe/Stockholm,FALSE,1752263259
Skövde,Skovde,Sköfde|Skövd,58.3833,13.8500,Sweden,SE,SWE,"Västra Götaland","Vastra Gotaland",SE-O,county,minor,537.2,39580,39580,3,Europe/Stockholm,FALSE,1752316649
Nyköping,Nykoping,,58.7531,17.0086,Sweden,SE,SWE,Södermanland,Sodermanland,SE-D,county,admin,157.4,38780,38780,2,Europe/Stockholm,FALSE,1752377083
Strängnäs,Strangnas,Strängnäss,59.3667,17.0333,Sweden,SE,SWE,Södermanland,Sodermanland,SE-D,county,minor,40.0,38526,38526,3,Europe/Stockholm,FALSE,1752111370
Alingsås,Alingsas,,57.9300,12.5331,Sweden,SE,SWE,"Västra Götaland","Vastra Gotaland",SE-O,county,minor,209.3,38509,24482,3,Europe/Stockholm,FALSE,1752378437
Tumba,Tumba,,59.2000,17.8167,Sweden,SE,SWE,Stockholm,Stockholm,SE-AB,county,minor,2134.0,37852,37852,2,Europe/Stockholm,FALSE,1752693397
Falun,Falun,Fahlun,60.6072,15.6311,Sweden,SE,SWE,Dalarna,Dalarna,SE-W,county,admin,385.7,37291,37291,2,Europe/Stockholm,FALSE,1752939220
Mölndal,Molndal,,57.6500,12.0167,Sweden,SE,SWE,"Västra Götaland","Vastra Gotaland",SE-O,county,minor,245.0,37233,37233,3,Europe/Stockholm,FALSE,1752307790
Västervik,Vastervik,,57.7500,16.6333,Sweden,SE,SWE,Kalmar,Kalmar,SE-H,county,minor,471.7,36747,36747,3,Europe/Stockholm,FALSE,1752051923
Varberg,Varberg,Varburg,57.1167,12.2167,Sweden,SE,SWE,Halland,Halland,SE-N,county,minor,1454.0,35782,35782,3,Europe/Stockholm,FALSE,1752538180
Uddevalla,Uddevalla,,58.3492,11.9381,Sweden,SE,SWE,"Västra Götaland","Vastra Gotaland",SE-O,county,minor,1845.0,34781,34781,3,Europe/Stockholm,FALSE,1752935117
Landskrona,Landskrona,,55.8706,12.8311,Sweden,SE,SWE,Skåne,Skane,SE-M,county,minor,516.8,33372,33372,3,Europe/Stockholm,FALSE,1752529229
Örnsköldsvik,Ornskoldsvik,,63.2908,18.7156,Sweden,SE,SWE,Västernorrland,Vasternorrland,SE-Y,county,minor,8.8,32953,32953,3,Europe/Stockholm,FALSE,1752250773
Kävlinge,Kavlinge,,55.7939,13.1133,Sweden,SE,SWE,Skåne,Skane,SE-M,county,minor,270.4,32341,32341,3,Europe/Stockholm,FALSE,1752983535
Kristianstad,Kristianstad,,56.0337,14.1333,Sweden,SE,SWE,Skåne,Skane,SE-M,county,minor,185.2,32188,32188,3,Europe/Stockholm,FALSE,1752606470
Staffanstorp,Staffanstorp,,55.6333,13.2000,Sweden,SE,SWE,Skåne,Skane,SE-M,county,minor,331.6,31718,31718,3,Europe/Stockholm,FALSE,1752021671
Lidingö,Lidingo,"Lidingö Villastad",59.3667,18.1500,Sweden,SE,SWE,Stockholm,Stockholm,SE-AB,county,minor,2524.0,31561,31561,2,Europe/Stockholm,FALSE,1752051674
Motala,Motala,,58.5333,15.0333,Sweden,SE,SWE,Östergötland,Ostergotland,SE-E,county,minor,290.4,29823,29823,3,Europe/Stockholm,FALSE,1752105097
Vallentuna,Vallentuna,,59.5333,18.0833,Sweden,SE,SWE,Stockholm,Stockholm,SE-AB,county,minor,195.3,29519,29519,3,Europe/Stockholm,FALSE,1752629377
Ystad,Ystad,Ystao,55.4167,13.8333,Sweden,SE,SWE,Skåne,Skane,SE-M,county,minor,2120.0,28985,28985,2,Europe/Stockholm,FALSE,1752657171
Åkersberga,Akersberga,,59.4833,18.3000,Sweden,SE,SWE,Stockholm,Stockholm,SE-AB,county,minor,236.1,28033,28033,3,Europe/Stockholm,FALSE,1752878685
Karlskoga,Karlskoga,Kariskoga,59.3333,14.5167,Sweden,SE,SWE,Örebro,Orebro,SE-T,county,minor,59.7,27562,27562,3,Europe/Stockholm,FALSE,1752529628
Märsta,Marsta,,59.6167,17.8500,Sweden,SE,SWE,Stockholm,Stockholm,SE-AB,county,minor,218.0,27034,27034,3,Europe/Stockholm,FALSE,1752183604
Kiruna,Kiruna,,67.8489,20.3028,Sweden,SE,SWE,Norrbotten,Norrbotten,SE-BD,county,minor,2.0,26703,26703,3,Europe/Stockholm,FALSE,1752001526
Visby,Visby,,57.6347,18.2992,Sweden,SE,SWE,Gotland,Gotland,SE-I,county,admin,598.2,24951,24951,2,Europe/Stockholm,FALSE,1752027172
Katrineholm,Katrineholm,"Katrineholms station|Cathrineholm",59.0000,16.2000,Sweden,SE,SWE,Södermanland,Sodermanland,SE-D,county,minor,37.2,24271,24271,3,Europe/Stockholm,FALSE,1752643787
Boo,Boo,Bo,59.3167,18.2500,Sweden,SE,SWE,Stockholm,Stockholm,SE-AB,county,,1479.0,24052,24052,3,Europe/Stockholm,FALSE,1752145853
Vänersborg,Vanersborg,,58.3806,12.3250,Sweden,SE,SWE,"Västra Götaland","Vastra Gotaland",SE-O,county,minor,237.1,23882,23882,3,Europe/Stockholm,FALSE,1752467593
Piteå,Pitea,,65.3167,21.4833,Sweden,SE,SWE,Norrbotten,Norrbotten,SE-BD,county,minor,12.5,23350,23350,3,Europe/Stockholm,FALSE,1752869095
Kungsbacka,Kungsbacka,"Kungsbacka Skene",57.4833,12.0667,Sweden,SE,SWE,Halland,Halland,SE-N,county,minor,1901.0,23000,23000,3,Europe/Stockholm,FALSE,1752375831
Sandviken,Sandviken,,60.6167,16.7833,Sweden,SE,SWE,Gävleborg,Gavleborg,SE-X,county,minor,183.1,22965,22965,3,Europe/Stockholm,FALSE,1752810020
Kungälv,Kungalv,,57.8667,11.9667,Sweden,SE,SWE,"Västra Götaland","Vastra Gotaland",SE-O,county,minor,1976.0,22768,22768,3,Europe/Stockholm,FALSE,1752531521
Huskvarna,Huskvarna,,57.8000,14.2667,Sweden,SE,SWE,Jönköping,Jonkoping,SE-F,county,,2212.4,22000,22000,2,Europe/Stockholm,FALSE,1752552539
Kumla,Kumla,,59.1167,15.1333,Sweden,SE,SWE,Örebro,Orebro,SE-T,county,minor,185.6,21640,21640,3,Europe/Stockholm,FALSE,1752201206
Enköping,Enkoping,,59.6356,17.0764,Sweden,SE,SWE,Uppsala,Uppsala,SE-C,county,minor,348.6,21121,21121,3,Europe/Stockholm,FALSE,1752230483
Sjöbo,Sjobo,,55.6333,13.7167,Sweden,SE,SWE,Skåne,Skane,SE-M,county,minor,39.64,19497,19497,3,Europe/Stockholm,FALSE,1752520046
Karlshamn,Karlshamn,,56.1667,14.8500,Sweden,SE,SWE,Blekinge,Blekinge,SE-K,county,,1415.0,19075,19075,3,Europe/Stockholm,FALSE,1752379401
Skara,Skara,,58.3833,13.4333,Sweden,SE,SWE,"Västra Götaland","Vastra Gotaland",SE-O,county,minor,42.2,18580,18580,3,Europe/Stockholm,FALSE,1752171029
Härnösand,Harnosand,Hernösand,62.6361,17.9411,Sweden,SE,SWE,Västernorrland,Vasternorrland,SE-Y,county,admin,305.0,18508,18508,2,Europe/Stockholm,FALSE,1752644953
Hässleholm,Hassleholm,,56.1667,13.7667,Sweden,SE,SWE,Skåne,Skane,SE-M,county,minor,1537.8,18500,18500,3,Europe/Stockholm,FALSE,1752526882
Falköping,Falkoping,,58.1750,13.5531,Sweden,SE,SWE,"Västra Götaland","Vastra Gotaland",SE-O,county,minor,287.9,17939,17939,3,Europe/Stockholm,FALSE,1752889623
Kristinehamn,Kristinehamn,,59.3000,14.1167,Sweden,SE,SWE,Värmland,Varmland,SE-S,county,minor,83.7,17839,17839,3,Europe/Stockholm,FALSE,1752708772
Eslöv,Eslov,,55.8392,13.3039,Sweden,SE,SWE,Skåne,Skane,SE-M,county,minor,155.9,17748,17748,3,Europe/Stockholm,FALSE,1752202546
Köping,Koping,,59.5167,15.9833,Sweden,SE,SWE,Västmanland,Vastmanland,SE-U,county,minor,70.0,17743,17743,3,Europe/Stockholm,FALSE,1752366756
Norrtälje,Norrtalje,Norrtelje|Norrtelge,59.7667,18.7000,Sweden,SE,SWE,Stockholm,Stockholm,SE-AB,county,minor,610.3,17275,17275,3,Europe/Stockholm,FALSE,1752949126
Oskarshamn,Oskarshamn,,57.2650,16.4500,Sweden,SE,SWE,Kalmar,Kalmar,SE-H,county,minor,1317.0,17258,17258,3,Europe/Stockholm,FALSE,1752437769
Lerum,Lerum,,57.7667,12.3000,Sweden,SE,SWE,"Västra Götaland","Vastra Gotaland",SE-O,county,minor,292.7,16855,16855,3,Europe/Stockholm,FALSE,1752006435
Boden,Boden,Bodo,65.8256,21.6906,Sweden,SE,SWE,Norrbotten,Norrbotten,SE-BD,county,minor,17.1,16847,16847,3,Europe/Stockholm,FALSE,1752956055
Klippansbruk,Klippansbruk,Klippan,56.1167,13.1500,Sweden,SE,SWE,Skåne,Skane,SE-M,county,,80.1,16715,16715,3,Europe/Stockholm,FALSE,1752885132
Nässjö,Nassjo,,57.6500,14.6833,Sweden,SE,SWE,Jönköping,Jonkoping,SE-F,county,minor,151.3,16678,16678,3,Europe/Stockholm,FALSE,1752891199
Mariestad,Mariestad,,58.7000,13.8167,Sweden,SE,SWE,"Västra Götaland","Vastra Gotaland",SE-O,county,minor,124.1,16611,16611,3,Europe/Stockholm,FALSE,1752879298
Höganäs,Hoganas,,56.2000,12.5667,Sweden,SE,SWE,Skåne,Skane,SE-M,county,minor,1544.5,16001,16001,3,Europe/Stockholm,FALSE,1752137413
Tullinge,Tullinge,,59.2000,17.9000,Sweden,SE,SWE,Stockholm,Stockholm,SE-AB,county,,1099.8,16000,16000,3,Europe/Stockholm,FALSE,1752531824
Mölnlycke,Molnlycke,,57.6667,12.1167,Sweden,SE,SWE,"Västra Götaland","Vastra Gotaland",SE-O,county,minor,522.8,15608,15608,3,Europe/Stockholm,FALSE,1752294225
Kinna,Kinna,,57.5167,12.6833,Sweden,SE,SWE,"Västra Götaland","Vastra Gotaland",SE-O,county,minor,191.7,15452,15452,3,Europe/Stockholm,FALSE,1752953604
Bunkeflostrand,Bunkeflostrand,,55.5500,12.9167,Sweden,SE,SWE,Skåne,Skane,SE-M,county,,292.5,15212,15212,3,Europe/Stockholm,FALSE,1752685972
Ljungby,Ljungby,,56.8333,13.9333,Sweden,SE,SWE,Kronoberg,Kronoberg,SE-G,county,minor,279.8,15205,15205,3,Europe/Stockholm,FALSE,1752960918
Hallstahammar,Hallstahammar,,59.6167,16.2500,Sweden,SE,SWE,Västmanland,Vastmanland,SE-U,county,minor,108.2,15200,15200,3,Europe/Stockholm,FALSE,1752239523
Västerhaninge,Vasterhaninge,,59.1167,18.0667,Sweden,SE,SWE,Stockholm,Stockholm,SE-AB,county,minor,126.5,15134,15134,3,Europe/Stockholm,FALSE,1752693403
Hudiksvall,Hudiksvall,,61.7333,17.1167,Sweden,SE,SWE,Gävleborg,Gavleborg,SE-X,county,minor,146.2,15015,15015,3,Europe/Stockholm,FALSE,1752219385
Ludvika,Ludvika,Ludviki,60.1333,15.1833,Sweden,SE,SWE,Dalarna,Dalarna,SE-W,county,minor,92.1,14498,14498,3,Europe/Stockholm,FALSE,1752311892
Arvika,Arvika,,59.6542,12.5914,Sweden,SE,SWE,Värmland,Varmland,SE-S,county,minor,1341.0,14244,14244,3,Europe/Stockholm,FALSE,1752743749
Tranås,Tranas,"Tranås Kyarn",58.0333,14.9667,Sweden,SE,SWE,Jönköping,Jonkoping,SE-F,county,minor,87.9,14197,14197,3,Europe/Stockholm,FALSE,1752722213
Arboga,Arboga,,59.3939,15.8386,Sweden,SE,SWE,Västmanland,Vastmanland,SE-U,county,minor,40.6,14057,10989,3,Europe/Stockholm,FALSE,1752494456
Mjölby,Mjolby,,58.3333,15.1167,Sweden,SE,SWE,Östergötland,Ostergotland,SE-E,county,minor,147.3,13959,13959,3,Europe/Stockholm,FALSE,1752185099
Lomma,Lomma,,55.6667,13.0833,Sweden,SE,SWE,Skåne,Skane,SE-M,county,minor,2359.0,13772,13772,2,Europe/Stockholm,FALSE,1752810659
Nybro,Nybro,,56.7333,15.9000,Sweden,SE,SWE,Kalmar,Kalmar,SE-H,county,minor,158.5,13583,13583,3,Europe/Stockholm,FALSE,1752956963
Nynäshamn,Nynashamn,Nynäshamm,58.9000,17.9500,Sweden,SE,SWE,Stockholm,Stockholm,SE-AB,county,minor,447.1,13510,13510,3,Europe/Stockholm,FALSE,1752209871
Skoghall,Skoghall,,59.3333,13.4333,Sweden,SE,SWE,Värmland,Varmland,SE-S,county,minor,304.5,13265,13265,3,Europe/Stockholm,FALSE,1752185362
Bålsta,Balsta,,59.5833,17.5000,Sweden,SE,SWE,Uppsala,Uppsala,SE-C,county,minor,1319.0,13138,13138,3,Europe/Stockholm,FALSE,1752539011
Vetlanda,Vetlanda,Vitlanda,57.4333,15.0667,Sweden,SE,SWE,Jönköping,Jonkoping,SE-F,county,minor,113.8,13050,13050,3,Europe/Stockholm,FALSE,1752000768
Sunne,Sunne,,59.8333,13.1333,Sweden,SE,SWE,Värmland,Varmland,SE-S,county,minor,16.1,13000,13000,3,Europe/Stockholm,FALSE,1752127912
Höör,Hoor,,55.9361,13.5472,Sweden,SE,SWE,Skåne,Skane,SE-M,county,minor,61.9,12976,12976,3,Europe/Stockholm,FALSE,1752091999
Mora,Mora,,61.0167,14.5333,Sweden,SE,SWE,Dalarna,Dalarna,SE-W,county,minor,7.0,12854,12854,3,Europe/Stockholm,FALSE,1752665392
Finspång,Finspang,,58.7000,15.8000,Sweden,SE,SWE,Östergötland,Ostergotland,SE-E,county,minor,46.2,12440,12440,3,Europe/Stockholm,FALSE,1752523151
Bollnäs,Bollnas,,61.3481,16.3947,Sweden,SE,SWE,Gävleborg,Gavleborg,SE-X,county,minor,19.9,12381,12381,3,Europe/Stockholm,FALSE,1752287863
Sala,Sala,,59.9167,16.6000,Sweden,SE,SWE,Västmanland,Vastmanland,SE-U,county,minor,87.4,12289,12289,3,Europe/Stockholm,FALSE,1752888405
Hagfors,Hagfors,Hagsfors,60.0333,13.6500,Sweden,SE,SWE,Värmland,Varmland,SE-S,county,minor,5.7,12125,12125,3,Europe/Stockholm,FALSE,1752937511
Ronneby,Ronneby,,56.2000,15.2833,Sweden,SE,SWE,Blekinge,Blekinge,SE-K,county,minor,37.0,12029,12029,3,Europe/Stockholm,FALSE,1752180861
Avesta,Avesta,,60.1456,16.1683,Sweden,SE,SWE,Dalarna,Dalarna,SE-W,county,minor,53.2,11949,11949,3,Europe/Stockholm,FALSE,1752442829
Söderhamn,Soderhamn,,61.3000,17.0833,Sweden,SE,SWE,Gävleborg,Gavleborg,SE-X,county,minor,323.7,11761,11761,3,Europe/Stockholm,FALSE,1752828589
Ekerö,Ekero,,59.2833,17.8000,Sweden,SE,SWE,Stockholm,Stockholm,SE-AB,county,minor,379.8,11524,11524,3,Europe/Stockholm,FALSE,1752521808
Oxelösund,Oxelosund,,58.6667,17.1167,Sweden,SE,SWE,Södermanland,Sodermanland,SE-D,county,minor,304.3,11488,11488,3,Europe/Stockholm,FALSE,1752816950
Ulricehamn,Ulricehamn,,57.7833,13.4167,Sweden,SE,SWE,"Västra Götaland","Vastra Gotaland",SE-O,county,minor,209.0,11410,11410,3,Europe/Stockholm,FALSE,1752323454
Gustavsberg,Gustavsberg,Gustarsberg,59.3333,18.3833,Sweden,SE,SWE,Stockholm,Stockholm,SE-AB,county,minor,235.2,11333,11333,3,Europe/Stockholm,FALSE,1752098351
Säter,Sater,Satar,60.3500,15.7500,Sweden,SE,SWE,Dalarna,Dalarna,SE-W,county,minor,17.8,11161,11161,3,Europe/Stockholm,FALSE,1752106065
Fagersta,Fagersta,"Fagersta Bruk",60.0042,15.7933,Sweden,SE,SWE,Västmanland,Vastmanland,SE-U,county,minor,46.5,11130,11130,3,Europe/Stockholm,FALSE,1752230389
Lindome,Lindome,,57.5667,12.1000,Sweden,SE,SWE,"Västra Götaland","Vastra Gotaland",SE-O,county,,190.1,11037,11037,3,Europe/Stockholm,FALSE,1752017510
Älmhult,Almhult,,56.5500,14.1333,Sweden,SE,SWE,Kronoberg,Kronoberg,SE-G,county,minor,1020.0,11003,11003,3,Europe/Stockholm,FALSE,1752497359
Vimmerby,Vimmerby,,57.6667,15.8500,Sweden,SE,SWE,Kalmar,Kalmar,SE-H,county,minor,52.9,10934,10934,3,Europe/Stockholm,FALSE,1752144282
Filipstad,Filipstad,,59.7167,14.1667,Sweden,SE,SWE,Värmland,Varmland,SE-S,county,minor,6.1,10644,10644,3,Europe/Stockholm,FALSE,1752017138
Svedala,Svedala,,55.5000,13.2333,Sweden,SE,SWE,Skåne,Skane,SE-M,county,minor,121.5,10627,10627,3,Europe/Stockholm,FALSE,1752069692
Höllviken,Hollviken,Höllviksnäs,55.4167,12.9500,Sweden,SE,SWE,Skåne,Skane,SE-M,county,,379.2,10607,10607,3,Europe/Stockholm,FALSE,1752012234
Timrå,Timra,,62.4869,17.3258,Sweden,SE,SWE,Västernorrland,Vasternorrland,SE-Y,county,minor,135.4,10443,10443,3,Europe/Stockholm,FALSE,1752299610
Gagnef,Gagnef,,60.5833,15.0667,Sweden,SE,SWE,Dalarna,Dalarna,SE-W,county,minor,17.5,10328,10328,3,Europe/Stockholm,FALSE,1752571884
Örkelljunga,Orkelljunga,,56.2833,13.2833,Sweden,SE,SWE,Skåne,Skane,SE-M,county,minor,45.2,10300,10300,3,Europe/Stockholm,FALSE,1752548206
Jordbro,Jordbro,,59.1500,18.1333,Sweden,SE,SWE,Stockholm,Stockholm,SE-AB,county,,622.7,10291,10291,3,Europe/Stockholm,FALSE,1752201774
Billdal,Billdal,,57.5833,11.9333,Sweden,SE,SWE,"Västra Götaland","Vastra Gotaland",SE-O,county,,1015.0,10289,10289,3,Europe/Stockholm,FALSE,1752902367
Arlöv,Arlov,,55.6333,13.0833,Sweden,SE,SWE,Skåne,Skane,SE-M,county,minor,19.1,10284,10284,3,Europe/Stockholm,FALSE,1752897909
Gislaved,Gislaved,,57.3000,13.5333,Sweden,SE,SWE,Jönköping,Jonkoping,SE-F,county,minor,106.5,10231,10231,3,Europe/Stockholm,FALSE,1752639615
Älta,Alta,,59.2500,18.1833,Sweden,SE,SWE,Stockholm,Stockholm,SE-AB,county,,3011.0,9989,9989,2,Europe/Stockholm,FALSE,1752413057
Stenungsund,Stenungsund,,58.0833,11.8167,Sweden,SE,SWE,"Västra Götaland","Vastra Gotaland",SE-O,county,minor,898.0,9987,9987,3,Europe/Stockholm,FALSE,1752961653
Nödinge-Nol,Nodinge-Nol,,57.9000,12.0667,Sweden,SE,SWE,"Västra Götaland","Vastra Gotaland",SE-O,county,,103.8,9822,9822,4,Europe/Stockholm,FALSE,1752000147
Eksjö,Eksjo,,57.6669,14.9703,Sweden,SE,SWE,Jönköping,Jonkoping,SE-F,county,minor,80.8,9701,9701,3,Europe/Stockholm,FALSE,1752063761
Sigtuna,Sigtuna,,59.6167,17.7167,Sweden,SE,SWE,Stockholm,Stockholm,SE-AB,county,,214.4,9689,9689,3,Europe/Stockholm,FALSE,1752118222
Sävja,Savja,,59.8167,17.7000,Sweden,SE,SWE,Uppsala,Uppsala,SE-C,county,,129.7,9684,9684,4,Europe/Stockholm,FALSE,1752516953
Lindesberg,Lindesberg,,59.5833,15.2500,Sweden,SE,SWE,Örebro,Orebro,SE-T,county,minor,17.0,9672,9672,3,Europe/Stockholm,FALSE,1752750854
Bjärred,Bjarred,,55.7167,13.0167,Sweden,SE,SWE,Skåne,Skane,SE-M,county,,345.2,9542,9542,3,Europe/Stockholm,FALSE,1752885490
Saltsjöbaden,Saltsjobaden,,59.2861,18.2872,Sweden,SE,SWE,Stockholm,Stockholm,SE-AB,county,,1751.0,9491,9491,3,Europe/Stockholm,FALSE,1752396058
Åstorp,Astorp,,56.1347,12.9472,Sweden,SE,SWE,Skåne,Skane,SE-M,county,minor,406.4,9488,9488,3,Europe/Stockholm,FALSE,1752829425
Åhus,Ahus,,55.9167,14.2833,Sweden,SE,SWE,Skåne,Skane,SE-M,county,,158.0,9423,9423,4,Europe/Stockholm,FALSE,1752365263
Kungsängen,Kungsangen,,59.4833,17.7500,Sweden,SE,SWE,Stockholm,Stockholm,SE-AB,county,minor,224.7,9382,9382,3,Europe/Stockholm,FALSE,1752617626
Åmål,Amal,,59.0500,12.7000,Sweden,SE,SWE,"Västra Götaland","Vastra Gotaland",SE-O,county,minor,23.6,9065,9065,3,Europe/Stockholm,FALSE,1752187898
Säffle,Saffle,,59.1333,12.9333,Sweden,SE,SWE,Värmland,Varmland,SE-S,county,minor,105.8,8991,8991,3,Europe/Stockholm,FALSE,1752987175
Brevik,Brevik,,59.3500,18.2000,Sweden,SE,SWE,Stockholm,Stockholm,SE-AB,county,,2211.0,8772,8772,2,Europe/Stockholm,FALSE,1752993223
Habo,Habo,,57.9167,14.0667,Sweden,SE,SWE,Jönköping,Jonkoping,SE-F,county,minor,30.3,8753,8753,3,Europe/Stockholm,FALSE,1752321919
Sollefteå,Solleftea,,63.1667,17.2667,Sweden,SE,SWE,Västernorrland,Vasternorrland,SE-Y,county,minor,37.4,8643,8643,3,Europe/Stockholm,FALSE,1752942134
Tibro,Tibro,,58.4167,14.1667,Sweden,SE,SWE,"Västra Götaland","Vastra Gotaland",SE-O,county,minor,81.4,8614,8614,3,Europe/Stockholm,FALSE,1752652082
Lycksele,Lycksele,Lyoksele,64.6000,18.6667,Sweden,SE,SWE,Västerbotten,Vasterbotten,SE-AC,county,minor,2.1,8513,8513,3,Europe/Stockholm,FALSE,1752497836
Gällivare,Gallivare,,67.1300,20.6600,Sweden,SE,SWE,Norrbotten,Norrbotten,SE-BD,county,minor,0.7,8449,8449,3,Europe/Stockholm,FALSE,1752350631
Sölvesborg,Solvesborg,,56.0442,14.5753,Sweden,SE,SWE,Blekinge,Blekinge,SE-K,county,minor,350.0,8401,8401,3,Europe/Stockholm,FALSE,1752121570
Tidaholm,Tidaholm,,58.1833,13.9500,Sweden,SE,SWE,"Västra Götaland","Vastra Gotaland",SE-O,county,minor,122.6,8146,8146,3,Europe/Stockholm,FALSE,1752287671
Klippan,Klippan,,56.1344,13.1283,Sweden,SE,SWE,Skåne,Skane,SE-M,county,minor,80.1,8116,8116,3,Europe/Stockholm,FALSE,1752637619
Bankeryd,Bankeryd,,57.8500,14.1167,Sweden,SE,SWE,Jönköping,Jonkoping,SE-F,county,,256.3,8107,8107,3,Europe/Stockholm,FALSE,1752766424
Floda,Floda,,57.8167,12.3667,Sweden,SE,SWE,"Västra Götaland","Vastra Gotaland",SE-O,county,,167.2,8021,8021,4,Europe/Stockholm,FALSE,1752238972
Alvesta,Alvesta,,56.9000,14.5500,Sweden,SE,SWE,Kronoberg,Kronoberg,SE-G,county,minor,44.2,8017,8017,3,Europe/Stockholm,FALSE,1752852876
Lysekil,Lysekil,,58.2775,11.4425,Sweden,SE,SWE,"Västra Götaland","Vastra Gotaland",SE-O,county,minor,2032.0,8000,8000,2,Europe/Stockholm,FALSE,1752034694
Kil,Kil,,59.5000,13.3167,Sweden,SE,SWE,Värmland,Varmland,SE-S,county,minor,60.6,7842,7842,3,Europe/Stockholm,FALSE,1752561856
Torshälla,Torshalla,,59.4167,16.4667,Sweden,SE,SWE,Södermanland,Sodermanland,SE-D,county,,1350.0,7612,7612,3,Europe/Stockholm,FALSE,1752748031
Bromölla,Bromolla,,56.0500,14.4667,Sweden,SE,SWE,Skåne,Skane,SE-M,county,minor,149.1,7595,7595,3,Europe/Stockholm,FALSE,1752417181
Skurup,Skurup,,55.4833,13.5000,Sweden,SE,SWE,Skåne,Skane,SE-M,county,minor,239.5,7565,7565,3,Europe/Stockholm,FALSE,1752346450
Nykvarn,Nykvarn,,59.1750,17.4333,Sweden,SE,SWE,Stockholm,Stockholm,SE-AB,county,minor,75.6,7560,7560,3,Europe/Stockholm,TRUE,1752468177
Fisksätra,Fisksatra,,59.2917,18.2528,Sweden,SE,SWE,Stockholm,Stockholm,SE-AB,county,,1048.4,7475,7475,3,Europe/Stockholm,FALSE,1752928528
Strömstad,Stromstad,,58.9333,11.1667,Sweden,SE,SWE,"Västra Götaland","Vastra Gotaland",SE-O,county,minor,135.8,7470,7470,3,Europe/Stockholm,FALSE,1752574047
Kållered,Kallered,,57.6000,12.0500,Sweden,SE,SWE,"Västra Götaland","Vastra Gotaland",SE-O,county,,358.3,7456,7456,3,Europe/Stockholm,FALSE,1752465727
Olofström,Olofstrom,,56.2667,14.5333,Sweden,SE,SWE,Blekinge,Blekinge,SE-K,county,minor,51.3,7327,7327,3,Europe/Stockholm,FALSE,1752705394
Kalix,Kalix,,65.8500,23.1667,Sweden,SE,SWE,Norrbotten,Norrbotten,SE-BD,county,minor,14.4,7299,7299,3,Europe/Stockholm,FALSE,1752586077
Hedemora,Hedemora,,60.2769,15.9872,Sweden,SE,SWE,Dalarna,Dalarna,SE-W,county,minor,23.7,7273,7273,3,Europe/Stockholm,FALSE,1752650626
Vendelsö,Vendelso,Vändelsö|Venelsö,59.1805,18.1804,Sweden,SE,SWE,Stockholm,Stockholm,SE-AB,county,,622.7,7192,7192,3,Europe/Stockholm,FALSE,1752844681
Degerfors,Degerfors,,59.2361,14.4297,Sweden,SE,SWE,Örebro,Orebro,SE-T,county,minor,22.5,7160,7160,3,Europe/Stockholm,FALSE,1752569624
Osby,Osby,,56.3667,13.9833,Sweden,SE,SWE,Skåne,Skane,SE-M,county,minor,34.7,7157,7157,3,Europe/Stockholm,FALSE,1752227698
Landvetter,Landvetter,,57.6833,12.2000,Sweden,SE,SWE,"Västra Götaland","Vastra Gotaland",SE-O,county,,141.8,7152,7152,4,Europe/Stockholm,FALSE,1752805759
Perstorp,Perstorp,,56.1333,13.3833,Sweden,SE,SWE,Skåne,Skane,SE-M,county,minor,46.0,7150,7150,3,Europe/Stockholm,FALSE,1752504536
Hallsberg,Hallsberg,,59.0667,15.1167,Sweden,SE,SWE,Örebro,Orebro,SE-T,county,minor,75.3,7122,7122,3,Europe/Stockholm,FALSE,1752385480
Hörby,Horby,,55.8500,13.6500,Sweden,SE,SWE,Skåne,Skane,SE-M,county,minor,52.5,7085,7085,3,Europe/Stockholm,FALSE,1752797029
Knivsta,Knivsta,,59.7167,17.8000,Sweden,SE,SWE,Uppsala,Uppsala,SE-C,county,minor,246.3,7081,7081,3,Europe/Stockholm,FALSE,1752639262
Valbo,Valbo,,60.6500,17.0333,Sweden,SE,SWE,Gävleborg,Gavleborg,SE-X,county,,38.2,7065,7065,4,Europe/Stockholm,FALSE,1752044176
Bro,Bro,,59.5167,17.6500,Sweden,SE,SWE,Stockholm,Stockholm,SE-AB,county,,77.4,7050,7050,4,Europe/Stockholm,FALSE,1752193337
Söderköping,Soderkoping,,58.4833,16.3167,Sweden,SE,SWE,Östergötland,Ostergotland,SE-E,county,minor,23.6,6992,6992,3,Europe/Stockholm,FALSE,1752732904
Norberg,Norberg,Norbergby,60.0833,15.9500,Sweden,SE,SWE,Västmanland,Vastmanland,SE-U,county,minor,12.4,6969,6969,3,Europe/Stockholm,FALSE,1752539209
"Skanör med Falsterbo","Skanor med Falsterbo",,55.4000,12.8500,Sweden,SE,SWE,Skåne,Skane,SE-M,county,,394.9,6937,6937,3,Europe/Stockholm,FALSE,1752192945
Åtvidaberg,Atvidaberg,,58.2000,16.0000,Sweden,SE,SWE,Östergötland,Ostergotland,SE-E,county,minor,15.4,6859,6859,3,Europe/Stockholm,FALSE,1752789991
Bjuv,Bjuv,,56.0833,12.9167,Sweden,SE,SWE,Skåne,Skane,SE-M,county,minor,155.7,6832,6832,3,Europe/Stockholm,FALSE,1752175726
Vellinge,Vellinge,Vällinge,55.4667,13.0167,Sweden,SE,SWE,Skåne,Skane,SE-M,county,minor,154.6,6829,6829,3,Europe/Stockholm,FALSE,1752257703
Dalby,Dalby,,55.6667,13.3500,Sweden,SE,SWE,Skåne,Skane,SE-M,county,,121.8,6732,6732,4,Europe/Stockholm,FALSE,1752888000
Hofors,Hofors,,60.5500,16.2833,Sweden,SE,SWE,Gävleborg,Gavleborg,SE-X,county,minor,59.3,6681,6681,3,Europe/Stockholm,FALSE,1752579150
Ljungsbro,Ljungsbro,Ljugsbro,58.5083,15.5028,Sweden,SE,SWE,Östergötland,Ostergotland,SE-E,county,,42.9,6620,6620,4,Europe/Stockholm,FALSE,1752074122
Vega,Vega,,59.1903,18.1275,Sweden,SE,SWE,Stockholm,Stockholm,SE-AB,county,,924.3,6590,6590,3,Europe/Stockholm,FALSE,1752241869
Haparanda,Haparanda,Haaparanta,65.8333,24.1333,Sweden,SE,SWE,Norrbotten,Norrbotten,SE-BD,county,minor,10.9,6583,6583,3,Europe/Stockholm,FALSE,1752528595
Simrishamn,Simrishamn,,55.5500,14.3500,Sweden,SE,SWE,Skåne,Skane,SE-M,county,minor,140.3,6527,6527,3,Europe/Stockholm,FALSE,1752339121
Laholm,Laholm,,56.5167,13.0333,Sweden,SE,SWE,Halland,Halland,SE-N,county,minor,122.1,6527,6527,3,Europe/Stockholm,FALSE,1752118663
Nora,Nora,,59.5167,15.0333,Sweden,SE,SWE,Örebro,Orebro,SE-T,county,minor,16.2,6526,6526,3,Europe/Stockholm,FALSE,1752148168
Torvalla,Torvalla,,63.1500,14.7500,Sweden,SE,SWE,Jämtland,Jamtland,SE-Z,county,,49.0,6489,6489,4,Europe/Stockholm,FALSE,1752478479
Rydebäck,Rydeback,,55.9667,12.7667,Sweden,SE,SWE,Skåne,Skane,SE-M,county,,248.0,6480,6480,3,Europe/Stockholm,FALSE,1752481437
Tomelilla,Tomelilla,,55.5500,13.9500,Sweden,SE,SWE,Skåne,Skane,SE-M,county,minor,103.2,6444,6444,3,Europe/Stockholm,FALSE,1752461399
Hjo,Hjo,,58.3000,14.2833,Sweden,SE,SWE,"Västra Götaland","Vastra Gotaland",SE-O,county,minor,76.1,6357,6357,3,Europe/Stockholm,FALSE,1752355806
Storvreta,Storvreta,Storvreld,59.9667,17.7000,Sweden,SE,SWE,Uppsala,Uppsala,SE-C,county,,77.3,6347,6347,4,Europe/Stockholm,FALSE,1752168309
Åseda,Aseda,,57.1667,15.3333,Sweden,SE,SWE,Kronoberg,Kronoberg,SE-G,county,minor,11.6,6336,6336,3,Europe/Stockholm,FALSE,1752028218
Löddeköpinge,Loddekopinge,,55.7667,13.0167,Sweden,SE,SWE,Skåne,Skane,SE-M,county,,235.6,6290,6290,3,Europe/Stockholm,FALSE,1752896197
Ljusdal,Ljusdal,,61.8333,16.0833,Sweden,SE,SWE,Gävleborg,Gavleborg,SE-X,county,minor,5.2,6230,6230,3,Europe/Stockholm,FALSE,1752000195
Forshaga,Forshaga,,59.5333,13.4667,Sweden,SE,SWE,Värmland,Varmland,SE-S,county,minor,146.5,6229,6229,3,Europe/Stockholm,FALSE,1752546328
Flen,Flen,,59.0500,16.5833,Sweden,SE,SWE,Södermanland,Sodermanland,SE-D,county,minor,47.8,6229,6229,3,Europe/Stockholm,FALSE,1752722411
Kungsör,Kungsor,Rungsör,59.4236,16.0958,Sweden,SE,SWE,Västmanland,Vastmanland,SE-U,county,minor,37.9,6197,6197,3,Europe/Stockholm,FALSE,1752957577
Surahammar,Surahammar,,59.7167,16.2167,Sweden,SE,SWE,Västmanland,Vastmanland,SE-U,county,minor,46.9,6179,6179,3,Europe/Stockholm,FALSE,1752802608
Vaxholm,Vaxholm,,59.4031,18.3264,Sweden,SE,SWE,Stockholm,Stockholm,SE-AB,county,minor,840.1,6151,6151,3,Europe/Stockholm,FALSE,1752499554
Tierp,Tierp,,60.3333,17.5000,Sweden,SE,SWE,Uppsala,Uppsala,SE-C,county,minor,11.6,6143,6143,3,Europe/Stockholm,FALSE,1752439542
"Södra Sandby","Sodra Sandby",,55.7167,13.3500,Sweden,SE,SWE,Skåne,Skane,SE-M,county,,134.4,6136,6136,4,Europe/Stockholm,FALSE,1752466860
Skutskär,Skutskar,Stutskär,60.6333,17.4167,Sweden,SE,SWE,Uppsala,Uppsala,SE-C,county,minor,43.5,6075,6075,3,Europe/Stockholm,FALSE,1752000287
Kramfors,Kramfors,,62.9333,17.8000,Sweden,SE,SWE,Västernorrland,Vasternorrland,SE-Y,county,minor,33.0,5990,5990,3,Europe/Stockholm,FALSE,1752400514
Leksands-Noret,Leksands-Noret,Leksand,60.7333,15.0000,Sweden,SE,SWE,Dalarna,Dalarna,SE-W,county,,12.3,5934,5934,4,Europe/Stockholm,FALSE,1752711560
Vårgårda,Vargarda,,58.0333,12.8000,Sweden,SE,SWE,"Västra Götaland","Vastra Gotaland",SE-O,county,minor,62.6,5863,5863,3,Europe/Stockholm,FALSE,1752801056
Surte,Surte,,57.8167,12.0167,Sweden,SE,SWE,"Västra Götaland","Vastra Gotaland",SE-O,county,,323.9,5798,5798,3,Europe/Stockholm,FALSE,1752509020
Hjärup,Hjarup,,55.6667,13.1667,Sweden,SE,SWE,Skåne,Skane,SE-M,county,,141.0,5675,5675,3,Europe/Stockholm,FALSE,1752111742
Hultsfred,Hultsfred,,57.4833,15.8333,Sweden,SE,SWE,Kalmar,Kalmar,SE-H,county,minor,105.0,5672,5672,3,Europe/Stockholm,FALSE,1752506258
Åkarp,Akarp,,55.6500,13.1167,Sweden,SE,SWE,Skåne,Skane,SE-M,county,,2418.0,5617,5617,2,Europe/Stockholm,FALSE,1752852363
Vadstena,Vadstena,,58.4500,14.9000,Sweden,SE,SWE,Östergötland,Ostergotland,SE-E,county,minor,95.2,5613,5613,3,Europe/Stockholm,FALSE,1752994535
Gnesta,Gnesta,,59.0500,17.3000,Sweden,SE,SWE,Södermanland,Sodermanland,SE-D,county,minor,51.2,5562,5562,3,Europe/Stockholm,FALSE,1752308343
Lindsdal,Lindsdal,,56.7333,16.3000,Sweden,SE,SWE,Kalmar,Kalmar,SE-H,county,,90.7,5510,5510,4,Europe/Stockholm,FALSE,1752255479
Holmsund,Holmsund,,63.7083,20.3694,Sweden,SE,SWE,Västerbotten,Vasterbotten,SE-AC,county,,181.9,5489,5489,4,Europe/Stockholm,FALSE,1752702297
Mullsjö,Mullsjo,,57.9167,13.8833,Sweden,SE,SWE,Jönköping,Jonkoping,SE-F,county,minor,33.6,5452,5452,3,Europe/Stockholm,FALSE,1752534999
Skåre,Skare,,59.4333,13.4333,Sweden,SE,SWE,Värmland,Varmland,SE-S,county,,71.4,5402,5402,4,Europe/Stockholm,FALSE,1752638519
Orsa,Orsa,,61.1167,14.6167,Sweden,SE,SWE,Dalarna,Dalarna,SE-W,county,minor,3.8,5308,5308,3,Europe/Stockholm,FALSE,1752000362
Hemmesta,Hemmesta,,59.3167,18.5000,Sweden,SE,SWE,Stockholm,Stockholm,SE-AB,county,,94.7,5240,5240,4,Europe/Stockholm,FALSE,1752603041
Malmslätt,Malmslatt,Malmen,58.4167,15.5167,Sweden,SE,SWE,Östergötland,Ostergotland,SE-E,county,,243.8,5214,5214,3,Europe/Stockholm,FALSE,1752198896
Båstad,Bastad,,56.4333,12.8333,Sweden,SE,SWE,Skåne,Skane,SE-M,county,minor,114.5,5146,5146,3,Europe/Stockholm,FALSE,1752680464
Malung,Malung,,60.6833,13.7333,Sweden,SE,SWE,Dalarna,Dalarna,SE-W,county,minor,3.9,5126,5126,3,Europe/Stockholm,FALSE,1752648614
Sävsjö,Savsjo,,57.4000,14.6667,Sweden,SE,SWE,Jönköping,Jonkoping,SE-F,county,minor,29.1,5122,5122,3,Europe/Stockholm,FALSE,1752380553
Hönö,Hono,"Hönö Klava",57.7667,11.7000,Sweden,SE,SWE,"Västra Götaland","Vastra Gotaland",SE-O,county,,445.4,5110,5110,3,Europe/Stockholm,FALSE,1752192604
Smedjebacken,Smedjebacken,,60.1333,15.4167,Sweden,SE,SWE,Dalarna,Dalarna,SE-W,county,minor,17.2,5100,5100,3,Europe/Stockholm,FALSE,1752922479
Trosa,Trosa,,58.9000,17.5500,Sweden,SE,SWE,Södermanland,Sodermanland,SE-D,county,minor,60.5,5027,5027,3,Europe/Stockholm,FALSE,1752562546
Grums,Grums,,59.3500,13.1000,Sweden,SE,SWE,Värmland,Varmland,SE-S,county,minor,15.3,5025,5025,3,Europe/Stockholm,FALSE,1752477368
Färjestaden,Farjestaden,,56.6500,16.4833,Sweden,SE,SWE,Kalmar,Kalmar,SE-H,county,,128.3,5018,5018,4,Europe/Stockholm,FALSE,1752288301
Vi,Vi,,62.4333,17.4167,Sweden,SE,SWE,Västernorrland,Vasternorrland,SE-Y,county,,120.3,4997,4997,4,Europe/Stockholm,FALSE,1752950769
Åby,Aby,,58.6667,16.1833,Sweden,SE,SWE,Östergötland,Ostergotland,SE-E,county,,66.7,4980,4980,4,Europe/Stockholm,FALSE,1752999073
Älvsbyn,Alvsbyn,Elfsby,65.6833,21.0167,Sweden,SE,SWE,Norrbotten,Norrbotten,SE-BD,county,minor,4.5,4967,4967,3,Europe/Stockholm,FALSE,1752439950
Anderstorp,Anderstorp,,57.2833,13.6333,Sweden,SE,SWE,Jönköping,Jonkoping,SE-F,county,,65.8,4965,4965,4,Europe/Stockholm,FALSE,1752250979
Gammelstaden,Gammelstaden,Gammelstaden|Gammelstad,65.6417,22.0139,Sweden,SE,SWE,Norrbotten,Norrbotten,SE-BD,county,,27.8,4960,4960,4,Europe/Stockholm,FALSE,1752935725
Götene,Gotene,,58.5333,13.4833,Sweden,SE,SWE,"Västra Götaland","Vastra Gotaland",SE-O,county,minor,44.8,4933,4933,3,Europe/Stockholm,FALSE,1752097794
Fristad,Fristad,,57.8167,13.0167,Sweden,SE,SWE,"Västra Götaland","Vastra Gotaland",SE-O,county,,53.3,4924,4924,4,Europe/Stockholm,FALSE,1752268993
Vaggeryd,Vaggeryd,,57.5000,14.1167,Sweden,SE,SWE,Jönköping,Jonkoping,SE-F,county,,20.7,4920,4920,4,Europe/Stockholm,FALSE,1752030712
Ödåkra,Odakra,,56.1000,12.7333,Sweden,SE,SWE,Skåne,Skane,SE-M,county,,137.8,4920,4920,4,Europe/Stockholm,FALSE,1752122041
Vargön,Vargon,Varagons|Varagön,58.3500,12.4000,Sweden,SE,SWE,"Västra Götaland","Vastra Gotaland",SE-O,county,,85.8,4919,4919,4,Europe/Stockholm,FALSE,1752868792
Lindö,Lindo,Lindöhall,58.6167,16.2500,Sweden,SE,SWE,Östergötland,Ostergotland,SE-E,county,,1537.0,4915,4915,3,Europe/Stockholm,FALSE,1752223205
"Lilla Edet","Lilla Edet",,58.1333,12.1333,Sweden,SE,SWE,"Västra Götaland","Vastra Gotaland",SE-O,county,minor,126.7,4862,4862,3,Europe/Stockholm,FALSE,1752291643
Emmaboda,Emmaboda,,56.6167,15.5500,Sweden,SE,SWE,Kalmar,Kalmar,SE-H,county,minor,214.6,4824,4824,3,Europe/Stockholm,FALSE,1752110401
Töreboda,Toreboda,,58.7167,14.1333,Sweden,SE,SWE,"Västra Götaland","Vastra Gotaland",SE-O,county,minor,72.2,4740,4740,3,Europe/Stockholm,FALSE,1752420393
Mönsterås,Monsteras,,57.0333,16.4500,Sweden,SE,SWE,Kalmar,Kalmar,SE-H,county,minor,34.8,4731,4731,3,Europe/Stockholm,FALSE,1752196693
Rättvik,Rattvik,,60.8833,15.1333,Sweden,SE,SWE,Dalarna,Dalarna,SE-W,county,minor,10.1,4686,4686,3,Europe/Stockholm,FALSE,1752722429
Tyringe,Tyringe,,56.1592,13.6008,Sweden,SE,SWE,Skåne,Skane,SE-M,county,,41.3,4658,4658,4,Europe/Stockholm,FALSE,1752797296
Arvidsjaur,Arvidsjaur,,65.5833,19.1667,Sweden,SE,SWE,Norrbotten,Norrbotten,SE-BD,county,minor,1.0,4635,4635,3,Europe/Stockholm,FALSE,1752344860
Rimbo,Rimbo,,59.7444,18.3687,Sweden,SE,SWE,Stockholm,Stockholm,SE-AB,county,,87.6,4629,4629,4,Europe/Stockholm,FALSE,1752816308
Kallinge,Kallinge,,56.2333,15.2833,Sweden,SE,SWE,Blekinge,Blekinge,SE-K,county,,37.0,4561,4561,4,Europe/Stockholm,FALSE,1752720642
Östhammar,Osthammar,,60.2667,18.3667,Sweden,SE,SWE,Uppsala,Uppsala,SE-C,county,minor,12.1,4534,4534,3,Europe/Stockholm,FALSE,1752637539
Smålandsstenar,Smalandsstenar,,57.1667,13.4000,Sweden,SE,SWE,Jönköping,Jonkoping,SE-F,county,,34.6,4530,4530,4,Europe/Stockholm,FALSE,1752073696
Hällefors,Hallefors,,59.7667,14.5167,Sweden,SE,SWE,Örebro,Orebro,SE-T,county,minor,7.5,4530,4530,3,Europe/Stockholm,FALSE,1752876010
Hallstavik,Hallstavik,,60.0500,18.6000,Sweden,SE,SWE,Stockholm,Stockholm,SE-AB,county,,23.5,4476,4476,4,Europe/Stockholm,FALSE,1752439054
Vännäs,Vannas,,63.9167,19.7500,Sweden,SE,SWE,Västerbotten,Vasterbotten,SE-AC,county,minor,15.5,4466,4466,3,Europe/Stockholm,FALSE,1752376080
Taberg,Taberg,"Smålands Taberg",57.6833,14.0833,Sweden,SE,SWE,Jönköping,Jonkoping,SE-F,county,,78.1,4392,4392,4,Europe/Stockholm,FALSE,1752382732
Edsbyn,Edsbyn,,61.3833,15.8167,Sweden,SE,SWE,Gävleborg,Gavleborg,SE-X,county,minor,6.7,4321,4321,3,Europe/Stockholm,FALSE,1752982687
Sjöberg,Sjoberg,,59.4333,18.0000,Sweden,SE,SWE,Stockholm,Stockholm,SE-AB,county,,3103.0,4310,4310,2,Europe/Stockholm,FALSE,1752796049
Krokek,Krokek,,58.6667,16.4000,Sweden,SE,SWE,Östergötland,Ostergotland,SE-E,county,,66.7,4285,4285,4,Europe/Stockholm,FALSE,1752079263
Vingåker,Vingaker,,59.0333,15.8667,Sweden,SE,SWE,Södermanland,Sodermanland,SE-D,county,minor,24.4,4282,4282,3,Europe/Stockholm,FALSE,1752140222
Vara,Vara,Wara,58.2667,12.9500,Sweden,SE,SWE,"Västra Götaland","Vastra Gotaland",SE-O,county,minor,70.6,4235,4235,3,Europe/Stockholm,FALSE,1752227064
Viken,Viken,,56.1500,12.5667,Sweden,SE,SWE,Skåne,Skane,SE-M,county,,431.1,4227,4227,3,Europe/Stockholm,FALSE,1752151926
Kopparberg,Kopparberg,"Kopparsberg|Kopparberg Köping|Kopparbergs Köping",59.8667,14.9833,Sweden,SE,SWE,Örebro,Orebro,SE-T,county,minor,7.2,4200,4200,3,Europe/Stockholm,FALSE,1752511080
Älvängen,Alvangen,Älfängen,57.9500,12.1167,Sweden,SE,SWE,"Västra Götaland","Vastra Gotaland",SE-O,county,,45.6,4196,4196,4,Europe/Stockholm,TRUE,1752200618
Gråbo,Grabo,,57.8333,12.3000,Sweden,SE,SWE,"Västra Götaland","Vastra Gotaland",SE-O,county,,94.4,4195,4195,4,Europe/Stockholm,FALSE,1752408636
Furulund,Furulund,,55.7667,13.1000,Sweden,SE,SWE,Skåne,Skane,SE-M,county,,248.6,4180,4180,3,Europe/Stockholm,FALSE,1752815480
Oskarström,Oskarstrom,Oskarsström,56.8016,12.9763,Sweden,SE,SWE,Halland,Halland,SE-N,county,,1215.5,4157,4157,3,Europe/Stockholm,FALSE,1752918458
Herrljunga,Herrljunga,,58.0833,13.0333,Sweden,SE,SWE,"Västra Götaland","Vastra Gotaland",SE-O,county,minor,127.0,4119,4119,3,Europe/Stockholm,FALSE,1752809685
Hittarp,Hittarp,Hiltarp,56.0983,12.6389,Sweden,SE,SWE,Skåne,Skane,SE-M,county,,137.8,4075,4075,4,Europe/Stockholm,FALSE,1752192248
Veberöd,Veberod,,55.6333,13.4833,Sweden,SE,SWE,Skåne,Skane,SE-M,county,,73.1,4062,4062,4,Europe/Stockholm,FALSE,1752276626
Skärblacka,Skarblacka,,58.5667,15.9000,Sweden,SE,SWE,Östergötland,Ostergotland,SE-E,county,,85.8,4059,4059,4,Europe/Stockholm,FALSE,1752452885
Torsby,Torsby,,60.1333,13.0000,Sweden,SE,SWE,Värmland,Varmland,SE-S,county,minor,13.2,4049,4049,3,Europe/Stockholm,FALSE,1752743596
Vinslöv,Vinslov,,56.1000,13.9167,Sweden,SE,SWE,Skåne,Skane,SE-M,county,,38.7,3985,3985,4,Europe/Stockholm,FALSE,1752365588
Ursviken,Ursviken,Ursvik,64.7081,21.1761,Sweden,SE,SWE,Västerbotten,Vasterbotten,SE-AC,county,,205.0,3977,3977,3,Europe/Stockholm,FALSE,1752574877
Markaryd,Markaryd,,56.4500,13.5833,Sweden,SE,SWE,Kronoberg,Kronoberg,SE-G,county,minor,32.8,3966,3966,3,Europe/Stockholm,FALSE,1752841356
Hjuvik,Hjuvik,Hjulvik,57.7000,11.7167,Sweden,SE,SWE,"Västra Götaland","Vastra Gotaland",SE-O,county,,346.0,3928,3928,3,Europe/Stockholm,FALSE,1752920782
Brunna,Brunna,,59.5000,17.7500,Sweden,SE,SWE,Stockholm,Stockholm,SE-AB,county,,224.7,3925,3925,3,Europe/Stockholm,FALSE,1752564258
Ösmo,Osmo,,58.9833,17.9000,Sweden,SE,SWE,Stockholm,Stockholm,SE-AB,county,,44.7,3911,3911,4,Europe/Stockholm,FALSE,1752795473
Brunflo,Brunflo,,63.0833,14.8167,Sweden,SE,SWE,Jämtland,Jamtland,SE-Z,county,,49.0,3890,3890,4,Europe/Stockholm,FALSE,1752121826
Skillingaryd,Skillingaryd,,57.4333,14.0833,Sweden,SE,SWE,Jönköping,Jonkoping,SE-F,county,minor,37.5,3889,3889,3,Europe/Stockholm,FALSE,1752632733
Askersund,Askersund,,58.8797,14.9028,Sweden,SE,SWE,Örebro,Orebro,SE-T,county,minor,19.4,3887,3887,3,Europe/Stockholm,FALSE,1752078295
Arnö,Arno,,58.7333,17.0167,Sweden,SE,SWE,Södermanland,Sodermanland,SE-D,county,,157.4,3871,3871,4,Europe/Stockholm,FALSE,1752438672
Kummelnäs,Kummelnas,,59.3500,18.2833,Sweden,SE,SWE,Stockholm,Stockholm,SE-AB,county,,726.0,3848,3848,3,Europe/Stockholm,FALSE,1752258937
Kisa,Kisa,,57.9833,15.6167,Sweden,SE,SWE,Östergötland,Ostergotland,SE-E,county,minor,18.4,3846,3846,3,Europe/Stockholm,FALSE,1752154685
Viskafors,Viskafors,,57.6333,12.8333,Sweden,SE,SWE,"Västra Götaland","Vastra Gotaland",SE-O,county,,16.3,3790,3790,4,Europe/Stockholm,FALSE,1752777176
Svenljunga,Svenljunga,,57.5000,13.1167,Sweden,SE,SWE,"Västra Götaland","Vastra Gotaland",SE-O,county,minor,16.7,3773,3773,3,Europe/Stockholm,FALSE,1752124833
Mellerud,Mellerud,,58.7000,12.4667,Sweden,SE,SWE,"Västra Götaland","Vastra Gotaland",SE-O,county,minor,53.0,3750,3750,3,Europe/Stockholm,FALSE,1752639061
Karlsborg,Karlsborg,,58.5333,14.5167,Sweden,SE,SWE,"Västra Götaland","Vastra Gotaland",SE-O,county,minor,738.0,3749,3749,3,Europe/Stockholm,FALSE,1752114537
Mariefred,Mariefred,,59.2667,17.2167,Sweden,SE,SWE,Södermanland,Sodermanland,SE-D,county,,98.8,3726,3726,4,Europe/Stockholm,FALSE,1752728127
Munkedal,Munkedal,,58.4833,11.6833,Sweden,SE,SWE,"Västra Götaland","Vastra Gotaland",SE-O,county,minor,25.9,3718,3718,3,Europe/Stockholm,FALSE,1752910659
Hyltebruk,Hyltebruk,,57.0000,13.2417,Sweden,SE,SWE,Halland,Halland,SE-N,county,minor,44.8,3716,3716,3,Europe/Stockholm,FALSE,1752022558
Mörrum,Morrum,,56.1833,14.7333,Sweden,SE,SWE,Blekinge,Blekinge,SE-K,county,,66.6,3695,3695,4,Europe/Stockholm,FALSE,1752577015
Mantorp,Mantorp,,58.3500,15.2833,Sweden,SE,SWE,Östergötland,Ostergotland,SE-E,county,,81.1,3671,3671,4,Europe/Stockholm,FALSE,1752569695
Vilhelmina,Vilhelmina,,64.6167,16.6500,Sweden,SE,SWE,Västerbotten,Vasterbotten,SE-AC,county,minor,0.8,3657,3657,3,Europe/Stockholm,FALSE,1752417884
Bergnäset,Bergnaset,,65.5750,22.1042,Sweden,SE,SWE,Norrbotten,Norrbotten,SE-BD,county,,87.5,3648,3648,4,Europe/Stockholm,FALSE,1752914774
Skultorp,Skultorp,,58.3500,13.8333,Sweden,SE,SWE,"Västra Götaland","Vastra Gotaland",SE-O,county,,55.2,3642,3642,4,Europe/Stockholm,FALSE,1752196081
Svalöv,Svalov,Svalöf,55.9167,13.1167,Sweden,SE,SWE,Skåne,Skane,SE-M,county,minor,50.5,3633,3633,3,Europe/Stockholm,FALSE,1752677463
Strömsund,Stromsund,,63.8500,15.5833,Sweden,SE,SWE,Jämtland,Jamtland,SE-Z,county,minor,2.1,3589,3589,3,Europe/Stockholm,FALSE,1752469464
Bollebygd,Bollebygd,,57.6667,12.5667,Sweden,SE,SWE,"Västra Götaland","Vastra Gotaland",SE-O,county,minor,47.0,3566,3566,3,Europe/Stockholm,FALSE,1752712168
Broby,Broby,"Brody Kyrkoby|Broby kyrkoby",56.2500,14.0667,Sweden,SE,SWE,Skåne,Skane,SE-M,county,minor,43.8,3561,3561,3,Europe/Stockholm,TRUE,1752171494
Åre,Are,,63.4000,13.0833,Sweden,SE,SWE,Jämtland,Jamtland,SE-Z,county,,2.1,3552,3552,3,Europe/Stockholm,FALSE,1752096167
Öjersjö,Ojersjo,,57.7000,12.1167,Sweden,SE,SWE,"Västra Götaland","Vastra Gotaland",SE-O,county,,475.1,3543,3543,3,Europe/Stockholm,FALSE,1752479384
Hofterup,Hofterup,,55.7833,12.9667,Sweden,SE,SWE,Skåne,Skane,SE-M,county,,225.4,3501,3501,3,Europe/Stockholm,FALSE,1752211015
Öckerö,Ockero,,57.7000,11.6500,Sweden,SE,SWE,"Västra Götaland","Vastra Gotaland",SE-O,county,minor,445.4,3488,3488,3,Europe/Stockholm,FALSE,1752460674
Smedby,Smedby,,56.6792,16.2356,Sweden,SE,SWE,Kalmar,Kalmar,SE-H,county,,152.5,3487,3487,4,Europe/Stockholm,FALSE,1752872229
Grängesberg,Grangesberg,,60.0833,14.9833,Sweden,SE,SWE,Dalarna,Dalarna,SE-W,county,,6.3,3481,3481,4,Europe/Stockholm,FALSE,1752852551
Tygelsjö,Tygelsjo,,55.5167,13.0000,Sweden,SE,SWE,Skåne,Skane,SE-M,county,,292.5,3455,3455,3,Europe/Stockholm,FALSE,1752616733
Bara,Bara,,55.5833,13.2000,Sweden,SE,SWE,Skåne,Skane,SE-M,county,,75.8,3444,3444,4,Europe/Stockholm,FALSE,1752637783
Rödeby,Rodeby,,56.2500,15.6000,Sweden,SE,SWE,Blekinge,Blekinge,SE-K,county,,41.8,3402,3402,4,Europe/Stockholm,FALSE,1752383733
Olofstorp,Olofstorp,,57.8000,12.1500,Sweden,SE,SWE,"Västra Götaland","Vastra Gotaland",SE-O,county,,91.9,3378,3378,4,Europe/Stockholm,FALSE,1752892958
Ljungskile,Ljungskile,,58.2167,11.9167,Sweden,SE,SWE,"Västra Götaland","Vastra Gotaland",SE-O,county,,41.6,3375,3375,4,Europe/Stockholm,FALSE,1752202714
Åsa,Asa,,57.3500,12.1167,Sweden,SE,SWE,Halland,Halland,SE-N,county,,194.3,3369,3369,4,Europe/Stockholm,FALSE,1752959079
Aneby,Aneby,,57.8333,14.8000,Sweden,SE,SWE,Jönköping,Jonkoping,SE-F,county,minor,21.9,3367,3367,3,Europe/Stockholm,FALSE,1752914415
Dalsjöfors,Dalsjofors,,57.7167,13.0833,Sweden,SE,SWE,"Västra Götaland","Vastra Gotaland",SE-O,county,,89.1,3362,3362,4,Europe/Stockholm,FALSE,1752392113
Iggesund,Iggesund,"Iggesunds Bruk",61.6333,17.0667,Sweden,SE,SWE,Gävleborg,Gavleborg,SE-X,county,,12.4,3362,3362,4,Europe/Stockholm,FALSE,1752414716
Stenhamra,Stenhamra,,59.3333,17.6667,Sweden,SE,SWE,Stockholm,Stockholm,SE-AB,county,,115.4,3336,3336,4,Europe/Stockholm,FALSE,1752805730
Tranemo,Tranemo,,57.4833,13.3500,Sweden,SE,SWE,"Västra Götaland","Vastra Gotaland",SE-O,county,minor,30.0,3334,3334,3,Europe/Stockholm,FALSE,1752810438
Vagnhärad,Vagnharad,,58.9500,17.5167,Sweden,SE,SWE,Södermanland,Sodermanland,SE-D,county,,60.5,3324,3324,4,Europe/Stockholm,FALSE,1752333203
Hällbybrunn,Hallbybrunn,,59.3922,16.4203,Sweden,SE,SWE,Södermanland,Sodermanland,SE-D,county,,1070.0,3296,3296,3,Europe/Stockholm,FALSE,1752475070
Tollarp,Tollarp,,55.9333,13.9667,Sweden,SE,SWE,Skåne,Skane,SE-M,county,,70.9,3284,3284,4,Europe/Stockholm,FALSE,1752027894
Björklinge,Bjorklinge,,60.0333,17.5500,Sweden,SE,SWE,Uppsala,Uppsala,SE-C,county,,45.1,3269,3269,4,Europe/Stockholm,FALSE,1752145937
Ekeby,Ekeby,,56.0167,12.9500,Sweden,SE,SWE,Skåne,Skane,SE-M,county,,121.3,3230,3230,4,Europe/Stockholm,FALSE,1752047753
Årjäng,Arjang,Årjänge,59.3833,12.1333,Sweden,SE,SWE,Värmland,Varmland,SE-S,county,minor,17.2,3228,3228,3,Europe/Stockholm,FALSE,1752923353
Resarö,Resaro,,59.4333,18.3333,Sweden,SE,SWE,Stockholm,Stockholm,SE-AB,county,,3.8,3212,3212,4,Europe/Stockholm,FALSE,1752589910
Matfors,Matfors,,62.3500,17.0333,Sweden,SE,SWE,Västernorrland,Vasternorrland,SE-Y,county,,30.5,3201,3201,4,Europe/Stockholm,FALSE,1752606314
Åre,Are,,63.4000,13.0667,Sweden,SE,SWE,Jämtland,Jamtland,SE-Z,county,,2.1,3200,3200,4,Europe/Stockholm,TRUE,1752409806
Boxholm,Boxholm,,58.2000,15.0500,Sweden,SE,SWE,Östergötland,Ostergotland,SE-E,county,minor,9.7,3194,3194,3,Europe/Stockholm,FALSE,1752965053
Skärhamn,Skarhamn,,58.0000,11.5500,Sweden,SE,SWE,"Västra Götaland","Vastra Gotaland",SE-O,county,minor,84.1,3193,3193,3,Europe/Stockholm,FALSE,1752987562
Skelleftehamn,Skelleftehamn,,64.6833,21.2333,Sweden,SE,SWE,Västerbotten,Vasterbotten,SE-AC,county,,205.0,3184,3184,3,Europe/Stockholm,FALSE,1752763384
Särö,Saro,,57.5000,11.9333,Sweden,SE,SWE,Halland,Halland,SE-N,county,,704.0,3165,3165,3,Europe/Stockholm,FALSE,1752193405
Tenhult,Tenhult,,57.7167,14.3167,Sweden,SE,SWE,Jönköping,Jonkoping,SE-F,county,,39.2,3160,3160,4,Europe/Stockholm,FALSE,1752653267
Sandared,Sandared,,57.7167,12.8000,Sweden,SE,SWE,"Västra Götaland","Vastra Gotaland",SE-O,county,,83.9,3160,3160,4,Europe/Stockholm,FALSE,1752929527
Råneå,Ranea,Säfvast,65.7667,21.7333,Sweden,SE,SWE,Norrbotten,Norrbotten,SE-BD,county,,65.8,3148,3148,4,Europe/Stockholm,FALSE,1752593915
Skänninge,Skanninge,,58.4000,15.0833,Sweden,SE,SWE,Östergötland,Ostergotland,SE-E,county,,36.5,3140,3140,4,Europe/Stockholm,FALSE,1752764147
Skultuna,Skultuna,,59.7167,16.4167,Sweden,SE,SWE,Västmanland,Vastmanland,SE-U,county,,22.4,3133,3133,4,Europe/Stockholm,FALSE,1752127689
Nättraby,Nattraby,,56.2000,15.5167,Sweden,SE,SWE,Blekinge,Blekinge,SE-K,county,,136.8,3109,3109,4,Europe/Stockholm,FALSE,1752568474
Bengtsfors,Bengtsfors,Bengtsfor,59.0292,12.2264,Sweden,SE,SWE,"Västra Götaland","Vastra Gotaland",SE-O,county,minor,23.9,3080,3080,3,Europe/Stockholm,FALSE,1752296460
Borgholm,Borgholm,,56.8792,16.6558,Sweden,SE,SWE,Kalmar,Kalmar,SE-H,county,minor,1201.0,3071,3071,3,Europe/Stockholm,FALSE,1752176001
Laxå,Laxa,,58.9833,14.6167,Sweden,SE,SWE,Örebro,Orebro,SE-T,county,minor,18.6,3064,3064,3,Europe/Stockholm,FALSE,1752389428
Munkfors,Munkfors,,59.8333,13.5333,Sweden,SE,SWE,Värmland,Varmland,SE-S,county,minor,23.1,3054,3054,3,Europe/Stockholm,FALSE,1752592471
Tingsryd,Tingsryd,,56.5306,14.9769,Sweden,SE,SWE,Kronoberg,Kronoberg,SE-G,county,minor,23.3,3037,3037,3,Europe/Stockholm,FALSE,1752009740
Knislinge,Knislinge,Knisslinge,56.1833,14.0833,Sweden,SE,SWE,Skåne,Skane,SE-M,county,,43.4,3030,3030,4,Europe/Stockholm,FALSE,1752806180
Hovmantorp,Hovmantorp,,56.7833,15.1333,Sweden,SE,SWE,Kronoberg,Kronoberg,SE-G,county,,36.8,3001,3001,4,Europe/Stockholm,FALSE,1752290816
"Södra Sunderbyn","Sodra Sunderbyn",Sunderbyn,65.6667,21.9500,Sweden,SE,SWE,Norrbotten,Norrbotten,SE-BD,county,,27.8,2977,2977,4,Europe/Stockholm,FALSE,1752907441
Grästorp,Grastorp,,58.3319,12.6811,Sweden,SE,SWE,"Västra Götaland","Vastra Gotaland",SE-O,county,minor,126.3,2969,2969,3,Europe/Stockholm,FALSE,1752235926
Svärtinge,Svartinge,"Svärtinge Villasamhälle",58.6500,16.0000,Sweden,SE,SWE,Östergötland,Ostergotland,SE-E,county,,66.7,2963,2963,4,Europe/Stockholm,FALSE,1752855817
Hökåsen,Hokasen,Höckåsen,59.6667,16.5833,Sweden,SE,SWE,Västmanland,Vastmanland,SE-U,county,,54.0,2956,2956,4,Europe/Stockholm,FALSE,1752576156
Ed,Ed,,58.9167,11.9167,Sweden,SE,SWE,"Västra Götaland","Vastra Gotaland",SE-O,county,minor,5.8,2932,2932,3,Europe/Stockholm,FALSE,1752022476
Fyllinge,Fyllinge,,56.6500,12.9167,Sweden,SE,SWE,Halland,Halland,SE-N,county,,226.4,2927,2927,3,Europe/Stockholm,FALSE,1752164893
Billesholm,Billesholm,,56.0500,13.0000,Sweden,SE,SWE,Skåne,Skane,SE-M,county,,155.7,2910,2910,4,Europe/Stockholm,FALSE,1752003675
Genarp,Genarp,,55.6000,13.4000,Sweden,SE,SWE,Skåne,Skane,SE-M,county,,45.5,2892,2892,4,Europe/Stockholm,FALSE,1752119971
"Åkers Styckebruk","Akers Styckebruk",,59.2500,17.0833,Sweden,SE,SWE,Södermanland,Sodermanland,SE-D,county,,22.5,2891,2891,4,Europe/Stockholm,FALSE,1752466123
Borensberg,Borensberg,,58.5667,15.2833,Sweden,SE,SWE,Östergötland,Ostergotland,SE-E,county,,21.5,2886,2886,4,Europe/Stockholm,FALSE,1752593155
Ånge,Ange,,62.5167,15.6167,Sweden,SE,SWE,Västernorrland,Vasternorrland,SE-Y,county,minor,2.6,2872,2872,3,Europe/Stockholm,FALSE,1752607246
Skogstorp,Skogstorp,,59.3333,16.4667,Sweden,SE,SWE,Södermanland,Sodermanland,SE-D,county,,1081.0,2860,2860,3,Europe/Stockholm,FALSE,1752902038
Munka-Ljungby,Munka-Ljungby,,56.2500,12.9667,Sweden,SE,SWE,Skåne,Skane,SE-M,county,,33.1,2840,2840,4,Europe/Stockholm,FALSE,1752028031
Sjömarken,Sjomarken,,57.7167,12.8333,Sweden,SE,SWE,"Västra Götaland","Vastra Gotaland",SE-O,county,,83.9,2829,2829,4,Europe/Stockholm,FALSE,1752176789
Kungshamn,Kungshamn,,58.3667,11.2500,Sweden,SE,SWE,"Västra Götaland","Vastra Gotaland",SE-O,county,minor,74.5,2814,2814,3,Europe/Stockholm,FALSE,1752496623
Linghem,Linghem,,58.4333,15.7833,Sweden,SE,SWE,Östergötland,Ostergotland,SE-E,county,,51.1,2804,2804,4,Europe/Stockholm,FALSE,1752947668
Häljarp,Haljarp,,55.8500,12.9167,Sweden,SE,SWE,Skåne,Skane,SE-M,county,,124.1,2795,2795,4,Europe/Stockholm,FALSE,1752306462
Påarp,Paarp,,56.0333,12.8167,Sweden,SE,SWE,Skåne,Skane,SE-M,county,,107.0,2789,2789,4,Europe/Stockholm,FALSE,1752263859
Jokkmokk,Jokkmokk,Jockmock|Jokkinokk|Jåhkåmåhkke|Dálvvadis|Jokimukka,66.6167,19.8333,Sweden,SE,SWE,Norrbotten,Norrbotten,SE-BD,county,minor,0.3,2786,2786,3,Europe/Stockholm,FALSE,1752890249
Hovsta,Hovsta,,59.3500,15.2167,Sweden,SE,SWE,Örebro,Orebro,SE-T,county,,34.7,2785,2785,4,Europe/Stockholm,FALSE,1752640024
Gamleby,Gamleby,,57.8833,16.3833,Sweden,SE,SWE,Kalmar,Kalmar,SE-H,county,,30.5,2775,2775,4,Europe/Stockholm,FALSE,1752922907
Valdemarsvik,Valdemarsvik,,58.2000,16.6000,Sweden,SE,SWE,Östergötland,Ostergotland,SE-E,county,minor,9.0,2772,2772,3,Europe/Stockholm,FALSE,1752102676
Vålberg,Valberg,,59.4000,13.1667,Sweden,SE,SWE,Värmland,Varmland,SE-S,county,,33.8,2770,2770,4,Europe/Stockholm,FALSE,1752837479
Gimo,Gimo,,60.1833,18.1833,Sweden,SE,SWE,Uppsala,Uppsala,SE-C,county,,59.8,2765,2765,4,Europe/Stockholm,FALSE,1752833206
Johannedal,Johannedal,,62.4333,17.3667,Sweden,SE,SWE,Västernorrland,Vasternorrland,SE-Y,county,,421.8,2754,2754,3,Europe/Stockholm,FALSE,1752787700
"Stora Höga","Stora Hoga",,58.0167,11.8333,Sweden,SE,SWE,"Västra Götaland","Vastra Gotaland",SE-O,county,,105.8,2751,2751,4,Europe/Stockholm,FALSE,1752705749
Deje,Deje,,59.6000,13.4333,Sweden,SE,SWE,Värmland,Varmland,SE-S,county,,13.9,2742,2742,4,Europe/Stockholm,FALSE,1752703039
Lessebo,Lessebo,,56.7500,15.2667,Sweden,SE,SWE,Kronoberg,Kronoberg,SE-G,county,minor,62.7,2737,2737,3,Europe/Stockholm,FALSE,1752004239
Ockelbo,Ockelbo,,60.8833,16.7167,Sweden,SE,SWE,Gävleborg,Gavleborg,SE-X,county,minor,5.2,2724,2724,3,Europe/Stockholm,FALSE,1752913251
Vejbystrand,Vejbystrand,Saltören,56.3167,12.7667,Sweden,SE,SWE,Skåne,Skane,SE-M,county,,148.0,2721,2721,4,Europe/Stockholm,FALSE,1752925138
Irsta,Irsta,,59.6000,16.7000,Sweden,SE,SWE,Västmanland,Vastmanland,SE-U,county,,30.5,2717,2717,4,Europe/Stockholm,FALSE,1752556959
Frösakull,Frosakull,,56.6833,12.7333,Sweden,SE,SWE,Halland,Halland,SE-N,county,,653.5,2699,2699,3,Europe/Stockholm,FALSE,1752441142
Bårslöv,Barslov,,56.0000,12.8167,Sweden,SE,SWE,Skåne,Skane,SE-M,county,,248.0,2682,2682,3,Europe/Stockholm,FALSE,1752748189
Alsike,Alsike,,59.8000,17.7667,Sweden,SE,SWE,Uppsala,Uppsala,SE-C,county,,99.4,2681,2681,4,Europe/Stockholm,FALSE,1752556237
Bjärnum,Bjarnum,,56.2833,13.7000,Sweden,SE,SWE,Skåne,Skane,SE-M,county,,59.4,2674,2674,4,Europe/Stockholm,FALSE,1752316720
Sävar,Savar,,63.9000,20.5667,Sweden,SE,SWE,Västerbotten,Vasterbotten,SE-AC,county,,8.9,2670,2670,4,Europe/Stockholm,FALSE,1752413196
Gränna,Granna,,58.0167,14.4667,Sweden,SE,SWE,Jönköping,Jonkoping,SE-F,county,,34.7,2665,2665,4,Europe/Stockholm,FALSE,1752986834
Kvissleby,Kvissleby,Kvissle|Kvitsle,62.3000,17.3833,Sweden,SE,SWE,Västernorrland,Vasternorrland,SE-Y,county,,43.5,2614,2614,4,Europe/Stockholm,FALSE,1752327176
Träslövsläge,Traslovslage,,57.0500,12.2667,Sweden,SE,SWE,Halland,Halland,SE-N,county,,246.9,2600,2600,3,Europe/Stockholm,FALSE,1752487247
Herrestad,Herrestad,,58.3500,11.8500,Sweden,SE,SWE,"Västra Götaland","Vastra Gotaland",SE-O,county,,63.3,2583,2583,4,Europe/Stockholm,FALSE,1752016467
Jämjö,Jamjo,,56.1833,15.8500,Sweden,SE,SWE,Blekinge,Blekinge,SE-K,county,,43.0,2578,2578,4,Europe/Stockholm,FALSE,1752365858
Ödeshög,Odeshog,,58.2167,14.6500,Sweden,SE,SWE,Östergötland,Ostergotland,SE-E,county,minor,11.1,2572,2572,3,Europe/Stockholm,FALSE,1752973438
Ljunghusen,Ljunghusen,,55.4000,12.9167,Sweden,SE,SWE,Skåne,Skane,SE-M,county,,670.0,2555,2555,3,Europe/Stockholm,FALSE,1752644545
Heby,Heby,,59.9333,16.8833,Sweden,SE,SWE,Uppsala,Uppsala,SE-C,county,minor,20.0,2550,2550,3,Europe/Stockholm,FALSE,1752861667
Sveg,Sveg,,62.0333,14.3500,Sweden,SE,SWE,Jämtland,Jamtland,SE-Z,county,minor,0.9,2547,2547,3,Europe/Stockholm,FALSE,1752041898
Nordmaling,Nordmaling,,63.5667,19.5000,Sweden,SE,SWE,Västerbotten,Vasterbotten,SE-AC,county,minor,5.2,2546,2546,3,Europe/Stockholm,FALSE,1752183160
Hörnefors,Hornefors,,63.6167,19.9167,Sweden,SE,SWE,Västerbotten,Vasterbotten,SE-AC,county,,16.4,2542,2542,4,Europe/Stockholm,FALSE,1752933493
Tvååker,Tvaaker,,57.0500,12.4000,Sweden,SE,SWE,Halland,Halland,SE-N,county,,84.2,2534,2534,4,Europe/Stockholm,FALSE,1752831174
Frövi,Frovi,,59.4667,15.3667,Sweden,SE,SWE,Örebro,Orebro,SE-T,county,,52.0,2516,2516,4,Europe/Stockholm,FALSE,1752282608
Odensjö,Odensjo,,57.7167,14.1667,Sweden,SE,SWE,Jönköping,Jonkoping,SE-F,county,,55.5,2495,2495,4,Europe/Stockholm,FALSE,1752695161
Alfta,Alfta,,61.3500,16.0833,Sweden,SE,SWE,Gävleborg,Gavleborg,SE-X,county,,4.4,2465,2465,4,Europe/Stockholm,FALSE,1752843993
Kolsva,Kolsva,,59.6000,15.8333,Sweden,SE,SWE,Västmanland,Vastmanland,SE-U,county,,13.6,2453,2453,4,Europe/Stockholm,FALSE,1752806334
Vårsta,Varsta,,59.1667,17.8000,Sweden,SE,SWE,Stockholm,Stockholm,SE-AB,county,,56.9,2396,2396,4,Europe/Stockholm,FALSE,1752945321
Bureå,Burea,,64.6167,21.2000,Sweden,SE,SWE,Västerbotten,Vasterbotten,SE-AC,county,,15.0,2360,2360,4,Europe/Stockholm,FALSE,1752649033
Stockvik,Stockvik,Stockviksverken,62.3333,17.3667,Sweden,SE,SWE,Västernorrland,Vasternorrland,SE-Y,county,,43.5,2359,2359,4,Europe/Stockholm,FALSE,1752390673
Rottne,Rottne,,57.0167,14.9000,Sweden,SE,SWE,Kronoberg,Kronoberg,SE-G,county,,30.1,2354,2354,4,Europe/Stockholm,FALSE,1752685030
Storfors,Storfors,,59.5333,14.2667,Sweden,SE,SWE,Värmland,Varmland,SE-S,county,minor,9.9,2337,2337,3,Europe/Stockholm,FALSE,1752016529
Vindeln,Vindeln,,64.2000,19.7167,Sweden,SE,SWE,Västerbotten,Vasterbotten,SE-AC,county,minor,1.9,2333,2333,3,Europe/Stockholm,FALSE,1752038415
Alunda,Alunda,,60.0500,18.0667,Sweden,SE,SWE,Uppsala,Uppsala,SE-C,county,,25.1,2317,2317,4,Europe/Stockholm,FALSE,1752641942
Söråker,Soraker,,62.5000,17.5167,Sweden,SE,SWE,Västernorrland,Vasternorrland,SE-Y,county,,20.3,2312,2312,4,Europe/Stockholm,FALSE,1752361618
Fritsla,Fritsla,Frissla,57.5500,12.7833,Sweden,SE,SWE,"Västra Götaland","Vastra Gotaland",SE-O,county,,37.2,2293,2293,4,Europe/Stockholm,FALSE,1752609860
Skinnskatteberg,Skinnskatteberg,,59.8333,15.6833,Sweden,SE,SWE,Västmanland,Vastmanland,SE-U,county,minor,5.8,2287,2287,3,Europe/Stockholm,FALSE,1752653686
Bergsviken,Bergsviken,,65.3000,21.3833,Sweden,SE,SWE,Norrbotten,Norrbotten,SE-BD,county,,18.5,2283,2283,4,Europe/Stockholm,FALSE,1752335547
Krokom,Krokom,"Krokum Station",63.3167,14.5000,Sweden,SE,SWE,Jämtland,Jamtland,SE-Z,county,minor,25.9,2277,2277,3,Europe/Stockholm,FALSE,1752743643
Österbybruk,Osterbybruk,,60.2000,17.9000,Sweden,SE,SWE,Uppsala,Uppsala,SE-C,county,,12.2,2272,2272,4,Europe/Stockholm,FALSE,1752802472
Glumslöv,Glumslov,,55.9500,12.8167,Sweden,SE,SWE,Skåne,Skane,SE-M,county,,245.5,2253,2253,3,Europe/Stockholm,FALSE,1752222790
Kåge,Kage,,64.8333,20.9833,Sweden,SE,SWE,Västerbotten,Vasterbotten,SE-AC,county,,15.0,2248,2248,4,Europe/Stockholm,FALSE,1752210750
Rimforsa,Rimforsa,,58.1333,15.6667,Sweden,SE,SWE,Östergötland,Ostergotland,SE-E,county,,9.0,2238,2238,4,Europe/Stockholm,FALSE,1752167725
Röbäck,Roback,Rödbäck|Röbäcksby,63.8167,20.1833,Sweden,SE,SWE,Västerbotten,Vasterbotten,SE-AC,county,,62.1,2230,2230,4,Europe/Stockholm,FALSE,1752358858
Sturefors,Sturefors,,58.3333,15.7333,Sweden,SE,SWE,Östergötland,Ostergotland,SE-E,county,,38.8,2229,2229,4,Europe/Stockholm,FALSE,1752186445
Pershagen,Pershagen,,59.1667,17.6500,Sweden,SE,SWE,Stockholm,Stockholm,SE-AB,county,,779.8,2216,2216,3,Europe/Stockholm,FALSE,1752406148
Charlottenberg,Charlottenberg,,59.8833,12.2833,Sweden,SE,SWE,Värmland,Varmland,SE-S,county,minor,20.0,2215,2215,3,Europe/Stockholm,FALSE,1752621569
Arbrå,Arbra,,61.4667,16.3833,Sweden,SE,SWE,Gävleborg,Gavleborg,SE-X,county,,8.8,2215,2215,4,Europe/Stockholm,FALSE,1752721392
Storuman,Storuman,,65.1000,17.1000,Sweden,SE,SWE,Västerbotten,Vasterbotten,SE-AC,county,minor,1.1,2207,2207,3,Europe/Stockholm,FALSE,1752603421
Hyllinge,Hyllinge,,56.1000,12.8500,Sweden,SE,SWE,Skåne,Skane,SE-M,county,,406.4,2204,2204,3,Europe/Stockholm,FALSE,1752469823
Obbola,Obbola,,63.7000,20.3167,Sweden,SE,SWE,Västerbotten,Vasterbotten,SE-AC,county,,181.9,2197,2197,4,Europe/Stockholm,FALSE,1752932256
Delsbo,Delsbo,,61.8000,16.5833,Sweden,SE,SWE,Gävleborg,Gavleborg,SE-X,county,,9.5,2192,2192,4,Europe/Stockholm,FALSE,1752472512
Andalen,Andalen,,57.7000,11.7500,Sweden,SE,SWE,"Västra Götaland","Vastra Gotaland",SE-O,county,,346.0,2188,2188,3,Europe/Stockholm,FALSE,1752842088
Tillberga,Tillberga,,59.6667,16.6500,Sweden,SE,SWE,Västmanland,Vastmanland,SE-U,county,,54.0,2180,2180,4,Europe/Stockholm,FALSE,1752372152
Storvik,Storvik,,60.6000,16.5167,Sweden,SE,SWE,Gävleborg,Gavleborg,SE-X,county,,22.6,2165,2165,4,Europe/Stockholm,FALSE,1752312191
Sjuntorp,Sjuntorp,,58.2000,12.2167,Sweden,SE,SWE,"Västra Götaland","Vastra Gotaland",SE-O,county,,55.3,2162,2162,3,Europe/Stockholm,FALSE,1752785272
Örbyhus,Orbyhus,,60.2267,17.7047,Sweden,SE,SWE,Uppsala,Uppsala,SE-C,county,,16.7,2153,2153,4,Europe/Stockholm,FALSE,1752430344
Insjön,Insjon,,60.6833,15.1000,Sweden,SE,SWE,Dalarna,Dalarna,SE-W,county,,19.0,2149,2149,4,Europe/Stockholm,FALSE,1752616284
Sundsbruk,Sundsbruk,Sund,62.4500,17.3500,Sweden,SE,SWE,Västernorrland,Vasternorrland,SE-Y,county,,461.0,2137,2137,3,Europe/Stockholm,FALSE,1752626397
Skattkärr,Skattkarr,,59.4167,13.6333,Sweden,SE,SWE,Värmland,Varmland,SE-S,county,,13.0,2135,2135,4,Europe/Stockholm,FALSE,1752813582
Skogstorp,Skogstorp,,56.9167,12.4333,Sweden,SE,SWE,Halland,Halland,SE-N,county,,97.6,2124,2124,4,Europe/Stockholm,FALSE,1752970368
Vikingstad,Vikingstad,,58.3833,15.4333,Sweden,SE,SWE,Östergötland,Ostergotland,SE-E,county,,44.1,2096,2096,4,Europe/Stockholm,FALSE,1752619244
Förslöv,Forslov,Förslövsholm|Förslövholm,56.3500,12.8167,Sweden,SE,SWE,Skåne,Skane,SE-M,county,,64.1,2085,2085,4,Europe/Stockholm,FALSE,1752361223
Sandarne,Sandarne,,61.2667,17.1667,Sweden,SE,SWE,Gävleborg,Gavleborg,SE-X,county,,117.3,2067,2067,4,Europe/Stockholm,FALSE,1752063325
Strömsnäsbruk,Stromsnasbruk,,56.5500,13.7167,Sweden,SE,SWE,Kronoberg,Kronoberg,SE-G,county,,28.3,2066,2066,4,Europe/Stockholm,FALSE,1752689367
Hammar,Hammar,,56.0333,14.1667,Sweden,SE,SWE,Skåne,Skane,SE-M,county,,59.7,2057,2057,4,Europe/Stockholm,FALSE,1752776995
Norsjö,Norsjo,,64.9167,19.4833,Sweden,SE,SWE,Västerbotten,Vasterbotten,SE-AC,county,minor,2.2,2051,2051,3,Europe/Stockholm,FALSE,1752071557
Malå,Mala,,65.1833,18.7500,Sweden,SE,SWE,Västerbotten,Vasterbotten,SE-AC,county,minor,1.8,2050,2050,3,Europe/Stockholm,FALSE,1752570711
Ljungbyhed,Ljungbyhed,,56.0667,13.2167,Sweden,SE,SWE,Skåne,Skane,SE-M,county,,20.6,2046,2046,4,Europe/Stockholm,FALSE,1752427820
Veddige,Veddige,,57.2667,12.3167,Sweden,SE,SWE,Halland,Halland,SE-N,county,,41.2,2045,2045,4,Europe/Stockholm,FALSE,1752304995
Getinge,Getinge,,56.8167,12.7333,Sweden,SE,SWE,Halland,Halland,SE-N,county,,42.3,2045,2045,4,Europe/Stockholm,FALSE,1752078385
Frillesås,Frillesas,,57.3167,12.1667,Sweden,SE,SWE,Halland,Halland,SE-N,county,,65.7,2044,2044,4,Europe/Stockholm,FALSE,1752806943
Forserum,Forserum,,57.7000,14.4667,Sweden,SE,SWE,Jönköping,Jonkoping,SE-F,county,,22.9,2039,2039,4,Europe/Stockholm,FALSE,1752654110
Ekängen,Ekangen,,58.4667,15.6333,Sweden,SE,SWE,Östergötland,Ostergotland,SE-E,county,,51.1,2037,2037,4,Europe/Stockholm,FALSE,1752150716
Fjugesta,Fjugesta,,59.1667,14.8667,Sweden,SE,SWE,Örebro,Orebro,SE-T,county,minor,18.2,2033,2033,3,Europe/Stockholm,FALSE,1752581312
Vansbro,Vansbro,Vansboro,60.5167,14.2167,Sweden,SE,SWE,Dalarna,Dalarna,SE-W,county,minor,4.0,2026,2026,3,Europe/Stockholm,FALSE,1752278094
Robertsfors,Robertsfors,,64.2000,20.8500,Sweden,SE,SWE,Västerbotten,Vasterbotten,SE-AC,county,minor,4.9,2004,2004,3,Europe/Stockholm,FALSE,1752537649
Njurundabommen,Njurundabommen,Njurunda,62.2667,17.3833,Sweden,SE,SWE,Västernorrland,Vasternorrland,SE-Y,county,,43.5,1983,1983,4,Europe/Stockholm,FALSE,1752035397
Arjeplog,Arjeplog,Árjepluovve,66.0500,17.8833,Sweden,SE,SWE,Norrbotten,Norrbotten,SE-BD,county,minor,0.2,1977,1977,3,Europe/Stockholm,FALSE,1752335240
Malmköping,Malmkoping,,59.1333,16.7333,Sweden,SE,SWE,Södermanland,Sodermanland,SE-D,county,,14.4,1977,1977,4,Europe/Stockholm,FALSE,1752322125
Pajala,Pajala,Bájil,67.1833,23.3667,Sweden,SE,SWE,Norrbotten,Norrbotten,SE-BD,county,minor,0.7,1958,1958,3,Europe/Stockholm,FALSE,1752132448
Anderslöv,Anderslov,,55.4333,13.3333,Sweden,SE,SWE,Skåne,Skane,SE-M,county,,42.4,1958,1958,3,Europe/Stockholm,FALSE,1752597597
Stigtomta,Stigtomta,,58.8000,16.7833,Sweden,SE,SWE,Södermanland,Sodermanland,SE-D,county,,20.9,1951,1951,4,Europe/Stockholm,FALSE,1752991482
Kolbäck,Kolback,,59.5667,16.2500,Sweden,SE,SWE,Västmanland,Vastmanland,SE-U,county,,96.0,1951,1951,4,Europe/Stockholm,FALSE,1752560208
Mockfjärd,Mockfjard,"Mockfjärds Kapell",60.5000,14.9667,Sweden,SE,SWE,Dalarna,Dalarna,SE-W,county,,35.7,1937,1937,4,Europe/Stockholm,FALSE,1752405158
Storå,Stora,,59.7000,15.1167,Sweden,SE,SWE,Örebro,Orebro,SE-T,county,,15.7,1929,1929,4,Europe/Stockholm,FALSE,1752239988
Ljusne,Ljusne,,61.2167,17.1333,Sweden,SE,SWE,Gävleborg,Gavleborg,SE-X,county,,18.9,1917,1917,4,Europe/Stockholm,FALSE,1752079150
Älvdalen,Alvdalen,,61.2333,14.0333,Sweden,SE,SWE,Dalarna,Dalarna,SE-W,county,minor,1.8,1912,1912,3,Europe/Stockholm,FALSE,1752868768
Klågerup,Klagerup,,55.6000,13.2500,Sweden,SE,SWE,Skåne,Skane,SE-M,county,,75.8,1904,1904,4,Europe/Stockholm,FALSE,1752874898
Lönsboda,Lonsboda,,56.4000,14.3167,Sweden,SE,SWE,Skåne,Skane,SE-M,county,,12.6,1903,1903,4,Europe/Stockholm,FALSE,1752859292
Färgelanda,Fargelanda,,58.5667,11.9833,Sweden,SE,SWE,"Västra Götaland","Vastra Gotaland",SE-O,county,minor,16.3,1894,1894,3,Europe/Stockholm,FALSE,1752612230
Mörarp,Morarp,,56.0667,12.8667,Sweden,SE,SWE,Skåne,Skane,SE-M,county,,107.0,1893,1893,4,Europe/Stockholm,FALSE,1752603054
Bodafors,Bodafors,,57.5000,14.7000,Sweden,SE,SWE,Jönköping,Jonkoping,SE-F,county,,23.3,1886,1886,4,Europe/Stockholm,FALSE,1752117281
Högsby,Hogsby,,57.1667,16.0333,Sweden,SE,SWE,Kalmar,Kalmar,SE-H,county,minor,11.0,1881,1881,3,Europe/Stockholm,FALSE,1752869407
Jonstorp,Jonstorp,,56.2333,12.6667,Sweden,SE,SWE,Skåne,Skane,SE-M,county,,73.1,1880,1880,4,Europe/Stockholm,FALSE,1752159113
Bollstabruk,Bollstabruk,Bollsta,63.0000,17.6833,Sweden,SE,SWE,Västernorrland,Vasternorrland,SE-Y,county,,12.4,1871,1871,4,Europe/Stockholm,FALSE,1752747882
Molkom,Molkom,,59.6000,13.7167,Sweden,SE,SWE,Värmland,Varmland,SE-S,county,,13.0,1863,1863,4,Europe/Stockholm,FALSE,1752635402
Kvidinge,Kvidinge,,56.1333,13.0667,Sweden,SE,SWE,Skåne,Skane,SE-M,county,,53.6,1854,1854,4,Europe/Stockholm,FALSE,1752779523
Torsås,Torsas,,56.4000,16.0000,Sweden,SE,SWE,Kalmar,Kalmar,SE-H,county,minor,13.4,1848,1848,3,Europe/Stockholm,FALSE,1752778008
Brastad,Brastad,,58.3833,11.4833,Sweden,SE,SWE,"Västra Götaland","Vastra Gotaland",SE-O,county,,57.7,1846,1846,4,Europe/Stockholm,FALSE,1752665255
Nossebro,Nossebro,,58.1833,12.7167,Sweden,SE,SWE,"Västra Götaland","Vastra Gotaland",SE-O,county,minor,34.0,1846,1846,3,Europe/Stockholm,FALSE,1752293200
Bjursås,Bjursas,,60.7333,15.4333,Sweden,SE,SWE,Dalarna,Dalarna,SE-W,county,,20.5,1839,1839,4,Europe/Stockholm,FALSE,1752865228
Grycksbo,Grycksbo,,60.6833,15.4667,Sweden,SE,SWE,Dalarna,Dalarna,SE-W,county,,64.1,1825,1825,4,Europe/Stockholm,FALSE,1752577999
Moheda,Moheda,,57.0000,14.5667,Sweden,SE,SWE,Kronoberg,Kronoberg,SE-G,county,,36.2,1824,1824,4,Europe/Stockholm,FALSE,1752701520
Haverdal,Haverdal,,56.7167,12.6667,Sweden,SE,SWE,Halland,Halland,SE-N,county,,105.6,1821,1821,4,Europe/Stockholm,FALSE,1752815488
Henån,Henan,,58.2333,11.6833,Sweden,SE,SWE,"Västra Götaland","Vastra Gotaland",SE-O,county,minor,62.3,1816,1816,3,Europe/Stockholm,FALSE,1752408209
Sösdala,Sosdala,,56.0333,13.6667,Sweden,SE,SWE,Skåne,Skane,SE-M,county,,35.4,1811,1811,4,Europe/Stockholm,FALSE,1752662053
Bjästa,Bjasta,,63.2000,18.5000,Sweden,SE,SWE,Västernorrland,Vasternorrland,SE-Y,county,,14.9,1808,1808,4,Europe/Stockholm,FALSE,1752177660
Skepplanda,Skepplanda,,57.9833,12.2000,Sweden,SE,SWE,"Västra Götaland","Vastra Gotaland",SE-O,county,,30.8,1803,1803,4,Europe/Stockholm,FALSE,1752635816
Järbo,Jarbo,,60.7167,16.6000,Sweden,SE,SWE,Gävleborg,Gavleborg,SE-X,county,,18.7,1801,1801,4,Europe/Stockholm,FALSE,1752488397
Åsele,Asele,,64.1500,17.3500,Sweden,SE,SWE,Västerbotten,Vasterbotten,SE-AC,county,minor,0.6,1798,1798,3,Europe/Stockholm,FALSE,1752637991
Stenstorp,Stenstorp,,58.2744,13.7136,Sweden,SE,SWE,"Västra Götaland","Vastra Gotaland",SE-O,county,,49.8,1794,1794,3,Europe/Stockholm,FALSE,1752967167
Hällabrottet,Hallabrottet,Hällebrottet,59.1167,15.2000,Sweden,SE,SWE,Örebro,Orebro,SE-T,county,,185.6,1789,1789,4,Europe/Stockholm,FALSE,1752546000
Gullbrandstorp,Gullbrandstorp,,56.7000,12.7333,Sweden,SE,SWE,Halland,Halland,SE-N,county,,111.1,1781,1781,4,Europe/Stockholm,FALSE,1752797226
Bergsbyn,Bergsbyn,,64.7333,21.0667,Sweden,SE,SWE,Västerbotten,Vasterbotten,SE-AC,county,,261.7,1780,1780,3,Europe/Stockholm,FALSE,1752361195
Mörbylånga,Morbylanga,,56.5167,16.3833,Sweden,SE,SWE,Kalmar,Kalmar,SE-H,county,minor,26.0,1780,1780,3,Europe/Stockholm,FALSE,1752253435
Åled,Aled,,56.7442,12.9444,Sweden,SE,SWE,Halland,Halland,SE-N,county,,17.1,1775,1775,4,Europe/Stockholm,FALSE,1752147904
Vislanda,Vislanda,,56.7833,14.4500,Sweden,SE,SWE,Kronoberg,Kronoberg,SE-G,county,,18.9,1769,1769,4,Europe/Stockholm,FALSE,1752214243
Kvicksund,Kvicksund,Kvieksund,59.4500,16.3167,Sweden,SE,SWE,Södermanland,Sodermanland,SE-D,county,,53.3,1768,1768,4,Europe/Stockholm,FALSE,1752295754
Hillerstorp,Hillerstorp,,57.3167,13.8667,Sweden,SE,SWE,Jönköping,Jonkoping,SE-F,county,,19.4,1766,1766,4,Europe/Stockholm,FALSE,1752079930
Lagan,Lagan,,56.9167,13.9833,Sweden,SE,SWE,Kronoberg,Kronoberg,SE-G,county,,15.0,1744,1744,4,Europe/Stockholm,FALSE,1752851774
Lenhovda,Lenhovda,,57.0000,15.2833,Sweden,SE,SWE,Kronoberg,Kronoberg,SE-G,county,,7.5,1744,1744,4,Europe/Stockholm,FALSE,1752817787
Virserum,Virserum,,57.3167,15.5833,Sweden,SE,SWE,Kalmar,Kalmar,SE-H,county,,12.0,1742,1742,4,Europe/Stockholm,FALSE,1752349328
Övertorneå,Overtornea,"Overtorne|Öfver Torneå|Öfer Torne|Matarengi",66.3881,23.6536,Sweden,SE,SWE,Norrbotten,Norrbotten,SE-BD,county,minor,1.7,1737,1737,3,Europe/Stockholm,FALSE,1752860891
Rosvik,Rosvik,,65.4286,21.6892,Sweden,SE,SWE,Norrbotten,Norrbotten,SE-BD,county,,11.4,1735,1735,4,Europe/Stockholm,FALSE,1752854285
Hunnebostrand,Hunnebostrand,,58.4417,11.3028,Sweden,SE,SWE,"Västra Götaland","Vastra Gotaland",SE-O,county,,201.2,1731,1731,3,Europe/Stockholm,FALSE,1752746695
Byske,Byske,,64.9500,21.2000,Sweden,SE,SWE,Västerbotten,Vasterbotten,SE-AC,county,,4.7,1728,1728,4,Europe/Stockholm,FALSE,1752536873
Forsbacka,Forsbacka,,60.6167,16.8833,Sweden,SE,SWE,Gävleborg,Gavleborg,SE-X,county,,52.4,1702,1702,4,Europe/Stockholm,FALSE,1752254310
Tanumshede,Tanumshede,,58.7236,11.3236,Sweden,SE,SWE,"Västra Götaland","Vastra Gotaland",SE-O,county,minor,22.3,1697,1697,3,Europe/Stockholm,FALSE,1752606317
Jursla,Jursla,,58.6667,16.1833,Sweden,SE,SWE,Östergötland,Ostergotland,SE-E,county,,66.7,1692,1692,4,Europe/Stockholm,FALSE,1752010012
Fjälkinge,Fjalkinge,,56.0500,14.2833,Sweden,SE,SWE,Skåne,Skane,SE-M,county,,72.3,1690,1690,4,Europe/Stockholm,FALSE,1752355528
Bräkne-Hoby,Brakne-Hoby,,56.2308,15.1208,Sweden,SE,SWE,Blekinge,Blekinge,SE-K,county,,17.5,1689,1689,4,Europe/Stockholm,FALSE,1752638556
Bjärtrå,Bjartra,,62.9833,17.8667,Sweden,SE,SWE,Västernorrland,Vasternorrland,SE-Y,county,,10.7,1687,1687,4,Europe/Stockholm,FALSE,1752790931
Svängsta,Svangsta,,56.2667,14.7667,Sweden,SE,SWE,Blekinge,Blekinge,SE-K,county,,92.6,1682,1682,4,Europe/Stockholm,FALSE,1752349556
Ingelstad,Ingelstad,,56.7500,14.9167,Sweden,SE,SWE,Kronoberg,Kronoberg,SE-G,county,,31.6,1674,1674,4,Europe/Stockholm,FALSE,1752280887
Långshyttan,Langshyttan,,60.4500,16.0167,Sweden,SE,SWE,Dalarna,Dalarna,SE-W,county,,8.4,1671,1671,4,Europe/Stockholm,FALSE,1752721110
Rosersberg,Rosersberg,,59.5833,17.8833,Sweden,SE,SWE,Stockholm,Stockholm,SE-AB,county,,45.4,1671,1671,4,Europe/Stockholm,FALSE,1752749280
Vittsjö,Vittsjo,,56.3500,13.6500,Sweden,SE,SWE,Skåne,Skane,SE-M,county,,17.0,1665,1665,4,Europe/Stockholm,FALSE,1752033982
Teckomatorp,Teckomatorp,,55.8667,13.0833,Sweden,SE,SWE,Skåne,Skane,SE-M,county,,72.0,1651,1651,4,Europe/Stockholm,FALSE,1752192134
Bräcke,Bracke,,62.7500,15.4167,Sweden,SE,SWE,Jämtland,Jamtland,SE-Z,county,minor,2.3,1651,1651,3,Europe/Stockholm,FALSE,1752645415
Älvkarleby,Alvkarleby,,60.5667,17.4500,Sweden,SE,SWE,Uppsala,Uppsala,SE-C,county,,43.5,1647,1647,4,Europe/Stockholm,FALSE,1752788242
Husum,Husum,,63.3333,19.1667,Sweden,SE,SWE,Västernorrland,Vasternorrland,SE-Y,county,,9.9,1647,1647,4,Europe/Stockholm,FALSE,1752252875
Asmundtorp,Asmundtorp,Assmundtorp,55.8833,12.9333,Sweden,SE,SWE,Skåne,Skane,SE-M,county,,124.1,1646,1646,4,Europe/Stockholm,FALSE,1752348786
Trönninge,Tronninge,Trönningeby,56.6167,12.9333,Sweden,SE,SWE,Halland,Halland,SE-N,county,,35.4,1645,1645,4,Europe/Stockholm,TRUE,1752843255
Svinningeudd,Svinningeudd,,59.4500,18.2833,Sweden,SE,SWE,Stockholm,Stockholm,SE-AB,county,,441.0,1636,1636,3,Europe/Stockholm,FALSE,1752265624
Hasslö,Hasslo,,56.1083,15.4625,Sweden,SE,SWE,Blekinge,Blekinge,SE-K,county,,136.8,1628,1628,4,Europe/Stockholm,FALSE,1752829327
Stallarholmen,Stallarholmen,,59.3667,17.2000,Sweden,SE,SWE,Södermanland,Sodermanland,SE-D,county,,22.2,1623,1623,4,Europe/Stockholm,FALSE,1752927219
Hästveda,Hastveda,,56.2861,13.9361,Sweden,SE,SWE,Skåne,Skane,SE-M,county,,36.4,1623,1623,4,Europe/Stockholm,FALSE,1752161072
Mellbystrand,Mellbystrand,,56.5167,12.9333,Sweden,SE,SWE,Halland,Halland,SE-N,county,,122.1,1619,1619,4,Europe/Stockholm,FALSE,1752966143
Garphyttan,Garphyttan,,59.3019,14.9494,Sweden,SE,SWE,Örebro,Orebro,SE-T,county,,33.0,1619,1619,4,Europe/Stockholm,FALSE,1752815797
Rinkabyholm,Rinkabyholm,,56.6500,16.2667,Sweden,SE,SWE,Kalmar,Kalmar,SE-H,county,,113.0,1607,1607,4,Europe/Stockholm,FALSE,1752245116
Burträsk,Burtrask,,64.5167,20.6500,Sweden,SE,SWE,Västerbotten,Vasterbotten,SE-AC,county,,2.2,1606,1606,4,Europe/Stockholm,FALSE,1752704445
Ljungbyholm,Ljungbyholm,,56.6333,16.1667,Sweden,SE,SWE,Kalmar,Kalmar,SE-H,county,,37.5,1604,1604,4,Europe/Stockholm,FALSE,1752313418
Vallda,Vallda,,57.4833,11.9833,Sweden,SE,SWE,Halland,Halland,SE-N,county,,174.2,1604,1604,4,Europe/Stockholm,FALSE,1752073641
Marieholm,Marieholm,,55.8667,13.1500,Sweden,SE,SWE,Skåne,Skane,SE-M,county,,77.4,1598,1598,4,Europe/Stockholm,FALSE,1752090823
Harplinge,Harplinge,,56.7500,12.7167,Sweden,SE,SWE,Halland,Halland,SE-N,county,,105.6,1597,1597,4,Europe/Stockholm,FALSE,1752974517
Östervåla,Ostervala,,60.1833,17.1833,Sweden,SE,SWE,Uppsala,Uppsala,SE-C,county,,12.0,1595,1595,4,Europe/Stockholm,FALSE,1752503552
Floby,Floby,,58.1333,13.3333,Sweden,SE,SWE,"Västra Götaland","Vastra Gotaland",SE-O,county,,13.3,1593,1593,3,Europe/Stockholm,FALSE,1752568521
Källby,Kallby,,58.5167,13.3167,Sweden,SE,SWE,"Västra Götaland","Vastra Gotaland",SE-O,county,,49.1,1586,1586,4,Europe/Stockholm,FALSE,1752773405
Hälleforsnäs,Halleforsnas,,59.1528,16.4986,Sweden,SE,SWE,Södermanland,Sodermanland,SE-D,county,,22.2,1585,1585,4,Europe/Stockholm,FALSE,1752107724
Långsele,Langsele,,63.1833,17.0667,Sweden,SE,SWE,Västernorrland,Vasternorrland,SE-Y,county,,14.6,1584,1584,4,Europe/Stockholm,FALSE,1752608983
Sörforsa,Sorforsa,,61.7333,16.9833,Sweden,SE,SWE,Gävleborg,Gavleborg,SE-X,county,,14.6,1574,1574,4,Europe/Stockholm,FALSE,1752456614
Söderfors,Soderfors,,60.3833,17.2333,Sweden,SE,SWE,Uppsala,Uppsala,SE-C,county,,11.6,1572,1572,4,Europe/Stockholm,FALSE,1752962413
Gullspång,Gullspang,,58.9833,14.1167,Sweden,SE,SWE,"Västra Götaland","Vastra Gotaland",SE-O,county,,18.3,1567,1567,3,Europe/Stockholm,FALSE,1752343301
Boliden,Boliden,,64.8667,20.3833,Sweden,SE,SWE,Västerbotten,Vasterbotten,SE-AC,county,,1.8,1566,1566,4,Europe/Stockholm,FALSE,1752091223
Bergeforsen,Bergeforsen,,62.5167,17.3833,Sweden,SE,SWE,Västernorrland,Vasternorrland,SE-Y,county,,135.4,1563,1563,4,Europe/Stockholm,FALSE,1752088670
Öregrund,Oregrund,,60.3333,18.4333,Sweden,SE,SWE,Uppsala,Uppsala,SE-C,county,,21.6,1555,1555,4,Europe/Stockholm,FALSE,1752620510
Pålsboda,Palsboda,,59.0667,15.3333,Sweden,SE,SWE,Örebro,Orebro,SE-T,county,,11.5,1552,1552,4,Europe/Stockholm,FALSE,1752763663
Vännäsby,Vannasby,,63.9128,19.8183,Sweden,SE,SWE,Västerbotten,Vasterbotten,SE-AC,county,,15.5,1552,1552,4,Europe/Stockholm,FALSE,1752257338
Braås,Braas,,57.0667,15.0500,Sweden,SE,SWE,Kronoberg,Kronoberg,SE-G,county,,20.9,1547,1547,4,Europe/Stockholm,FALSE,1752487373
Backa,Backa,,57.4667,12.0000,Sweden,SE,SWE,Halland,Halland,SE-N,county,,174.2,1547,1547,4,Europe/Stockholm,FALSE,1752851620
Dorotea,Dorotea,,64.2667,16.4167,Sweden,SE,SWE,Västerbotten,Vasterbotten,SE-AC,county,minor,0.9,1543,1543,3,Europe/Stockholm,FALSE,1752000352
Brålanda,Bralanda,,58.5667,12.3667,Sweden,SE,SWE,"Västra Götaland","Vastra Gotaland",SE-O,county,,32.9,1538,1538,3,Europe/Stockholm,FALSE,1752269354
Rävlanda,Ravlanda,,57.6500,12.5000,Sweden,SE,SWE,"Västra Götaland","Vastra Gotaland",SE-O,county,,79.0,1532,1532,4,Europe/Stockholm,FALSE,1752417469
Blomstermåla,Blomstermala,,56.9833,16.3333,Sweden,SE,SWE,Kalmar,Kalmar,SE-H,county,,28.5,1527,1527,4,Europe/Stockholm,FALSE,1752303799
Gånghester,Ganghester,,57.7000,13.0167,Sweden,SE,SWE,"Västra Götaland","Vastra Gotaland",SE-O,county,,89.1,1526,1526,4,Europe/Stockholm,FALSE,1752188361
Målilla,Malilla,,57.3833,15.8000,Sweden,SE,SWE,Kalmar,Kalmar,SE-H,county,,6.4,1524,1524,4,Europe/Stockholm,FALSE,1752253337
"Dals Långed","Dals Langed",Långed,58.9167,12.3167,Sweden,SE,SWE,"Västra Götaland","Vastra Gotaland",SE-O,county,,14.6,1520,1520,4,Europe/Stockholm,FALSE,1752023151
Alafors,Alafors,,57.9250,12.0869,Sweden,SE,SWE,"Västra Götaland","Vastra Gotaland",SE-O,county,minor,103.8,1520,1520,3,Europe/Stockholm,FALSE,1752796417
Svanesund,Svanesund,,58.1333,11.8333,Sweden,SE,SWE,"Västra Götaland","Vastra Gotaland",SE-O,county,,71.0,1518,1518,4,Europe/Stockholm,FALSE,1752089427
Ekenässjön,Ekenassjon,,57.5000,15.0000,Sweden,SE,SWE,Jönköping,Jonkoping,SE-F,county,,113.8,1517,1517,4,Europe/Stockholm,FALSE,1752301022
"Virsbo Bruk","Virsbo Bruk",Virsbo,59.8667,16.0333,Sweden,SE,SWE,Västmanland,Vastmanland,SE-U,county,,15.7,1517,1517,4,Europe/Stockholm,FALSE,1752313020
Valla,Valla,,59.0167,16.3833,Sweden,SE,SWE,Södermanland,Sodermanland,SE-D,county,,37.2,1517,1517,4,Europe/Stockholm,FALSE,1752427313
Mörtnäs,Mortnas,,59.3167,18.4500,Sweden,SE,SWE,Stockholm,Stockholm,SE-AB,county,,235.2,1511,1511,3,Europe/Stockholm,FALSE,1752585965
Kimstad,Kimstad,,58.5333,15.9667,Sweden,SE,SWE,Östergötland,Ostergotland,SE-E,county,,85.8,1510,1510,4,Europe/Stockholm,FALSE,1752766037
Jämshög,Jamshog,,56.2333,14.5167,Sweden,SE,SWE,Blekinge,Blekinge,SE-K,county,,51.3,1494,1494,4,Europe/Stockholm,FALSE,1752006442
Limmared,Limmared,,57.5333,13.3500,Sweden,SE,SWE,"Västra Götaland","Vastra Gotaland",SE-O,county,,66.1,1484,1484,3,Europe/Stockholm,FALSE,1752543371
Rydaholm,Rydaholm,"Smålands Rydaholm",56.9833,14.3000,Sweden,SE,SWE,Jönköping,Jonkoping,SE-F,county,,13.5,1474,1474,4,Europe/Stockholm,FALSE,1752702045
Anneberg,Anneberg,,57.5333,12.1000,Sweden,SE,SWE,Halland,Halland,SE-N,county,,125.7,1469,1469,4,Europe/Stockholm,FALSE,1752138531
Mariannelund,Mariannelund,,57.6167,15.5667,Sweden,SE,SWE,Jönköping,Jonkoping,SE-F,county,,11.0,1468,1468,4,Europe/Stockholm,FALSE,1752704672
Bredaryd,Bredaryd,,57.1667,13.7333,Sweden,SE,SWE,Jönköping,Jonkoping,SE-F,county,,27.3,1466,1466,4,Europe/Stockholm,FALSE,1752578413
Ramnäs,Ramnas,,59.7667,16.2000,Sweden,SE,SWE,Västmanland,Vastmanland,SE-U,county,,14.3,1465,1465,4,Europe/Stockholm,FALSE,1752613607
Lammhult,Lammhult,Lamhult,57.1667,14.5833,Sweden,SE,SWE,Kronoberg,Kronoberg,SE-G,county,,11.7,1459,1459,4,Europe/Stockholm,FALSE,1752916581
Forsheda,Forsheda,,57.1500,13.8167,Sweden,SE,SWE,Jönköping,Jonkoping,SE-F,county,,35.3,1459,1459,4,Europe/Stockholm,FALSE,1752875819
Kaxholmen,Kaxholmen,,57.8667,14.3000,Sweden,SE,SWE,Jönköping,Jonkoping,SE-F,county,,38.8,1458,1458,4,Europe/Stockholm,FALSE,1752441996
Kågeröd,Kagerod,,56.0167,13.1000,Sweden,SE,SWE,Skåne,Skane,SE-M,county,,19.4,1446,1446,4,Europe/Stockholm,FALSE,1752875777
Sollebrunn,Sollebrunn,,58.1167,12.5333,Sweden,SE,SWE,"Västra Götaland","Vastra Gotaland",SE-O,county,,25.6,1440,1440,4,Europe/Stockholm,FALSE,1752165921
Rönnäng,Ronnang,,57.9333,11.5833,Sweden,SE,SWE,"Västra Götaland","Vastra Gotaland",SE-O,county,,199.2,1437,1437,4,Europe/Stockholm,FALSE,1752554164
Vattholma,Vattholma,,60.0167,17.7333,Sweden,SE,SWE,Uppsala,Uppsala,SE-C,county,,34.1,1427,1427,4,Europe/Stockholm,FALSE,1752680458
Landsbro,Landsbro,,57.3667,14.9000,Sweden,SE,SWE,Jönköping,Jonkoping,SE-F,county,,9.8,1426,1426,4,Europe/Stockholm,FALSE,1752482123
Trekanten,Trekanten,,56.7000,16.1167,Sweden,SE,SWE,Kalmar,Kalmar,SE-H,county,,37.5,1422,1422,4,Europe/Stockholm,FALSE,1752244237
Vrigstad,Vrigstad,,57.3500,14.4667,Sweden,SE,SWE,Jönköping,Jonkoping,SE-F,county,,9.9,1421,1421,4,Europe/Stockholm,FALSE,1752213726
Åmotfors,Amotfors,Åmotsfors|Åmot,59.7667,12.3667,Sweden,SE,SWE,Värmland,Varmland,SE-S,county,,20.0,1410,1410,4,Europe/Stockholm,FALSE,1752316321
Morgongåva,Morgongava,,59.9333,16.9500,Sweden,SE,SWE,Uppsala,Uppsala,SE-C,county,,16.9,1409,1409,4,Europe/Stockholm,FALSE,1752000873
Järpen,Jarpen,"Jarpstrommen|Hjerpen|Hjerpen Station",63.3472,13.4611,Sweden,SE,SWE,Jämtland,Jamtland,SE-Z,county,minor,1.7,1408,1408,3,Europe/Stockholm,FALSE,1752895596
Järvsö,Jarvso,Järfsö,61.7167,16.1667,Sweden,SE,SWE,Gävleborg,Gavleborg,SE-X,county,,5.8,1407,1407,4,Europe/Stockholm,FALSE,1752263754
Donsö,Donso,,57.6000,11.8000,Sweden,SE,SWE,"Västra Götaland","Vastra Gotaland",SE-O,county,,168.5,1407,1407,4,Europe/Stockholm,FALSE,1752827861
Stöpen,Stopen,,58.4667,13.8667,Sweden,SE,SWE,"Västra Götaland","Vastra Gotaland",SE-O,county,,39.7,1401,1401,4,Europe/Stockholm,FALSE,1752618825
Grebbestad,Grebbestad,Gräbbestad,58.7000,11.2500,Sweden,SE,SWE,"Västra Götaland","Vastra Gotaland",SE-O,county,,22.3,1401,1401,4,Europe/Stockholm,FALSE,1752459349
Hölö,Holo,,59.0242,17.5392,Sweden,SE,SWE,Södermanland,Sodermanland,SE-D,county,,27.5,1400,1400,4,Europe/Stockholm,FALSE,1752671506
Oskar-Fredriksborg,Oskar-Fredriksborg,"Oscar Fredriksborg",59.4000,18.4333,Sweden,SE,SWE,Stockholm,Stockholm,SE-AB,county,,747.3,1390,1390,3,Europe/Stockholm,FALSE,1752162845
Örsundsbro,Orsundsbro,Orundsbro,59.7333,17.3000,Sweden,SE,SWE,Uppsala,Uppsala,SE-C,county,,20.3,1386,1386,4,Europe/Stockholm,FALSE,1752639511
Fellingsbro,Fellingsbro,,59.4333,15.6000,Sweden,SE,SWE,Örebro,Orebro,SE-T,county,,9.2,1384,1384,4,Europe/Stockholm,FALSE,1752905382
Glimåkra,Glimakra,,56.3000,14.1333,Sweden,SE,SWE,Skåne,Skane,SE-M,county,,13.5,1383,1383,4,Europe/Stockholm,FALSE,1752173045
Kode,Kode,,57.9333,11.8500,Sweden,SE,SWE,"Västra Götaland","Vastra Gotaland",SE-O,county,,81.0,1380,1380,4,Europe/Stockholm,FALSE,1752215578
Önnestad,Onnestad,,56.0500,14.0167,Sweden,SE,SWE,Skåne,Skane,SE-M,county,,47.3,1378,1378,4,Europe/Stockholm,FALSE,1752606432
Odensbacken,Odensbacken,,59.1667,15.5167,Sweden,SE,SWE,Örebro,Orebro,SE-T,county,,27.5,1374,1374,4,Europe/Stockholm,FALSE,1752741129
Klagshamn,Klagshamn,,55.5167,12.9167,Sweden,SE,SWE,Skåne,Skane,SE-M,county,,292.5,1367,1367,3,Europe/Stockholm,FALSE,1752699430
Sibbhult,Sibbhult,,56.2667,14.2000,Sweden,SE,SWE,Skåne,Skane,SE-M,county,,29.0,1364,1364,4,Europe/Stockholm,FALSE,1752761513
Norrfjärden,Norrfjarden,,65.4167,21.4500,Sweden,SE,SWE,Norrbotten,Norrbotten,SE-BD,county,,11.4,1362,1362,4,Europe/Stockholm,FALSE,1752625816
Rydsgård,Rydsgard,,55.4667,13.6000,Sweden,SE,SWE,Kalmar,Kalmar,SE-H,county,,38.0,1361,1361,4,Europe/Stockholm,FALSE,1752037262
Sätila,Satila,,57.5500,12.4333,Sweden,SE,SWE,"Västra Götaland","Vastra Gotaland",SE-O,county,,27.8,1351,1351,3,Europe/Stockholm,FALSE,1752928681
Sätofta,Satofta,,55.9167,13.5500,Sweden,SE,SWE,Skåne,Skane,SE-M,county,,61.9,1348,1348,4,Europe/Stockholm,FALSE,1752549785
Vintrosa,Vintrosa,,59.2500,14.9500,Sweden,SE,SWE,Örebro,Orebro,SE-T,county,,33.0,1343,1343,4,Europe/Stockholm,FALSE,1752539539
Gemla,Gemla,,56.8667,14.6333,Sweden,SE,SWE,Kronoberg,Kronoberg,SE-G,county,,46.8,1342,1342,4,Europe/Stockholm,FALSE,1752007544
Gantofta,Gantofta,Ganntofta,55.9833,12.8000,Sweden,SE,SWE,Skåne,Skane,SE-M,county,,248.0,1338,1338,3,Europe/Stockholm,FALSE,1752308131
Smögen,Smogen,,58.3611,11.2319,Sweden,SE,SWE,"Västra Götaland","Vastra Gotaland",SE-O,county,,74.5,1329,1329,4,Europe/Stockholm,FALSE,1752019858
Färila,Farila,,61.8000,15.8500,Sweden,SE,SWE,Gävleborg,Gavleborg,SE-X,county,,3.0,1328,1328,4,Europe/Stockholm,FALSE,1752549179
Kvänum,Kvanum,,58.3000,13.1833,Sweden,SE,SWE,"Västra Götaland","Vastra Gotaland",SE-O,county,,15.6,1320,1320,3,Europe/Stockholm,FALSE,1752028431
Marstrand,Marstrand,,57.8833,11.5833,Sweden,SE,SWE,"Västra Götaland","Vastra Gotaland",SE-O,county,,169.1,1319,1319,4,Europe/Stockholm,FALSE,1752637951
Höviksnäs,Hoviksnas,Hövik,58.0333,11.7667,Sweden,SE,SWE,"Västra Götaland","Vastra Gotaland",SE-O,county,,93.8,1309,1309,4,Europe/Stockholm,FALSE,1752513845
Hestra,Hestra,Hostro,57.4500,13.5833,Sweden,SE,SWE,Jönköping,Jonkoping,SE-F,county,,8.4,1306,1306,4,Europe/Stockholm,TRUE,1752000232
Styrsö,Styrso,,57.6167,11.7833,Sweden,SE,SWE,"Västra Götaland","Vastra Gotaland",SE-O,county,,168.5,1304,1304,4,Europe/Stockholm,FALSE,1752649134
Degeberga,Degeberga,,55.8333,14.0833,Sweden,SE,SWE,Skåne,Skane,SE-M,county,,20.5,1291,1291,4,Europe/Stockholm,FALSE,1752005932
Hova,Hova,Hofva,58.8500,14.2167,Sweden,SE,SWE,"Västra Götaland","Vastra Gotaland",SE-O,county,minor,12.2,1288,1288,3,Europe/Stockholm,FALSE,1752933717
Reftele,Reftele,,57.1833,13.5833,Sweden,SE,SWE,Jönköping,Jonkoping,SE-F,county,,12.9,1282,1282,4,Europe/Stockholm,FALSE,1752216448
Smygehamn,Smygehamn,,55.3451,13.3894,Sweden,SE,SWE,Skåne,Skane,SE-M,county,,61.5,1278,1278,4,Europe/Stockholm,FALSE,1752772204
Berg,Berg,,58.4897,15.5306,Sweden,SE,SWE,Östergötland,Ostergotland,SE-E,county,,42.9,1278,1278,4,Europe/Stockholm,FALSE,1752142783
Djurås,Djuras,,60.5500,15.1333,Sweden,SE,SWE,Dalarna,Dalarna,SE-W,county,,17.5,1278,1278,4,Europe/Stockholm,FALSE,1752345719
Sorsele,Sorsele,Suorssá,65.5333,17.5333,Sweden,SE,SWE,Västerbotten,Vasterbotten,SE-AC,county,minor,0.3,1277,1277,3,Europe/Stockholm,FALSE,1752288020
Timmernabben,Timmernabben,,56.9667,16.4333,Sweden,SE,SWE,Kalmar,Kalmar,SE-H,county,,28.5,1276,1276,4,Europe/Stockholm,FALSE,1752163367
Ekeby,Ekeby,Ekeby-Almby,59.2583,15.3333,Sweden,SE,SWE,Örebro,Orebro,SE-T,county,,877.0,1271,1271,3,Europe/Stockholm,FALSE,1752089739
Ärla,Arla,,59.2833,16.6667,Sweden,SE,SWE,Södermanland,Sodermanland,SE-D,county,,20.5,1270,1270,4,Europe/Stockholm,FALSE,1752990802
Siljansnäs,Siljansnas,,60.7833,14.8500,Sweden,SE,SWE,Dalarna,Dalarna,SE-W,county,,8.4,1268,1268,4,Europe/Stockholm,FALSE,1752542107
Lödöse,Lodose,,58.0333,12.1583,Sweden,SE,SWE,"Västra Götaland","Vastra Gotaland",SE-O,county,,18.9,1266,1266,4,Europe/Stockholm,FALSE,1752575478
Bergsjö,Bergsjo,,61.9833,17.0667,Sweden,SE,SWE,Gävleborg,Gavleborg,SE-X,county,minor,7.5,1266,1266,3,Europe/Stockholm,FALSE,1752548638
"Norra Åsum","Norra Asum",,55.9833,14.1500,Sweden,SE,SWE,Skåne,Skane,SE-M,county,,175.7,1264,1264,4,Europe/Stockholm,FALSE,1752964000
Sturkö,Sturko,,56.1000,15.6667,Sweden,SE,SWE,Blekinge,Blekinge,SE-K,county,,62.2,1264,1264,4,Europe/Stockholm,FALSE,1752463112
Horred,Horred,,57.3500,12.4667,Sweden,SE,SWE,"Västra Götaland","Vastra Gotaland",SE-O,county,,39.7,1261,1261,3,Europe/Stockholm,FALSE,1752284729
Skivarp,Skivarp,,55.4233,13.5700,Sweden,SE,SWE,Skåne,Skane,SE-M,county,,55.3,1257,1257,4,Europe/Stockholm,FALSE,1752990990
Fränsta,Fransta,,62.5000,16.1500,Sweden,SE,SWE,Västernorrland,Vasternorrland,SE-Y,county,,3.3,1256,1256,4,Europe/Stockholm,FALSE,1752111154
Bor,Bor,,57.1167,14.1667,Sweden,SE,SWE,Jönköping,Jonkoping,SE-F,county,,21.3,1256,1256,4,Europe/Stockholm,FALSE,1752995930
Ankarsrum,Ankarsrum,,57.6833,16.3167,Sweden,SE,SWE,Kalmar,Kalmar,SE-H,county,,10.8,1254,1254,4,Europe/Stockholm,FALSE,1752348369
Mjällby,Mjallby,,56.0500,14.6833,Sweden,SE,SWE,Blekinge,Blekinge,SE-K,county,,60.3,1254,1254,4,Europe/Stockholm,FALSE,1752327118
Svärdsjö,Svardsjo,,60.7500,15.9167,Sweden,SE,SWE,Dalarna,Dalarna,SE-W,county,,5.0,1251,1251,4,Europe/Stockholm,FALSE,1752876830
Hanaskog,Hanaskog,,56.1500,14.1167,Sweden,SE,SWE,Skåne,Skane,SE-M,county,,43.2,1251,1251,4,Europe/Stockholm,FALSE,1752762162
Töcksfors,Tocksfors,,59.5081,11.8442,Sweden,SE,SWE,Värmland,Varmland,SE-S,county,,14.6,1247,1247,4,Europe/Stockholm,FALSE,1752497651
Diseröd,Diserod,,57.9167,12.0167,Sweden,SE,SWE,"Västra Götaland","Vastra Gotaland",SE-O,county,,45.6,1241,1241,4,Europe/Stockholm,FALSE,1752309338
Roknäs,Roknas,,65.3500,21.2000,Sweden,SE,SWE,Norrbotten,Norrbotten,SE-BD,county,,12.5,1238,1238,4,Europe/Stockholm,FALSE,1752090325
Köpmanholmen,Kopmanholmen,Köpmansholmen,63.1667,18.5667,Sweden,SE,SWE,Västernorrland,Vasternorrland,SE-Y,county,,14.9,1237,1237,4,Europe/Stockholm,FALSE,1752000158
Täfteå,Taftea,Tefteå,63.8333,20.4833,Sweden,SE,SWE,Västerbotten,Vasterbotten,SE-AC,county,,8.9,1231,1231,4,Europe/Stockholm,FALSE,1752054852
Myggenäs,Myggenas,,58.0500,11.7333,Sweden,SE,SWE,"Västra Götaland","Vastra Gotaland",SE-O,county,,93.8,1230,1230,4,Europe/Stockholm,FALSE,1752507877
Tärnsjö,Tarnsjo,,60.1500,16.9333,Sweden,SE,SWE,Uppsala,Uppsala,SE-C,county,,7.0,1221,1221,4,Europe/Stockholm,FALSE,1752359864
Stångby,Stangby,,55.7667,13.1667,Sweden,SE,SWE,Skåne,Skane,SE-M,county,,61.7,1218,1218,4,Europe/Stockholm,FALSE,1752618403
Ås,As,,63.2500,14.5667,Sweden,SE,SWE,Jämtland,Jamtland,SE-Z,county,,30.5,1218,1218,4,Europe/Stockholm,FALSE,1752962211
Blentarp,Blentarp,,55.5833,13.6000,Sweden,SE,SWE,Skåne,Skane,SE-M,county,,26.5,1216,1216,4,Europe/Stockholm,FALSE,1752804676
Klavreström,Klavrestrom,,57.1333,15.1667,Sweden,SE,SWE,Kronoberg,Kronoberg,SE-G,county,,20.9,1215,1215,4,Europe/Stockholm,FALSE,1752252735
Överum,Overum,,57.9833,16.3167,Sweden,SE,SWE,Kalmar,Kalmar,SE-H,county,,18.6,1203,1203,4,Europe/Stockholm,FALSE,1752725190
Dalarö,Dalaro,,59.1333,18.4000,Sweden,SE,SWE,Stockholm,Stockholm,SE-AB,county,,15.7,1199,1199,4,Europe/Stockholm,FALSE,1752771525
Veinge,Veinge,,56.5500,13.0667,Sweden,SE,SWE,Halland,Halland,SE-N,county,,15.3,1190,1190,4,Europe/Stockholm,FALSE,1752546645
Steninge,Steninge,,56.7833,12.6667,Sweden,SE,SWE,Halland,Halland,SE-N,county,,61.1,1186,1186,4,Europe/Stockholm,FALSE,1752188631
Axvall,Axvall,,58.3833,13.5667,Sweden,SE,SWE,"Västra Götaland","Vastra Gotaland",SE-O,county,,23.4,1186,1186,4,Europe/Stockholm,FALSE,1752959435
Bredbyn,Bredbyn,,63.4500,18.1000,Sweden,SE,SWE,Västernorrland,Vasternorrland,SE-Y,county,,1.5,1186,1186,4,Europe/Stockholm,TRUE,1752796746
Torup,Torup,,56.9578,13.0809,Sweden,SE,SWE,Halland,Halland,SE-N,county,,9.8,1183,1183,4,Europe/Stockholm,FALSE,1752151879
"Södra Vi","Sodra Vi",,57.7500,15.8000,Sweden,SE,SWE,Kalmar,Kalmar,SE-H,county,,8.8,1182,1182,4,Europe/Stockholm,FALSE,1752914198
Marieberg,Marieberg,,59.2256,15.1592,Sweden,SE,SWE,Örebro,Orebro,SE-T,county,,581.0,1181,1181,3,Europe/Stockholm,FALSE,1752509247
Gusum,Gusum,,58.2667,16.4833,Sweden,SE,SWE,Östergötland,Ostergotland,SE-E,county,,9.9,1175,1175,4,Europe/Stockholm,FALSE,1752349141
Vikarbyn,Vikarbyn,,60.9092,15.0208,Sweden,SE,SWE,Dalarna,Dalarna,SE-W,county,,10.1,1171,1171,4,Europe/Stockholm,FALSE,1752668840
Åsbro,Asbro,,59.0000,15.0500,Sweden,SE,SWE,Örebro,Orebro,SE-T,county,,10.3,1164,1164,4,Europe/Stockholm,FALSE,1752414221
Barkarö,Barkaro,Bakaroby,59.5500,16.5000,Sweden,SE,SWE,Västmanland,Vastmanland,SE-U,county,,104.8,1163,1163,4,Europe/Stockholm,FALSE,1752002798
Karlholmsbruk,Karlholmsbruk,Karlholm,60.5167,17.6167,Sweden,SE,SWE,Uppsala,Uppsala,SE-C,county,,10.6,1150,1150,4,Europe/Stockholm,FALSE,1752154379
Billingsfors,Billingsfors,,58.9833,12.2500,Sweden,SE,SWE,"Västra Götaland","Vastra Gotaland",SE-O,county,,14.6,1134,1134,4,Europe/Stockholm,FALSE,1752548822
Köpingebro,Kopingebro,,55.4667,13.9333,Sweden,SE,SWE,Skåne,Skane,SE-M,county,,59.9,1134,1134,4,Europe/Stockholm,FALSE,1752961406
Sköllersta,Skollersta,,59.1333,15.3167,Sweden,SE,SWE,Örebro,Orebro,SE-T,county,,12.5,1131,1131,4,Europe/Stockholm,FALSE,1752072858
Löberöd,Loberod,,55.7833,13.5000,Sweden,SE,SWE,Skåne,Skane,SE-M,county,,45.1,1127,1127,4,Europe/Stockholm,FALSE,1752503024
Kilafors,Kilafors,,61.2333,16.5667,Sweden,SE,SWE,Gävleborg,Gavleborg,SE-X,county,,9.1,1126,1126,4,Europe/Stockholm,FALSE,1752561832
Stehag,Stehag,,55.9000,13.3833,Sweden,SE,SWE,Skåne,Skane,SE-M,county,,31.8,1122,1122,4,Europe/Stockholm,FALSE,1752594786
Näsum,Nasum,,56.1667,14.4833,Sweden,SE,SWE,Skåne,Skane,SE-M,county,,22.1,1117,1117,4,Europe/Stockholm,FALSE,1752370489
Horndal,Horndal,"Horndals Bruk",60.3000,16.4167,Sweden,SE,SWE,Dalarna,Dalarna,SE-W,county,,7.8,1114,1114,4,Europe/Stockholm,FALSE,1752000325
Länghem,Langhem,,57.6000,13.2333,Sweden,SE,SWE,"Västra Götaland","Vastra Gotaland",SE-O,county,,15.0,1111,1111,3,Europe/Stockholm,FALSE,1752158875
Röstånga,Rostanga,,56.0000,13.2833,Sweden,SE,SWE,Skåne,Skane,SE-M,county,,19.4,1111,1111,4,Europe/Stockholm,FALSE,1752482057
Skegrie,Skegrie,Skregie,55.4000,13.0667,Sweden,SE,SWE,Skåne,Skane,SE-M,county,,63.1,1106,1106,4,Europe/Stockholm,FALSE,1752406368
Hököpinge,Hokopinge,,55.4833,13.0167,Sweden,SE,SWE,Skåne,Skane,SE-M,county,,154.6,1105,1105,4,Europe/Stockholm,FALSE,1752892582
Villie,Villie,,55.4789,13.5978,Sweden,SE,SWE,Skåne,Skane,SE-M,county,,38.1,1101,1101,4,Europe/Stockholm,TRUE,1752211386
Björneborg,Bjorneborg,"Björneborgs bruk|Björneborgs",59.2500,14.2500,Sweden,SE,SWE,Värmland,Varmland,SE-S,county,,47.9,1099,1099,4,Europe/Stockholm,FALSE,1752950317
Töre,Tore,,65.9167,22.6500,Sweden,SE,SWE,Norrbotten,Norrbotten,SE-BD,county,,2.2,1099,1099,4,Europe/Stockholm,FALSE,1752777111
Älmsta,Almsta,Elmsta,59.9667,18.8000,Sweden,SE,SWE,Stockholm,Stockholm,SE-AB,county,,22.0,1097,1097,4,Europe/Stockholm,FALSE,1752473044
Torekov,Torekov,,56.4167,12.6333,Sweden,SE,SWE,Skåne,Skane,SE-M,county,,105.5,1091,1091,3,Europe/Stockholm,FALSE,1752470182
Knäred,Knared,,56.5167,13.3167,Sweden,SE,SWE,Halland,Halland,SE-N,county,,8.9,1088,1088,4,Europe/Stockholm,FALSE,1752911061
Strövelstorp,Strovelstorp,,56.1500,12.8167,Sweden,SE,SWE,Skåne,Skane,SE-M,county,,36.8,1087,1087,4,Europe/Stockholm,FALSE,1752267843
Hortlax,Hortlax,,65.2833,21.3833,Sweden,SE,SWE,Norrbotten,Norrbotten,SE-BD,county,,18.5,1085,1085,3,Europe/Stockholm,FALSE,1752183340
Mölltorp,Molltorp,,58.5000,14.4000,Sweden,SE,SWE,"Västra Götaland","Vastra Gotaland",SE-O,county,,20.3,1084,1084,3,Europe/Stockholm,FALSE,1752607415
Påskallavik,Paskallavik,,57.1667,16.2833,Sweden,SE,SWE,Kalmar,Kalmar,SE-H,county,,13.1,1083,1083,4,Europe/Stockholm,FALSE,1752598959
Svalsta,Svalsta,,58.7333,16.8667,Sweden,SE,SWE,Södermanland,Sodermanland,SE-D,county,,17.7,1078,1078,4,Europe/Stockholm,FALSE,1752238780
Sjörröd,Sjorrod,,56.2833,13.9167,Sweden,SE,SWE,Skåne,Skane,SE-M,county,,36.4,1077,1077,4,Europe/Stockholm,FALSE,1752487190
Ekshärad,Eksharad,,60.1667,13.5000,Sweden,SE,SWE,Värmland,Varmland,SE-S,county,,3.5,1074,1074,4,Europe/Stockholm,FALSE,1752885540
Vinninga,Vinninga,,58.4500,13.2667,Sweden,SE,SWE,"Västra Götaland","Vastra Gotaland",SE-O,county,,35.8,1070,1070,3,Europe/Stockholm,FALSE,1752128087
Skottsund,Skottsund,,62.2833,17.3833,Sweden,SE,SWE,Västernorrland,Vasternorrland,SE-Y,county,,43.5,1069,1069,4,Europe/Stockholm,FALSE,1752515331
Ornäs,Ornas,,60.5167,15.5333,Sweden,SE,SWE,Dalarna,Dalarna,SE-W,county,,40.6,1068,1068,4,Europe/Stockholm,FALSE,1752943544
Skrea,Skrea,,56.8647,12.5658,Sweden,SE,SWE,Halland,Halland,SE-N,county,,118.7,1064,1064,4,Europe/Stockholm,FALSE,1752158589
Lesjöfors,Lesjofors,,59.9833,14.1833,Sweden,SE,SWE,Värmland,Varmland,SE-S,county,,6.1,1062,1062,4,Europe/Stockholm,FALSE,1752258817
Rolfs,Rolfs,,65.8500,23.1167,Sweden,SE,SWE,Norrbotten,Norrbotten,SE-BD,county,,14.4,1061,1061,4,Europe/Stockholm,FALSE,1752490698
"Västra Bodarne","Vastra Bodarne",Västerbodarna,57.8833,12.4833,Sweden,SE,SWE,"Västra Götaland","Vastra Gotaland",SE-O,county,,105.3,1059,1059,4,Europe/Stockholm,FALSE,1752679361
Älgöö,Algoo,Älgö,59.2653,18.3431,Sweden,SE,SWE,Stockholm,Stockholm,SE-AB,county,,983.7,1053,1053,3,Europe/Stockholm,FALSE,1752656683
Hammarstrand,Hammarstrand,,63.1000,16.3500,Sweden,SE,SWE,Jämtland,Jamtland,SE-Z,county,minor,2.7,1052,1052,3,Europe/Stockholm,FALSE,1752903270
Mölnbo,Molnbo,,59.1833,17.6333,Sweden,SE,SWE,Stockholm,Stockholm,SE-AB,county,,22.8,1052,1052,4,Europe/Stockholm,FALSE,1752513549
Tormestorp,Tormestorp,Tormastorp,56.1167,13.7333,Sweden,SE,SWE,Skåne,Skane,SE-M,county,,32.1,1050,1050,4,Europe/Stockholm,FALSE,1752817626
Lövstalöt,Lovstalot,,59.9500,17.5833,Sweden,SE,SWE,Uppsala,Uppsala,SE-C,county,,29.4,1046,1046,4,Europe/Stockholm,FALSE,1752481784
Ludvigsborg,Ludvigsborg,,55.9000,13.6000,Sweden,SE,SWE,Skåne,Skane,SE-M,county,,52.5,1041,1041,4,Europe/Stockholm,FALSE,1752468735
Lit,Lit,,63.3167,14.8167,Sweden,SE,SWE,Jämtland,Jamtland,SE-Z,county,,3.2,1040,1040,4,Europe/Stockholm,FALSE,1752074428
Slottsbron,Slottsbron,Solttsbron,59.3333,13.1000,Sweden,SE,SWE,Värmland,Varmland,SE-S,county,,16.0,1039,1039,4,Europe/Stockholm,FALSE,1752438068
Kungsgården,Kungsgarden,,60.6000,16.6167,Sweden,SE,SWE,Gävleborg,Gavleborg,SE-X,county,,22.6,1033,1033,4,Europe/Stockholm,FALSE,1752683881
Malmbäck,Malmback,,57.5833,14.4667,Sweden,SE,SWE,Jönköping,Jonkoping,SE-F,county,,8.8,1031,1031,4,Europe/Stockholm,FALSE,1752462797
Hedesunda,Hedesunda,,60.4000,17.0000,Sweden,SE,SWE,Gävleborg,Gavleborg,SE-X,county,,6.8,1028,1028,4,Europe/Stockholm,FALSE,1752004806
Gnarp,Gnarp,,62.0667,17.2833,Sweden,SE,SWE,Gävleborg,Gavleborg,SE-X,county,,6.6,1026,1026,4,Europe/Stockholm,FALSE,1752445451
Färlöv,Farlov,,56.0667,14.0833,Sweden,SE,SWE,Skåne,Skane,SE-M,county,,47.3,1026,1026,4,Europe/Stockholm,FALSE,1752556119
Nolvik,Nolvik,Nohlvik,57.7833,11.8333,Sweden,SE,SWE,"Västra Götaland","Vastra Gotaland",SE-O,county,,346.0,1025,1025,3,Europe/Stockholm,FALSE,1752765073
Rydboholm,Rydboholm,,57.6500,12.8833,Sweden,SE,SWE,"Västra Götaland","Vastra Gotaland",SE-O,county,,52.3,1023,1023,4,Europe/Stockholm,FALSE,1752832771
Edsvalla,Edsvalla,,59.4333,13.1833,Sweden,SE,SWE,Värmland,Varmland,SE-S,county,,33.8,1016,1016,4,Europe/Stockholm,FALSE,1752177183
Enhagen-Ekbacken,Enhagen-Ekbacken,,59.5667,16.5333,Sweden,SE,SWE,Västmanland,Vastmanland,SE-U,county,,104.8,1012,1012,4,Europe/Stockholm,FALSE,1752062760
Årsunda,Arsunda,,60.5333,16.7333,Sweden,SE,SWE,Gävleborg,Gavleborg,SE-X,county,,7.0,1008,1008,4,Europe/Stockholm,FALSE,1752336655
Dingtuna,Dingtuna,,59.5667,16.3667,Sweden,SE,SWE,Västmanland,Vastmanland,SE-U,county,,19.7,1005,1005,4,Europe/Stockholm,FALSE,1752251016
Svenstavik,Svenstavik,,62.7667,14.4500,Sweden,SE,SWE,Jämtland,Jamtland,SE-Z,county,minor,3.5,1004,1004,3,Europe/Stockholm,FALSE,1752623668
Hummelsta,Hummelsta,,59.6256,16.9419,Sweden,SE,SWE,Uppsala,Uppsala,SE-C,county,,26.2,1002,1002,4,Europe/Stockholm,TRUE,1752121754
Gärsnäs,Garsnas,,55.5500,14.1833,Sweden,SE,SWE,Skåne,Skane,SE-M,county,,32.5,1000,1000,4,Europe/Stockholm,FALSE,1752942515
Harbo,Harbo,Harbonäs,60.1000,17.2000,Sweden,SE,SWE,Uppsala,Uppsala,SE-C,county,,10.6,1000,1000,4,Europe/Stockholm,FALSE,1752649996
Ellös,Ellos,,58.1833,11.4667,Sweden,SE,SWE,"Västra Götaland","Vastra Gotaland",SE-O,county,,32.4,998,998,4,Europe/Stockholm,FALSE,1752695323
Flyinge,Flyinge,,55.7500,13.3500,Sweden,SE,SWE,Skåne,Skane,SE-M,county,,155.5,994,994,4,Europe/Stockholm,FALSE,1752494011
Viby,Viby,"Skånes Viby",56.0000,14.2333,Sweden,SE,SWE,Skåne,Skane,SE-M,county,,71.8,991,991,4,Europe/Stockholm,FALSE,1752110678
Färnäs,Farnas,,61.0006,14.6267,Sweden,SE,SWE,Dalarna,Dalarna,SE-W,county,,7.0,988,988,4,Europe/Stockholm,FALSE,1752927446
Billeberga,Billeberga,,55.8833,13.0000,Sweden,SE,SWE,Skåne,Skane,SE-M,county,,49.7,987,987,4,Europe/Stockholm,FALSE,1752953668
Vedum,Vedum,,58.1667,12.9833,Sweden,SE,SWE,"Västra Götaland","Vastra Gotaland",SE-O,county,,18.3,986,986,3,Europe/Stockholm,FALSE,1752080404
Överkalix,Overkalix,,66.3500,22.8833,Sweden,SE,SWE,Norrbotten,Norrbotten,SE-BD,county,minor,1.1,975,975,3,Europe/Stockholm,FALSE,1752281329
Hjärnarp,Hjarnarp,,56.3167,12.9167,Sweden,SE,SWE,Skåne,Skane,SE-M,county,,42.2,975,975,4,Europe/Stockholm,FALSE,1752647604
Hammerdal,Hammerdal,,63.5833,15.3500,Sweden,SE,SWE,Jämtland,Jamtland,SE-Z,county,,1.5,974,974,4,Europe/Stockholm,FALSE,1752896559
Kvibille,Kvibille,,56.7833,12.8333,Sweden,SE,SWE,Halland,Halland,SE-N,county,,13.9,974,974,4,Europe/Stockholm,FALSE,1752353910
Saxtorpsskogen,Saxtorpsskogen,Svanabacken,55.8333,12.9500,Sweden,SE,SWE,Skåne,Skane,SE-M,county,,131.6,973,973,4,Europe/Stockholm,FALSE,1752706019
Storebro,Storebro,,57.5833,15.8500,Sweden,SE,SWE,Kalmar,Kalmar,SE-H,county,,52.9,972,972,4,Europe/Stockholm,FALSE,1752897042
Grillby,Grillby,,59.6167,17.2500,Sweden,SE,SWE,Uppsala,Uppsala,SE-C,county,,30.0,972,972,4,Europe/Stockholm,FALSE,1752329767
