city,city_ascii,city_alt,lat,lng,country,iso2,iso3,admin_name,admin_name_ascii,admin_code,admin_type,capital,density,population,population_proper,ranking,timezone,same_name,id
Port-Vila,Port-Vila,"Port Fila|Vila|Fila",-17.7333,168.3167,Vanuatu,VU,VUT,Shefa,Shefa,VU-SEE,province,primary,2077.7,49034,49034,1,Pacific/Efate,FALSE,1548805075
Luganville,Luganville,"Luganville Bay|Louganville|Santo",-15.5333,167.1667,Vanuatu,VU,VUT,Sanma,Sanma,VU-SAM,province,admin,2170.9,18062,18062,2,Pacific/Efate,FALSE,1548569362
Norsup,Norsup,Norsoup|Norsuup,-16.0667,167.3828,Vanuatu,VU,VUT,Malampa,Malampa,VU-MAP,province,,36.1,2998,2998,3,Pacific/Efate,FALSE,1548987197
Pango,Pango,Ép̄ang,-17.7833,168.2833,Vanuatu,VU,VUT,Shefa,Shefa,VU-SEE,province,,705.3,2485,2485,3,Pacific/Efate,FALSE,1548581895
Lenakel,Lenakel,Lénakel|Lénake,-19.5333,169.2667,Vanuatu,VU,VUT,Tafea,Tafea,VU-TAE,province,,328.5,1507,1507,3,Pacific/Efate,FALSE,1548660656
Litzlitz,Litzlitz,,-16.1125,167.4386,Vanuatu,VU,VUT,Malampa,Malampa,VU-MAP,province,,39.5,1391,1391,4,Pacific/Efate,FALSE,1548328915
Port-Olry,Port-Olry,,-15.0494,167.0511,Vanuatu,VU,VUT,Sanma,Sanma,VU-SAM,province,,166.0,1300,1300,4,Pacific/Efate,FALSE,1548953803
Isangel,Isangel,,-19.5300,169.2800,Vanuatu,VU,VUT,Tafea,Tafea,VU-TAE,province,admin,349.3,1200,1200,2,Pacific/Efate,FALSE,1548941443
"Hog Harbour","Hog Harbour",,-15.1333,167.1000,Vanuatu,VU,VUT,Sanma,Sanma,VU-SAM,province,,22.1,1000,1000,4,Pacific/Efate,FALSE,1548434784
Lakatoro,Lakatoro,,-16.1069,167.4208,Vanuatu,VU,VUT,Malampa,Malampa,VU-MAP,province,admin,37.6,705,705,2,Pacific/Efate,FALSE,1548761183
Fanla,Fanla,,-16.1333,168.1333,Vanuatu,VU,VUT,Malampa,Malampa,VU-MAP,province,,299.8,250,250,3,Pacific/Efate,FALSE,1548854388
Port-Vato,Port-Vato,,-16.3275,168.0442,Vanuatu,VU,VUT,Malampa,Malampa,VU-MAP,province,,10.3,250,250,4,Pacific/Efate,FALSE,1548173676
Boutmas,Boutmas,,-15.3675,167.0017,Vanuatu,VU,VUT,Sanma,Sanma,VU-SAM,province,,5.7,100,100,5,Pacific/Efate,FALSE,1548226373
Emiotouan,Emiotouan,,-16.2489,167.9514,Vanuatu,VU,VUT,Malampa,Malampa,VU-MAP,province,,26.5,70,70,4,Pacific/Efate,FALSE,1548661646
Imanam,Imanam,,-19.5366,169.2946,Vanuatu,VU,VUT,Tafea,Tafea,VU-TAE,province,,118.7,,,4,Pacific/Efate,FALSE,1548000240
Namaous,Namaous,,-15.5000,166.8000,Vanuatu,VU,VUT,Sanma,Sanma,VU-SAM,province,,4.4,,,5,Pacific/Efate,FALSE,1548212067
Wounapéras,Wounaperas,,-14.9500,166.7500,Vanuatu,VU,VUT,Sanma,Sanma,VU-SAM,province,,5.7,,,5,Pacific/Efate,FALSE,1548160361
Ounèvsèm,Ounevsem,,-18.9000,169.0333,Vanuatu,VU,VUT,Tafea,Tafea,VU-TAE,province,,2.3,,,5,Pacific/Efate,FALSE,1548980364
Tanbok,Tanbok,,-15.6667,168.1833,Vanuatu,VU,VUT,Penama,Penama,VU-PAM,province,,150.9,,,4,Pacific/Efate,FALSE,1548914891
Lésarmalras,Lesarmalras,,-15.9000,167.2000,Vanuatu,VU,VUT,Malampa,Malampa,VU-MAP,province,,10.1,,,4,Pacific/Efate,FALSE,1548728894
Amio,Amio,,-13.7000,167.6333,Vanuatu,VU,VUT,Torba,Torba,VU-TOB,province,,107.8,,,4,Pacific/Efate,FALSE,1548805773
Saikariaeken,Saikariaeken,,-19.5364,169.2811,Vanuatu,VU,VUT,Tafea,Tafea,VU-TAE,province,,276.9,,,3,Pacific/Efate,FALSE,1548000294
Baagwergwèr,Baagwergwer,,-15.3167,167.8000,Vanuatu,VU,VUT,Penama,Penama,VU-PAM,province,,19.5,,,4,Pacific/Efate,FALSE,1548330250
Lesereplag,Lesereplag,Léar|Léséréplag,-13.5437,167.3408,Vanuatu,VU,VUT,Torba,Torba,VU-TOB,province,,12.4,,,4,Pacific/Efate,FALSE,1548608064
Wilit,Wilit,,-16.1333,168.1833,Vanuatu,VU,VUT,Malampa,Malampa,VU-MAP,province,,30.0,,,4,Pacific/Efate,FALSE,1548631946
Vanis,Vanis,,-15.7000,168.1500,Vanuatu,VU,VUT,Penama,Penama,VU-PAM,province,,66.4,,,4,Pacific/Efate,FALSE,1548560149
Itakoma,Itakoma,,-16.9000,168.5833,Vanuatu,VU,VUT,Shefa,Shefa,VU-SEE,province,,98.6,,,4,Pacific/Efate,FALSE,1548023919
Epule,Epule,,-17.5722,168.4583,Vanuatu,VU,VUT,Shefa,Shefa,VU-SEE,province,,32.5,,,4,Pacific/Efate,FALSE,1548848113
Navaras,Navaras,,-15.3500,166.9167,Vanuatu,VU,VUT,Sanma,Sanma,VU-SAM,province,,7.9,,,5,Pacific/Efate,FALSE,1548216387
Tasiriki,Tasiriki,Tassériki,-15.6000,166.7667,Vanuatu,VU,VUT,Sanma,Sanma,VU-SAM,province,,24.2,,,4,Pacific/Efate,FALSE,1548446053
Lérourouk,Lerourouk,,-15.6500,168.1167,Vanuatu,VU,VUT,Penama,Penama,VU-PAM,province,,60.9,,,4,Pacific/Efate,FALSE,1548569263
Imekal,Imekal,,-19.5525,169.3333,Vanuatu,VU,VUT,Tafea,Tafea,VU-TAE,province,,139.1,,,4,Pacific/Efate,FALSE,1548000148
Pangona,Pangona,,-17.7500,168.1833,Vanuatu,VU,VUT,Shefa,Shefa,VU-SEE,province,,10.7,,,4,Pacific/Efate,FALSE,1548698368
Potnaroumpouo,Potnaroumpouo,,-18.9333,169.1167,Vanuatu,VU,VUT,Tafea,Tafea,VU-TAE,province,,3.6,,,5,Pacific/Efate,FALSE,1548991509
Lamanuo,Lamanuo,,-19.4710,169.3429,Vanuatu,VU,VUT,Tafea,Tafea,VU-TAE,province,,64.6,,,4,Pacific/Efate,FALSE,1548000434
Yakounétikaoulil,Yakounetikaoulil,,-19.5167,169.3167,Vanuatu,VU,VUT,Tafea,Tafea,VU-TAE,province,,149.6,,,4,Pacific/Efate,FALSE,1548734482
Lowanuapil,Lowanuapil,,-19.4741,169.3139,Vanuatu,VU,VUT,Tafea,Tafea,VU-TAE,province,,93.5,,,4,Pacific/Efate,FALSE,1548000530
Slétassimal,Sletassimal,,-16.0667,167.4000,Vanuatu,VU,VUT,Malampa,Malampa,VU-MAP,province,,353.4,,,3,Pacific/Efate,FALSE,1548655197
Wouréwérèp,Wourewerep,,-15.7167,168.1333,Vanuatu,VU,VUT,Penama,Penama,VU-PAM,province,,47.1,,,4,Pacific/Efate,FALSE,1548570095
Bakakara,Bakakara,Pangakara,-15.3167,166.8333,Vanuatu,VU,VUT,Sanma,Sanma,VU-SAM,province,,11.1,,,4,Pacific/Efate,FALSE,1548562551
Kérémbitia,Kerembitia,Crépéta,-13.9167,167.4833,Vanuatu,VU,VUT,Torba,Torba,VU-TOB,province,,5.2,,,5,Pacific/Efate,FALSE,1548427348
Avira,Avira,Vir|Avire|Ver|Aver,-14.2000,167.5667,Vanuatu,VU,VUT,Torba,Torba,VU-TOB,province,,7.2,,,4,Pacific/Efate,FALSE,1548409060
Isangel,Isangel,,-19.5565,169.3100,Vanuatu,VU,VUT,Tafea,Tafea,VU-TAE,province,,49.8,,,4,Pacific/Efate,TRUE,1548000521
Yahkarakara,Yahkarakara,,-19.5996,169.4651,Vanuatu,VU,VUT,Tafea,Tafea,VU-TAE,province,,53.7,,,4,Pacific/Efate,FALSE,1548000323
Watfanwa,Watfanwa,,-15.1000,168.1167,Vanuatu,VU,VUT,Penama,Penama,VU-PAM,province,,38.7,,,4,Pacific/Efate,FALSE,1548847204
Yakamnene,Yakamnene,Yankwanénéay,-19.6131,169.3488,Vanuatu,VU,VUT,Tafea,Tafea,VU-TAE,province,,11.8,,,4,Pacific/Efate,FALSE,1548884038
Malvouko,Malvouko,Malovuka,-14.7667,166.6833,Vanuatu,VU,VUT,Sanma,Sanma,VU-SAM,province,,2.8,,,5,Pacific/Efate,FALSE,1548755755
Kéké,Keke,,-15.6667,168.1167,Vanuatu,VU,VUT,Penama,Penama,VU-PAM,province,,63.8,,,4,Pacific/Efate,FALSE,1548670483
Isiwan,Isiwan,,-19.6156,169.3584,Vanuatu,VU,VUT,Tafea,Tafea,VU-TAE,province,,11.8,,,4,Pacific/Efate,FALSE,1548000274
Lamenaura,Lamenaura,Lamwinaoura|Lam̄inaora,-19.4978,169.3379,Vanuatu,VU,VUT,Tafea,Tafea,VU-TAE,province,,39.2,,,4,Pacific/Efate,FALSE,1548055470
Imafin,Imafin,Imwafeun,-19.3509,169.2947,Vanuatu,VU,VUT,Tafea,Tafea,VU-TAE,province,,53.9,,,4,Pacific/Efate,FALSE,1548763064
Enmarara,Enmarara,,-19.3755,169.2933,Vanuatu,VU,VUT,Tafea,Tafea,VU-TAE,province,,168.9,,,4,Pacific/Efate,FALSE,1548000489
Namoumou,Namoumou,,-14.9333,168.0500,Vanuatu,VU,VUT,Penama,Penama,VU-PAM,province,,6.8,,,5,Pacific/Efate,FALSE,1548049840
Lamboukouti,Lamboukouti,,-16.9167,168.5167,Vanuatu,VU,VUT,Shefa,Shefa,VU-SEE,province,,263.3,,,3,Pacific/Efate,FALSE,1548541009
Lélislis,Lelislis,,-15.6833,168.1167,Vanuatu,VU,VUT,Penama,Penama,VU-PAM,province,,54.4,,,4,Pacific/Efate,FALSE,1548674077
Ilapla,Ilapla,,-19.5690,169.2982,Vanuatu,VU,VUT,Tafea,Tafea,VU-TAE,province,,38.4,,,4,Pacific/Efate,FALSE,1548000145
Lotawora,Lotawora,,-13.8376,167.7041,Vanuatu,VU,VUT,Torba,Torba,VU-TOB,province,,112.5,,,4,Pacific/Efate,FALSE,1548000078
Ngerenigman,Ngerenigman,Gniérenioumen,-13.7093,167.6253,Vanuatu,VU,VUT,Torba,Torba,VU-TOB,province,,502.1,,,3,Pacific/Efate,FALSE,1548637067
Loanpakel,Loanpakel,,-19.3230,169.3433,Vanuatu,VU,VUT,Tafea,Tafea,VU-TAE,province,,25.9,,,4,Pacific/Efate,FALSE,1548000575
Loanpakel,Loanpakel,,-19.4631,169.2292,Vanuatu,VU,VUT,Tafea,Tafea,VU-TAE,province,,9.6,,,5,Pacific/Efate,TRUE,1548000576
Lativilan,Lativilan,,-15.4667,166.9333,Vanuatu,VU,VUT,Sanma,Sanma,VU-SAM,province,,4.4,,,5,Pacific/Efate,FALSE,1548160941
Aronbalato,Aronbalato,,-15.4833,168.1500,Vanuatu,VU,VUT,Penama,Penama,VU-PAM,province,,194.2,,,4,Pacific/Efate,FALSE,1548584429
Batounaéré,Batounaere,,-15.4333,166.8333,Vanuatu,VU,VUT,Sanma,Sanma,VU-SAM,province,,1.0,,,5,Pacific/Efate,FALSE,1548044132
Yakukak,Yakukak,Yakoukak,-19.5427,169.3212,Vanuatu,VU,VUT,Tafea,Tafea,VU-TAE,province,,186.4,,,4,Pacific/Efate,FALSE,1548291105
Wadounmwel,Wadounmwel,,-15.7167,168.1667,Vanuatu,VU,VUT,Penama,Penama,VU-PAM,province,,63.3,,,4,Pacific/Efate,FALSE,1548098745
Lowatoumbé,Lowatoumbe,,-15.3333,167.9667,Vanuatu,VU,VUT,Penama,Penama,VU-PAM,province,,53.9,,,4,Pacific/Efate,FALSE,1548331870
Anawamet,Anawamet,Anamé,-20.1381,169.8297,Vanuatu,VU,VUT,Tafea,Tafea,VU-TAE,province,,4.6,,,5,Pacific/Efate,FALSE,1548762497
Varéwérèp,Varewerep,,-15.7000,168.1167,Vanuatu,VU,VUT,Penama,Penama,VU-PAM,province,,68.4,,,4,Pacific/Efate,FALSE,1548689841
Louanaai,Louanaai,,-19.4249,169.3262,Vanuatu,VU,VUT,Tafea,Tafea,VU-TAE,province,,18.1,,,4,Pacific/Efate,FALSE,1548000364
Kohokeheviteiken,Kohokeheviteiken,,-19.4388,169.3164,Vanuatu,VU,VUT,Tafea,Tafea,VU-TAE,province,,141.6,,,4,Pacific/Efate,FALSE,1548000558
Yanaolowul,Yanaolowul,,-19.5183,169.3358,Vanuatu,VU,VUT,Tafea,Tafea,VU-TAE,province,,91.2,,,4,Pacific/Efate,FALSE,1548000203
Kusowa,Kusowa,,-13.4270,166.7045,Vanuatu,VU,VUT,Torba,Torba,VU-TOB,province,,17.2,,,4,Pacific/Efate,FALSE,1548000008
Port-Havannah,Port-Havannah,"Port Havannah",-17.5690,168.2600,Vanuatu,VU,VUT,Shefa,Shefa,VU-SEE,province,,4.7,,,5,Pacific/Efate,FALSE,1548414729
Vas,Vas,,-15.0667,166.8000,Vanuatu,VU,VUT,Sanma,Sanma,VU-SAM,province,,6.4,,,5,Pacific/Efate,FALSE,1548544017
Anwanhao,Anwanhao,,-20.2491,169.8529,Vanuatu,VU,VUT,Tafea,Tafea,VU-TAE,province,,4.6,,,5,Pacific/Efate,FALSE,1548000551
Malaliou,Malaliou,,-17.6333,168.2000,Vanuatu,VU,VUT,Shefa,Shefa,VU-SEE,province,,10.7,,,4,Pacific/Efate,FALSE,1548849613
Lomongtik,Lomongtik,,-13.7875,167.5306,Vanuatu,VU,VUT,Torba,Torba,VU-TOB,province,,8.5,,,5,Pacific/Efate,FALSE,1548000046
Souléiséré,Souleisere,,-14.9833,166.7667,Vanuatu,VU,VUT,Sanma,Sanma,VU-SAM,province,,5.7,,,5,Pacific/Efate,FALSE,1548715930
Iapasalis,Iapasalis,,-19.3767,169.3281,Vanuatu,VU,VUT,Tafea,Tafea,VU-TAE,province,,62.1,,,4,Pacific/Efate,FALSE,1548000386
Tahi,Tahi,,-16.4667,168.2167,Vanuatu,VU,VUT,Malampa,Malampa,VU-MAP,province,,67.1,,,4,Pacific/Efate,FALSE,1548186005
Lounoah,Lounoah,,-19.3554,169.2616,Vanuatu,VU,VUT,Tafea,Tafea,VU-TAE,province,,19.0,,,4,Pacific/Efate,FALSE,1548000425
Piapiéo,Piapieo,,-15.0833,166.7500,Vanuatu,VU,VUT,Sanma,Sanma,VU-SAM,province,,6.5,,,5,Pacific/Efate,FALSE,1548510969
Lobanga,Lobanga,,-15.4000,167.7333,Vanuatu,VU,VUT,Penama,Penama,VU-PAM,province,,84.1,,,4,Pacific/Efate,FALSE,1548318950
Kakola,Kakola,,-17.6470,168.2201,Vanuatu,VU,VUT,Shefa,Shefa,VU-SEE,province,,10.7,,,4,Pacific/Efate,FALSE,1548000095
Naoné,Naone,,-15.4500,167.6667,Vanuatu,VU,VUT,Penama,Penama,VU-PAM,province,,13.7,,,4,Pacific/Efate,FALSE,1548644081
Naoné,Naone,,-15.0167,168.0500,Vanuatu,VU,VUT,Penama,Penama,VU-PAM,province,,6.8,,,5,Pacific/Efate,TRUE,1548240383
Nokosaké,Nokosake,,-17.7517,168.2847,Vanuatu,VU,VUT,Shefa,Shefa,VU-SEE,province,,142.6,,,4,Pacific/Efate,FALSE,1548999972
Mélten,Melten,,-16.2667,167.9333,Vanuatu,VU,VUT,Malampa,Malampa,VU-MAP,province,,66.9,,,4,Pacific/Efate,FALSE,1548621613
Lonhao,Lonhao,,-15.4167,167.9000,Vanuatu,VU,VUT,Penama,Penama,VU-PAM,province,,11.4,,,4,Pacific/Efate,FALSE,1548989598
Anowunamlao,Anowunamlao,Anowounamalo,-20.2307,169.7841,Vanuatu,VU,VUT,Tafea,Tafea,VU-TAE,province,,8.1,,,5,Pacific/Efate,FALSE,1548884817
Itaku,Itaku,,-19.6379,169.4312,Vanuatu,VU,VUT,Tafea,Tafea,VU-TAE,province,,18.0,,,4,Pacific/Efate,FALSE,1548000348
Malori,Malori,,-15.4667,166.8833,Vanuatu,VU,VUT,Sanma,Sanma,VU-SAM,province,,4.4,,,5,Pacific/Efate,FALSE,1548303783
Lounavigen,Lounavigen,,-19.4752,169.3432,Vanuatu,VU,VUT,Tafea,Tafea,VU-TAE,province,,90.5,,,4,Pacific/Efate,FALSE,1548999984
Kérénavura,Kerenavura,Kérénaoura,-15.6667,166.7833,Vanuatu,VU,VUT,Sanma,Sanma,VU-SAM,province,,15.7,,,4,Pacific/Efate,FALSE,1548911594
Lakahap,Lakahap,,-19.4118,169.3099,Vanuatu,VU,VUT,Tafea,Tafea,VU-TAE,province,,18.1,,,4,Pacific/Efate,FALSE,1548000128
Lenus,Lenus,,-19.4989,169.2414,Vanuatu,VU,VUT,Tafea,Tafea,VU-TAE,province,,73.2,,,4,Pacific/Efate,FALSE,1548000375
Limdi,Limdi,,-13.6854,167.6414,Vanuatu,VU,VUT,Torba,Torba,VU-TOB,province,,7.2,,,5,Pacific/Efate,FALSE,1548762886
Boroumvor,Boroumvor,,-16.5333,167.5667,Vanuatu,VU,VUT,Malampa,Malampa,VU-MAP,province,,5.4,,,5,Pacific/Efate,FALSE,1548196236
Tiltawa,Tiltawa,,-13.6979,167.6458,Vanuatu,VU,VUT,Torba,Torba,VU-TOB,province,,91.7,,,4,Pacific/Efate,FALSE,1548000027
Lavis,Lavis,,-19.3524,169.2602,Vanuatu,VU,VUT,Tafea,Tafea,VU-TAE,province,,19.0,,,4,Pacific/Efate,FALSE,1548000577
Napua,Napua,Napoua,-19.5441,170.2238,Vanuatu,VU,VUT,Tafea,Tafea,VU-TAE,province,,49.7,,,4,Pacific/Efate,FALSE,1548977866
Tobol,Tobol,,-16.1167,168.1500,Vanuatu,VU,VUT,Malampa,Malampa,VU-MAP,province,,39.0,,,4,Pacific/Efate,FALSE,1548095781
Walpey,Walpey,,-14.7667,166.5500,Vanuatu,VU,VUT,Sanma,Sanma,VU-SAM,province,,2.6,,,5,Pacific/Efate,FALSE,1548759132
Marchal,Marchal,,-15.2833,167.0667,Vanuatu,VU,VUT,Sanma,Sanma,VU-SAM,province,,4.2,,,5,Pacific/Efate,FALSE,1548042349
Lowkamas,Lowkamas,,-19.5503,169.3277,Vanuatu,VU,VUT,Tafea,Tafea,VU-TAE,province,,139.1,,,4,Pacific/Efate,FALSE,1548000360
Iravaru,Iravaru,,-19.6458,169.4466,Vanuatu,VU,VUT,Tafea,Tafea,VU-TAE,province,,29.4,,,4,Pacific/Efate,FALSE,1548000459
Levlik,Levlik,,-19.4712,169.3249,Vanuatu,VU,VUT,Tafea,Tafea,VU-TAE,province,,156.3,,,4,Pacific/Efate,FALSE,1548000354
Ikwipir,Ikwipir,,-19.5721,169.3532,Vanuatu,VU,VUT,Tafea,Tafea,VU-TAE,province,,61.7,,,4,Pacific/Efate,FALSE,1548999998
Lonbilingdoun,Lonbilingdoun,,-15.9000,168.1833,Vanuatu,VU,VUT,Penama,Penama,VU-PAM,province,,10.9,,,4,Pacific/Efate,FALSE,1548138241
"Lapang Towa","Lapang Towa",,-19.4849,169.4125,Vanuatu,VU,VUT,Tafea,Tafea,VU-TAE,province,,148.8,,,4,Pacific/Efate,FALSE,1548000176
Yenpenarap,Yenpenarap,,-19.5479,169.3163,Vanuatu,VU,VUT,Tafea,Tafea,VU-TAE,province,,115.2,,,4,Pacific/Efate,FALSE,1548000469
Epantgoueï,Epantgouei,,-17.7833,168.2500,Vanuatu,VU,VUT,Shefa,Shefa,VU-SEE,province,,78.5,,,4,Pacific/Efate,FALSE,1548609587
Lelualu,Lelualu,Lélowalo,-19.4414,169.3157,Vanuatu,VU,VUT,Tafea,Tafea,VU-TAE,province,,141.6,,,4,Pacific/Efate,FALSE,1548254414
Isakwai,Isakwai,,-19.5160,169.2552,Vanuatu,VU,VUT,Tafea,Tafea,VU-TAE,province,,168.9,,,4,Pacific/Efate,FALSE,1548000248
Yenata,Yenata,,-19.5505,169.3045,Vanuatu,VU,VUT,Tafea,Tafea,VU-TAE,province,,47.5,,,4,Pacific/Efate,FALSE,1548000258
Tarasag,Tarasag,,-14.2500,167.5833,Vanuatu,VU,VUT,Torba,Torba,VU-TOB,province,,40.0,,,4,Pacific/Efate,FALSE,1548920108
"Lapurmat Lenus","Lapurmat Lenus",,-19.5266,169.2640,Vanuatu,VU,VUT,Tafea,Tafea,VU-TAE,province,,186.4,,,4,Pacific/Efate,FALSE,1548000597
Lounatanu,Lounatanu,,-19.3295,169.2792,Vanuatu,VU,VUT,Tafea,Tafea,VU-TAE,province,,41.1,,,4,Pacific/Efate,FALSE,1548999981
Rasfahalo,Rasfahalo,,-14.7833,166.6833,Vanuatu,VU,VUT,Sanma,Sanma,VU-SAM,province,,2.8,,,5,Pacific/Efate,FALSE,1548441079
Lomalanga,Lomalanga,,-15.3167,167.8667,Vanuatu,VU,VUT,Penama,Penama,VU-PAM,province,,14.0,,,4,Pacific/Efate,FALSE,1548430759
"Wara Kapa","Wara Kapa",,-17.5500,168.3333,Vanuatu,VU,VUT,Shefa,Shefa,VU-SEE,province,,4.7,,,5,Pacific/Efate,FALSE,1548900778
Naoné,Naone,,-15.1167,166.7667,Vanuatu,VU,VUT,Sanma,Sanma,VU-SAM,province,,6.8,,,5,Pacific/Efate,FALSE,1548278221
Isavai,Isavai,Isowai|Isavaï,-19.2557,169.5997,Vanuatu,VU,VUT,Tafea,Tafea,VU-TAE,province,,35.9,,,4,Pacific/Efate,FALSE,1548431985
Kindou,Kindou,,-16.3333,167.3833,Vanuatu,VU,VUT,Malampa,Malampa,VU-MAP,province,,4.7,,,5,Pacific/Efate,FALSE,1548431400
Wounaout,Wounaout,,-15.9500,167.3167,Vanuatu,VU,VUT,Malampa,Malampa,VU-MAP,province,,31.3,,,4,Pacific/Efate,FALSE,1548784402
Lotabone,Lotabone,,-15.0167,167.0167,Vanuatu,VU,VUT,Sanma,Sanma,VU-SAM,province,,6.5,,,5,Pacific/Efate,FALSE,1548888120
Wilir,Wilir,,-16.1000,167.1667,Vanuatu,VU,VUT,Malampa,Malampa,VU-MAP,province,,9.7,,,5,Pacific/Efate,FALSE,1548100455
Loumukmuk,Loumukmuk,,-19.5186,169.3322,Vanuatu,VU,VUT,Tafea,Tafea,VU-TAE,province,,210.8,,,3,Pacific/Efate,FALSE,1548000120
Pesia,Pesia,,-16.3167,168.0500,Vanuatu,VU,VUT,Malampa,Malampa,VU-MAP,province,,7.9,,,5,Pacific/Efate,FALSE,1548014824
Wounahaowoumhoum,Wounahaowoumhoum,,-15.0500,166.6500,Vanuatu,VU,VUT,Sanma,Sanma,VU-SAM,province,,2.2,,,5,Pacific/Efate,FALSE,1548042183
"Mon Exil","Mon Exil",,-15.4167,167.1500,Vanuatu,VU,VUT,Sanma,Sanma,VU-SAM,province,,10.2,,,4,Pacific/Efate,FALSE,1548305096
Imareupou,Imareupou,Imwareupo,-19.4865,169.3592,Vanuatu,VU,VUT,Tafea,Tafea,VU-TAE,province,,132.5,,,4,Pacific/Efate,FALSE,1548645459
Tiouroumbo,Tiouroumbo,,-15.3167,167.0667,Vanuatu,VU,VUT,Sanma,Sanma,VU-SAM,province,,4.2,,,5,Pacific/Efate,FALSE,1548638180
Yakunevarvar,Yakunevarvar,,-19.5906,169.4602,Vanuatu,VU,VUT,Tafea,Tafea,VU-TAE,province,,53.7,,,4,Pacific/Efate,FALSE,1548000277
Iabkil,Iabkil,,-19.5889,169.3155,Vanuatu,VU,VUT,Tafea,Tafea,VU-TAE,province,,35.2,,,4,Pacific/Efate,FALSE,1548000358
Paten,Paten,,-15.4667,166.8833,Vanuatu,VU,VUT,Sanma,Sanma,VU-SAM,province,,4.4,,,5,Pacific/Efate,FALSE,1548642761
Yakunaviaka,Yakunaviaka,,-19.5820,169.4677,Vanuatu,VU,VUT,Tafea,Tafea,VU-TAE,province,,53.9,,,4,Pacific/Efate,FALSE,1548999990
Harimal,Harimal,,-16.1000,168.1667,Vanuatu,VU,VUT,Malampa,Malampa,VU-MAP,province,,180.7,,,4,Pacific/Efate,FALSE,1548536832
"Umpon Yélongi","Umpon Yelongi","Happy Land",-18.9167,169.0833,Vanuatu,VU,VUT,Tafea,Tafea,VU-TAE,province,,2.3,,,5,Pacific/Efate,FALSE,1548949293
"Yeu Gavigamena","Yeu Gavigamena",Gavigamana,-13.1271,166.5841,Vanuatu,VU,VUT,Torba,Torba,VU-TOB,province,,6.8,,,5,Pacific/Efate,FALSE,1548552550
Liwotkei,Liwotkei,,-13.8472,167.7080,Vanuatu,VU,VUT,Torba,Torba,VU-TOB,province,,74.9,,,4,Pacific/Efate,FALSE,1548000077
Batenfoutou,Batenfoutou,,-15.5833,168.1167,Vanuatu,VU,VUT,Penama,Penama,VU-PAM,province,,111.8,,,4,Pacific/Efate,FALSE,1548231517
Lenek,Lenek,Lénaken,-19.4605,169.2976,Vanuatu,VU,VUT,Tafea,Tafea,VU-TAE,province,,141.9,,,4,Pacific/Efate,FALSE,1548475396
Orota,Orota,,-15.1500,166.8167,Vanuatu,VU,VUT,Sanma,Sanma,VU-SAM,province,,6.8,,,5,Pacific/Efate,FALSE,1548195406
Pinambo,Pinambo,Pinambro,-16.0333,167.1667,Vanuatu,VU,VUT,Malampa,Malampa,VU-MAP,province,,18.9,,,4,Pacific/Efate,FALSE,1548390778
Yapkeusep,Yapkeusep,,-19.5416,169.3312,Vanuatu,VU,VUT,Tafea,Tafea,VU-TAE,province,,106.4,,,4,Pacific/Efate,FALSE,1548000370
Pangkales,Pangkales,,-19.5262,169.3349,Vanuatu,VU,VUT,Tafea,Tafea,VU-TAE,province,,84.0,,,4,Pacific/Efate,FALSE,1548000478
Leniakis,Leniakis,,-19.5075,169.2714,Vanuatu,VU,VUT,Tafea,Tafea,VU-TAE,province,,217.8,,,3,Pacific/Efate,FALSE,1548000561
Metesarig,Metesarig,Métésari,-13.7507,167.5176,Vanuatu,VU,VUT,Torba,Torba,VU-TOB,province,,5.2,,,5,Pacific/Efate,FALSE,1548000037
Latukletuk,Latukletuk,,-19.5329,169.2869,Vanuatu,VU,VUT,Tafea,Tafea,VU-TAE,province,,78.6,,,4,Pacific/Efate,FALSE,1548999982
Douèn,Douen,,-16.3667,167.7667,Vanuatu,VU,VUT,Malampa,Malampa,VU-MAP,province,,15.3,,,4,Pacific/Efate,FALSE,1548204137
Yunaras,Yunaras,,-19.5052,169.3103,Vanuatu,VU,VUT,Tafea,Tafea,VU-TAE,province,,188.0,,,4,Pacific/Efate,FALSE,1548000270
Oroïbao,Oroibao,,-15.4333,166.8500,Vanuatu,VU,VUT,Sanma,Sanma,VU-SAM,province,,1.0,,,5,Pacific/Efate,FALSE,1548697851
"Lounapik Mita","Lounapik Mita",,-19.5209,169.2640,Vanuatu,VU,VUT,Tafea,Tafea,VU-TAE,province,,127.7,,,4,Pacific/Efate,FALSE,1548000596
Quanlab,Quanlab,,-13.8014,167.5395,Vanuatu,VU,VUT,Torba,Torba,VU-TOB,province,,14.8,,,4,Pacific/Efate,FALSE,1548000049
Hémébouer,Hemebouer,,-16.2500,167.6167,Vanuatu,VU,VUT,Malampa,Malampa,VU-MAP,province,,8.8,,,5,Pacific/Efate,FALSE,1548379001
Anadwei,Anadwei,,-20.2370,169.8025,Vanuatu,VU,VUT,Tafea,Tafea,VU-TAE,province,,8.1,,,5,Pacific/Efate,FALSE,1548000445
Loltong,Loltong,,-15.5500,168.1333,Vanuatu,VU,VUT,Penama,Penama,VU-PAM,province,,273.5,,,3,Pacific/Efate,FALSE,1548102479
Rantas,Rantas,"Sainte Thérèse",-15.9000,168.2667,Vanuatu,VU,VUT,Penama,Penama,VU-PAM,province,,25.1,,,4,Pacific/Efate,FALSE,1548000000
Yakoul,Yakoul,,-15.0833,167.0500,Vanuatu,VU,VUT,Sanma,Sanma,VU-SAM,province,,1.7,,,5,Pacific/Efate,FALSE,1548154348
"Loanengou Bungalows","Loanengou Bungalows",,-19.5478,169.4350,Vanuatu,VU,VUT,Tafea,Tafea,VU-TAE,province,,27.9,,,4,Pacific/Efate,FALSE,1548000522
Laravinambosvi,Laravinambosvi,,-15.6833,168.1500,Vanuatu,VU,VUT,Penama,Penama,VU-PAM,province,,82.9,,,4,Pacific/Efate,FALSE,1548917844
Meltébin,Meltebin,,-16.3167,168.0000,Vanuatu,VU,VUT,Malampa,Malampa,VU-MAP,province,,10.3,,,4,Pacific/Efate,FALSE,1548030537
Taboutsoui,Taboutsoui,,-15.4833,166.9500,Vanuatu,VU,VUT,Sanma,Sanma,VU-SAM,province,,15.2,,,4,Pacific/Efate,FALSE,1548301260
Rongétra,Rongetra,,-16.2333,167.6000,Vanuatu,VU,VUT,Malampa,Malampa,VU-MAP,province,,97.5,,,4,Pacific/Efate,FALSE,1548927902
Peskarüs,Peskarus,Peskarous|Loghvari|Pescarus,-16.5333,167.8167,Vanuatu,VU,VUT,Malampa,Malampa,VU-MAP,province,,461.6,,,3,Pacific/Efate,FALSE,1548773058
Nangiré,Nangire,,-15.3167,167.8167,Vanuatu,VU,VUT,Penama,Penama,VU-PAM,province,,20.0,,,4,Pacific/Efate,FALSE,1548657479
Lémèmbléké,Lemembleke,,-15.6833,168.1667,Vanuatu,VU,VUT,Penama,Penama,VU-PAM,province,,104.4,,,4,Pacific/Efate,FALSE,1548478524
Lousivir,Lousivir,,-19.4975,169.2643,Vanuatu,VU,VUT,Tafea,Tafea,VU-TAE,province,,180.2,,,4,Pacific/Efate,FALSE,1548000554
Tongwé,Tongwe,,-15.7000,168.1167,Vanuatu,VU,VUT,Penama,Penama,VU-PAM,province,,68.4,,,4,Pacific/Efate,FALSE,1548211058
Yérou,Yerou,,-19.5833,169.3333,Vanuatu,VU,VUT,Tafea,Tafea,VU-TAE,province,,35.0,,,4,Pacific/Efate,FALSE,1548053156
Néha,Neha,,-16.1333,168.1500,Vanuatu,VU,VUT,Malampa,Malampa,VU-MAP,province,,32.1,,,4,Pacific/Efate,FALSE,1548095089
Ranmawat,Ranmawat,,-15.8000,168.1667,Vanuatu,VU,VUT,Penama,Penama,VU-PAM,province,,19.0,,,4,Pacific/Efate,FALSE,1548921728
Lambean,Lambean,,-13.7178,167.6281,Vanuatu,VU,VUT,Torba,Torba,VU-TOB,province,,363.4,,,3,Pacific/Efate,FALSE,1548000024
Batounaroutoul,Batounaroutoul,,-15.5167,166.8833,Vanuatu,VU,VUT,Sanma,Sanma,VU-SAM,province,,4.4,,,5,Pacific/Efate,FALSE,1548465591
Pitikabilendromé,Pitikabilendrome,,-14.2667,167.4167,Vanuatu,VU,VUT,Torba,Torba,VU-TOB,province,,7.5,,,5,Pacific/Efate,FALSE,1548421056
Nazareth-Rantis,Nazareth-Rantis,,-15.8667,168.2667,Vanuatu,VU,VUT,Penama,Penama,VU-PAM,province,,4.2,,,5,Pacific/Efate,FALSE,1548953610
Lanauna,Lanauna,,-19.4811,169.3108,Vanuatu,VU,VUT,Tafea,Tafea,VU-TAE,province,,55.0,,,4,Pacific/Efate,FALSE,1548000389
Yanweker,Yanweker,,-19.5793,169.4597,Vanuatu,VU,VUT,Tafea,Tafea,VU-TAE,province,,60.7,,,4,Pacific/Efate,FALSE,1548000529
Lowiravé,Lowirave,,-15.5000,166.8000,Vanuatu,VU,VUT,Sanma,Sanma,VU-SAM,province,,4.4,,,5,Pacific/Efate,FALSE,1548621200
Ianatom,Ianatom,,-19.6469,169.4253,Vanuatu,VU,VUT,Tafea,Tafea,VU-TAE,province,,17.8,,,4,Pacific/Efate,FALSE,1548000275
Taktak,Taktak,Hokua,-14.7000,166.6000,Vanuatu,VU,VUT,Sanma,Sanma,VU-SAM,province,,11.8,,,4,Pacific/Efate,FALSE,1548042898
M̄osol,Mosol,Masol,-14.2000,167.5667,Vanuatu,VU,VUT,Torba,Torba,VU-TOB,province,,7.2,,,5,Pacific/Efate,FALSE,1548166634
Enkoul,Enkoul,,-15.7000,168.1667,Vanuatu,VU,VUT,Penama,Penama,VU-PAM,province,,68.6,,,4,Pacific/Efate,FALSE,1548869418
Yapimay,Yapimay,,-19.5667,169.3167,Vanuatu,VU,VUT,Tafea,Tafea,VU-TAE,province,,69.1,,,4,Pacific/Efate,FALSE,1548686853
Manuro,Manuro,,-17.7000,168.6000,Vanuatu,VU,VUT,Shefa,Shefa,VU-SEE,province,,7.0,,,5,Pacific/Efate,FALSE,1548109917
Répanbitipbonour,Repanbitipbonour,,-16.3000,167.6667,Vanuatu,VU,VUT,Malampa,Malampa,VU-MAP,province,,22.8,,,4,Pacific/Efate,FALSE,1548087048
Yuia,Yuia,,-19.4905,169.3078,Vanuatu,VU,VUT,Tafea,Tafea,VU-TAE,province,,51.8,,,4,Pacific/Efate,FALSE,1548000454
Bouéboué,Boueboue,,-15.3500,167.9500,Vanuatu,VU,VUT,Penama,Penama,VU-PAM,province,,14.5,,,4,Pacific/Efate,FALSE,1548214339
Orati,Orati,,-17.7333,168.5833,Vanuatu,VU,VUT,Shefa,Shefa,VU-SEE,province,,11.5,,,4,Pacific/Efate,FALSE,1548334483
Wall,Wall,,-16.0000,167.1833,Vanuatu,VU,VUT,Malampa,Malampa,VU-MAP,province,,8.9,,,5,Pacific/Efate,FALSE,1548631931
Vipaka,Vipaka,,-13.3658,166.6486,Vanuatu,VU,VUT,Torba,Torba,VU-TOB,province,,18.6,,,4,Pacific/Efate,FALSE,1548382115
Mandri,Mandri,,-15.3000,168.1000,Vanuatu,VU,VUT,Penama,Penama,VU-PAM,province,,7.8,,,5,Pacific/Efate,FALSE,1548172788
Lowountawor,Lowountawor,,-15.3333,167.9500,Vanuatu,VU,VUT,Penama,Penama,VU-PAM,province,,69.2,,,4,Pacific/Efate,FALSE,1548864897
Lonepan,Lonepan,,-16.1667,168.0833,Vanuatu,VU,VUT,Malampa,Malampa,VU-MAP,province,,2.3,,,5,Pacific/Efate,FALSE,1548608434
Yenkwipir,Yenkwipir,Yakwipeur,-19.5712,169.3576,Vanuatu,VU,VUT,Tafea,Tafea,VU-TAE,province,,61.7,,,4,Pacific/Efate,FALSE,1548544290
Yakel,Yakel,,-19.5399,169.3415,Vanuatu,VU,VUT,Tafea,Tafea,VU-TAE,province,,128.9,,,4,Pacific/Efate,FALSE,1548000242
Loluerkon,Loluerkon,,-16.1667,168.0833,Vanuatu,VU,VUT,Malampa,Malampa,VU-MAP,province,,2.3,,,5,Pacific/Efate,FALSE,1548637379
Enuahrat,Enuahrat,,-19.3894,169.3081,Vanuatu,VU,VUT,Tafea,Tafea,VU-TAE,province,,97.7,,,4,Pacific/Efate,FALSE,1548000476
Létowopom,Letowopom,,-19.5000,169.2667,Vanuatu,VU,VUT,Tafea,Tafea,VU-TAE,province,,415.0,,,3,Pacific/Efate,FALSE,1548648207
"Aneuthan Nomo","Aneuthan Nomo",,-20.2424,169.8539,Vanuatu,VU,VUT,Tafea,Tafea,VU-TAE,province,,4.6,,,5,Pacific/Efate,FALSE,1548000515
Malaora,Malaora,,-17.7000,168.2667,Vanuatu,VU,VUT,Shefa,Shefa,VU-SEE,province,,1756.2,,,3,Pacific/Efate,FALSE,1548094916
Assen,Assen,,-16.3167,167.7000,Vanuatu,VU,VUT,Malampa,Malampa,VU-MAP,province,,4.1,,,5,Pacific/Efate,FALSE,1548039482
"Yanuwao Point","Yanuwao Point",,-19.6515,169.4479,Vanuatu,VU,VUT,Tafea,Tafea,VU-TAE,province,,17.8,,,4,Pacific/Efate,FALSE,1548000429
Saraerao,Saraerao,,-15.3333,167.9000,Vanuatu,VU,VUT,Penama,Penama,VU-PAM,province,,9.2,,,5,Pacific/Efate,FALSE,1548406671
Enima,Enima,,-19.4926,169.4130,Vanuatu,VU,VUT,Tafea,Tafea,VU-TAE,province,,68.5,,,4,Pacific/Efate,FALSE,1548000503
Ikunap,Ikunap,,-19.6340,169.3687,Vanuatu,VU,VUT,Tafea,Tafea,VU-TAE,province,,17.3,,,4,Pacific/Efate,FALSE,1548000394
Moliitsi,Moliitsi,Piapouria,-15.0167,166.7833,Vanuatu,VU,VUT,Sanma,Sanma,VU-SAM,province,,5.7,,,5,Pacific/Efate,FALSE,1548331137
Lamanamilang,Lamanamilang,,-19.4845,169.2602,Vanuatu,VU,VUT,Tafea,Tafea,VU-TAE,province,,71.7,,,4,Pacific/Efate,FALSE,1548000293
Ivaruva,Ivaruva,,-19.4629,169.2895,Vanuatu,VU,VUT,Tafea,Tafea,VU-TAE,province,,119.9,,,4,Pacific/Efate,FALSE,1548000312
Imloksan,Imloksan,,-19.5231,169.3476,Vanuatu,VU,VUT,Tafea,Tafea,VU-TAE,province,,35.0,,,4,Pacific/Efate,FALSE,1548999978
Batounfaramb,Batounfaramb,,-15.4500,166.9333,Vanuatu,VU,VUT,Sanma,Sanma,VU-SAM,province,,0.5,,,5,Pacific/Efate,FALSE,1548251146
Ikurapow,Ikurapow,,-19.5875,169.3285,Vanuatu,VU,VUT,Tafea,Tafea,VU-TAE,province,,34.9,,,4,Pacific/Efate,FALSE,1548000589
Irimwene,Irimwene,,-19.5510,169.4185,Vanuatu,VU,VUT,Tafea,Tafea,VU-TAE,province,,47.7,,,4,Pacific/Efate,FALSE,1548000524
Taboulan,Taboulan,,-15.4667,166.9333,Vanuatu,VU,VUT,Sanma,Sanma,VU-SAM,province,,4.4,,,5,Pacific/Efate,FALSE,1548469223
Anelghowhat,Anelghowhat,Anelgauhat|Anelgauhal|Anelgaohat,-20.2356,169.7829,Vanuatu,VU,VUT,Tafea,Tafea,VU-TAE,province,,8.1,,,4,Pacific/Efate,FALSE,1548433963
Soamal,Soamal,,-15.6167,168.1167,Vanuatu,VU,VUT,Penama,Penama,VU-PAM,province,,18.9,,,4,Pacific/Efate,FALSE,1548653389
Likon,Likon,,-16.1167,168.1333,Vanuatu,VU,VUT,Malampa,Malampa,VU-MAP,province,,157.7,,,4,Pacific/Efate,FALSE,1548532312
Lamengo,Lamengo,,-16.5000,167.4333,Vanuatu,VU,VUT,Malampa,Malampa,VU-MAP,province,,565.7,,,3,Pacific/Efate,FALSE,1548089881
Lenaulaul,Lenaulaul,,-19.5197,169.3317,Vanuatu,VU,VUT,Tafea,Tafea,VU-TAE,province,,210.8,,,3,Pacific/Efate,FALSE,1548000187
Narouah,Narouah,,-15.6833,168.1667,Vanuatu,VU,VUT,Penama,Penama,VU-PAM,province,,104.4,,,4,Pacific/Efate,FALSE,1548348849
Eniai,Eniai,,-19.4810,169.3698,Vanuatu,VU,VUT,Tafea,Tafea,VU-TAE,province,,81.0,,,4,Pacific/Efate,FALSE,1548000452
Matoa,Matoa,,-17.4614,168.3710,Vanuatu,VU,VUT,Shefa,Shefa,VU-SEE,province,,87.4,,,4,Pacific/Efate,FALSE,1548665554
Ingowei,Ingowei,,-20.2056,169.7550,Vanuatu,VU,VUT,Tafea,Tafea,VU-TAE,province,,8.1,,,5,Pacific/Efate,FALSE,1548000252
Lihiouk,Lihiouk,,-15.7333,168.1667,Vanuatu,VU,VUT,Penama,Penama,VU-PAM,province,,21.6,,,4,Pacific/Efate,FALSE,1548896818
Lovis,Lovis,,-16.4333,167.8000,Vanuatu,VU,VUT,Malampa,Malampa,VU-MAP,province,,16.2,,,4,Pacific/Efate,FALSE,1548703664
Nabagaaki,Nabagaaki,,-15.3667,167.7500,Vanuatu,VU,VUT,Penama,Penama,VU-PAM,province,,59.3,,,4,Pacific/Efate,FALSE,1548288918
Otas,Otas,,-16.3500,168.2667,Vanuatu,VU,VUT,Malampa,Malampa,VU-MAP,province,,26.6,,,4,Pacific/Efate,FALSE,1548680685
Lavoutou,Lavoutou,,-15.5167,168.1500,Vanuatu,VU,VUT,Penama,Penama,VU-PAM,province,,116.7,,,4,Pacific/Efate,FALSE,1548498457
Matansao,Matansao,,-15.6667,167.2333,Vanuatu,VU,VUT,Sanma,Sanma,VU-SAM,province,,17.8,,,4,Pacific/Efate,FALSE,1548869781
Nokuku,Nokuku,,-14.9333,166.5667,Vanuatu,VU,VUT,Sanma,Sanma,VU-SAM,province,,3.4,,,5,Pacific/Efate,FALSE,1548514851
Lolbwavato,Lolbwavato,,-15.4667,168.1333,Vanuatu,VU,VUT,Penama,Penama,VU-PAM,province,,186.8,,,4,Pacific/Efate,FALSE,1548231169
Lamenahul,Lamenahul,,-19.4630,169.3125,Vanuatu,VU,VUT,Tafea,Tafea,VU-TAE,province,,163.3,,,4,Pacific/Efate,FALSE,1548000527
Lénana,Lenana,,-15.6500,168.1167,Vanuatu,VU,VUT,Penama,Penama,VU-PAM,province,,60.9,,,4,Pacific/Efate,FALSE,1548854599
Lowarhé,Lowarhe,,-15.1833,167.1333,Vanuatu,VU,VUT,Sanma,Sanma,VU-SAM,province,,6.2,,,5,Pacific/Efate,FALSE,1548352667
Moériou,Moeriou,,-16.9333,168.5500,Vanuatu,VU,VUT,Shefa,Shefa,VU-SEE,province,,44.5,,,4,Pacific/Efate,FALSE,1548232446
Merelaen,Merelaen,,-13.7611,167.5214,Vanuatu,VU,VUT,Torba,Torba,VU-TOB,province,,5.2,,,5,Pacific/Efate,FALSE,1548000054
Famban,Famban,,-16.2167,168.1833,Vanuatu,VU,VUT,Malampa,Malampa,VU-MAP,province,,1.8,,,5,Pacific/Efate,FALSE,1548572190
Kavinei,Kavinei,,-19.6468,169.4116,Vanuatu,VU,VUT,Tafea,Tafea,VU-TAE,province,,17.8,,,4,Pacific/Efate,FALSE,1548000144
Kontehei-ikin,Kontehei-ikin,,-19.3493,169.2551,Vanuatu,VU,VUT,Tafea,Tafea,VU-TAE,province,,35.4,,,4,Pacific/Efate,FALSE,1548000497
Yarofi,Yarofi,,-19.5937,169.4649,Vanuatu,VU,VUT,Tafea,Tafea,VU-TAE,province,,53.7,,,4,Pacific/Efate,FALSE,1548000138
Itamotou,Itamotou,,-19.2667,169.5833,Vanuatu,VU,VUT,Tafea,Tafea,VU-TAE,province,,35.9,,,4,Pacific/Efate,FALSE,1548360594
Amalaboua,Amalaboua,,-15.5167,168.1333,Vanuatu,VU,VUT,Penama,Penama,VU-PAM,province,,116.9,,,4,Pacific/Efate,FALSE,1548419702
Vetyayah,Vetyayah,,-13.7164,167.6283,Vanuatu,VU,VUT,Torba,Torba,VU-TOB,province,,502.1,,,3,Pacific/Efate,FALSE,1548000041
"Iakuma Nerei","Iakuma Nerei",,-19.5853,169.4600,Vanuatu,VU,VUT,Tafea,Tafea,VU-TAE,province,,53.7,,,4,Pacific/Efate,FALSE,1548000362
Ngalovasoro,Ngalovasoro,Ngalaporoua,-16.6000,168.1333,Vanuatu,VU,VUT,Shefa,Shefa,VU-SEE,province,,532.4,,,3,Pacific/Efate,FALSE,1548718116
Wowo,Wowo,Ouo-Ouo,-15.8833,167.2000,Vanuatu,VU,VUT,Malampa,Malampa,VU-MAP,province,,10.1,,,4,Pacific/Efate,FALSE,1548625070
Lélé,Lele,,-16.2667,167.9500,Vanuatu,VU,VUT,Malampa,Malampa,VU-MAP,province,,31.5,,,4,Pacific/Efate,FALSE,1548217704
Ienepir,Ienepir,,-19.5405,169.2849,Vanuatu,VU,VUT,Tafea,Tafea,VU-TAE,province,,140.8,,,4,Pacific/Efate,FALSE,1548000238
Ikalev,Ikalev,,-19.4973,169.3247,Vanuatu,VU,VUT,Tafea,Tafea,VU-TAE,province,,88.2,,,4,Pacific/Efate,FALSE,1548000377
Valaé,Valae,,-15.6333,166.8167,Vanuatu,VU,VUT,Sanma,Sanma,VU-SAM,province,,15.7,,,4,Pacific/Efate,FALSE,1548433702
Roria,Roria,,-15.4333,166.9000,Vanuatu,VU,VUT,Sanma,Sanma,VU-SAM,province,,6.9,,,5,Pacific/Efate,FALSE,1548226918
Léblia,Leblia,,-16.7333,168.3167,Vanuatu,VU,VUT,Shefa,Shefa,VU-SEE,province,,19.7,,,4,Pacific/Efate,FALSE,1548566699
Vourias,Vourias,,-15.2833,167.9500,Vanuatu,VU,VUT,Penama,Penama,VU-PAM,province,,47.9,,,4,Pacific/Efate,FALSE,1548066906
Ranhor,Ranhor,,-16.1333,168.1333,Vanuatu,VU,VUT,Malampa,Malampa,VU-MAP,province,,299.8,,,3,Pacific/Efate,FALSE,1548400481
Imarekak,Imarekak,Imareukak,-19.6110,169.4615,Vanuatu,VU,VUT,Tafea,Tafea,VU-TAE,province,,18.1,,,4,Pacific/Efate,FALSE,1548763567
Saï,Sai,,-15.9500,168.2500,Vanuatu,VU,VUT,Penama,Penama,VU-PAM,province,,40.7,,,4,Pacific/Efate,FALSE,1548974287
Nanaharoua,Nanaharoua,,-14.7500,166.6667,Vanuatu,VU,VUT,Sanma,Sanma,VU-SAM,province,,2.8,,,5,Pacific/Efate,FALSE,1548597512
Loukane,Loukane,,-19.4894,169.3582,Vanuatu,VU,VUT,Tafea,Tafea,VU-TAE,province,,100.8,,,4,Pacific/Efate,FALSE,1548000149
Letaunalul,Letaunalul,,-19.4890,169.2576,Vanuatu,VU,VUT,Tafea,Tafea,VU-TAE,province,,64.2,,,4,Pacific/Efate,FALSE,1548000255
Fanebal,Fanebal,,-16.1833,168.1000,Vanuatu,VU,VUT,Malampa,Malampa,VU-MAP,province,,2.3,,,5,Pacific/Efate,FALSE,1548468274
Poétsaysay,Poetsaysay,,-15.1833,166.8667,Vanuatu,VU,VUT,Sanma,Sanma,VU-SAM,province,,6.9,,,5,Pacific/Efate,FALSE,1548347961
Elvai,Elvai,,-19.3881,169.3106,Vanuatu,VU,VUT,Tafea,Tafea,VU-TAE,province,,235.2,,,3,Pacific/Efate,FALSE,1548000298
Soulé,Soule,,-15.1167,166.6333,Vanuatu,VU,VUT,Sanma,Sanma,VU-SAM,province,,2.4,,,5,Pacific/Efate,FALSE,1548091622
Lésasa,Lesasa,,-15.6833,168.1667,Vanuatu,VU,VUT,Penama,Penama,VU-PAM,province,,104.4,,,4,Pacific/Efate,FALSE,1548522579
Mele,Mele,Mélé,-17.7000,168.2667,Vanuatu,VU,VUT,Shefa,Shefa,VU-SEE,province,,1756.2,,,3,Pacific/Efate,FALSE,1548260698
Na’asang,Na'asang,Nasanga,-17.2570,168.4305,Vanuatu,VU,VUT,Shefa,Shefa,VU-SEE,province,,55.1,,,4,Pacific/Efate,FALSE,1548639741
Pilioura,Pilioura,,-17.5000,168.4000,Vanuatu,VU,VUT,Shefa,Shefa,VU-SEE,province,,106.9,,,4,Pacific/Efate,FALSE,1548731871
Lonorore,Lonorore,,-15.8500,168.1667,Vanuatu,VU,VUT,Penama,Penama,VU-PAM,province,,10.9,,,4,Pacific/Efate,FALSE,1548763215
Légal,Legal,,-15.6833,168.1167,Vanuatu,VU,VUT,Penama,Penama,VU-PAM,province,,54.4,,,4,Pacific/Efate,FALSE,1548408138
Vougénéré,Vougenere,,-15.3167,167.8667,Vanuatu,VU,VUT,Penama,Penama,VU-PAM,province,,14.0,,,4,Pacific/Efate,FALSE,1548774538
Saranamoundou,Saranamoundou,,-15.3667,167.7667,Vanuatu,VU,VUT,Penama,Penama,VU-PAM,province,,23.3,,,4,Pacific/Efate,FALSE,1548582500
Matanvat,Matanvat,,-15.9333,167.1667,Vanuatu,VU,VUT,Malampa,Malampa,VU-MAP,province,,9.2,,,5,Pacific/Efate,FALSE,1548553331
Ienatam,Ienatam,,-19.5195,169.3281,Vanuatu,VU,VUT,Tafea,Tafea,VU-TAE,province,,210.8,,,3,Pacific/Efate,FALSE,1548000227
"Rive Yan","Rive Yan",,-17.8000,168.4500,Vanuatu,VU,VUT,Shefa,Shefa,VU-SEE,province,,12.8,,,4,Pacific/Efate,FALSE,1548748532
Laknasoua,Laknasoua,,-17.5500,168.3500,Vanuatu,VU,VUT,Shefa,Shefa,VU-SEE,province,,15.0,,,4,Pacific/Efate,FALSE,1548107633
Nagwingwim,Nagwingwim,,-15.4000,167.7500,Vanuatu,VU,VUT,Penama,Penama,VU-PAM,province,,78.7,,,4,Pacific/Efate,FALSE,1548100360
Bouinii,Bouinii,,-15.7333,168.1167,Vanuatu,VU,VUT,Penama,Penama,VU-PAM,province,,47.1,,,4,Pacific/Efate,FALSE,1548461557
Fetukai,Fetukai,,-19.4250,169.3071,Vanuatu,VU,VUT,Tafea,Tafea,VU-TAE,province,,30.3,,,4,Pacific/Efate,FALSE,1548000195
Lamrao,Lamrao,,-19.4929,169.2754,Vanuatu,VU,VUT,Tafea,Tafea,VU-TAE,province,,167.3,,,4,Pacific/Efate,FALSE,1548000133
Bellevue,Bellevue,,-17.7333,168.3500,Vanuatu,VU,VUT,Shefa,Shefa,VU-SEE,province,,23.0,,,4,Pacific/Efate,FALSE,1548432269
Yenaohia,Yenaohia,Yanaouhiya,-19.5314,169.3084,Vanuatu,VU,VUT,Tafea,Tafea,VU-TAE,province,,115.9,,,4,Pacific/Efate,FALSE,1548711467
Lonwar,Lonwar,,-16.1333,168.1667,Vanuatu,VU,VUT,Malampa,Malampa,VU-MAP,province,,36.6,,,4,Pacific/Efate,FALSE,1548896072
Nanoé,Nanoe,,-15.5833,166.9667,Vanuatu,VU,VUT,Sanma,Sanma,VU-SAM,province,,54.6,,,4,Pacific/Efate,FALSE,1548703224
Matala,Matala,,-14.8500,166.7500,Vanuatu,VU,VUT,Sanma,Sanma,VU-SAM,province,,2.8,,,5,Pacific/Efate,FALSE,1548394770
Kowe,Kowe,,-13.5135,167.3036,Vanuatu,VU,VUT,Torba,Torba,VU-TOB,province,,12.4,,,4,Pacific/Efate,FALSE,1548000072
Tosi,Tosi,,-15.6833,168.1333,Vanuatu,VU,VUT,Penama,Penama,VU-PAM,province,,61.5,,,4,Pacific/Efate,FALSE,1548048649
Loukanine,Loukanine,,-19.4529,169.3191,Vanuatu,VU,VUT,Tafea,Tafea,VU-TAE,province,,29.3,,,4,Pacific/Efate,FALSE,1548000368
Grempo,Grempo,,-15.2667,167.0667,Vanuatu,VU,VUT,Sanma,Sanma,VU-SAM,province,,4.2,,,5,Pacific/Efate,FALSE,1548037512
"Happy Land","Happy Land",,-18.9188,169.0728,Vanuatu,VU,VUT,Tafea,Tafea,VU-TAE,province,,2.3,,,5,Pacific/Efate,FALSE,1548876248
"Ne Kapa","Ne Kapa",Nikapa,-17.4805,168.3657,Vanuatu,VU,VUT,Shefa,Shefa,VU-SEE,province,,43.6,,,4,Pacific/Efate,FALSE,1548191184
Qweremagda,Qweremagda,,-13.7075,167.6269,Vanuatu,VU,VUT,Torba,Torba,VU-TOB,province,,696.0,,,3,Pacific/Efate,FALSE,1548370010
Louakus,Louakus,,-19.4345,169.2265,Vanuatu,VU,VUT,Tafea,Tafea,VU-TAE,province,,9.6,,,5,Pacific/Efate,FALSE,1548000516
Lepuku,Lepuku,,-19.3629,169.3258,Vanuatu,VU,VUT,Tafea,Tafea,VU-TAE,province,,25.9,,,4,Pacific/Efate,FALSE,1548000342
Kolé,Kole,,-15.2333,167.1667,Vanuatu,VU,VUT,Sanma,Sanma,VU-SAM,province,,73.0,,,4,Pacific/Efate,FALSE,1548894494
Bolès,Boles,,-16.3500,168.0667,Vanuatu,VU,VUT,Malampa,Malampa,VU-MAP,province,,5.5,,,5,Pacific/Efate,FALSE,1548310133
Nasup,Nasup,,-19.5389,169.4543,Vanuatu,VU,VUT,Tafea,Tafea,VU-TAE,province,,13.3,,,4,Pacific/Efate,FALSE,1548000507
Totokat,Totokat,,-15.2500,167.1500,Vanuatu,VU,VUT,Sanma,Sanma,VU-SAM,province,,14.6,,,4,Pacific/Efate,FALSE,1548232039
Lolowaï,Lolowai,Loloway,-15.2833,167.9667,Vanuatu,VU,VUT,Penama,Penama,VU-PAM,province,,184.1,,,4,Pacific/Efate,FALSE,1548255916
Laborha,Laborha,,-15.0833,166.7333,Vanuatu,VU,VUT,Sanma,Sanma,VU-SAM,province,,2.4,,,5,Pacific/Efate,FALSE,1548380579
Anégen,Anegen,,-20.1500,169.8333,Vanuatu,VU,VUT,Tafea,Tafea,VU-TAE,province,,4.6,,,5,Pacific/Efate,FALSE,1548011306
Ikakahak,Ikakahak,Ikahakahak,-19.6277,169.3690,Vanuatu,VU,VUT,Tafea,Tafea,VU-TAE,province,,12.1,,,4,Pacific/Efate,FALSE,1548618845
Loukweria,Loukweria,,-19.4949,169.2719,Vanuatu,VU,VUT,Tafea,Tafea,VU-TAE,province,,415.0,,,3,Pacific/Efate,FALSE,1548000127
Imaraka,Imaraka,,-19.5668,169.3039,Vanuatu,VU,VUT,Tafea,Tafea,VU-TAE,province,,39.6,,,4,Pacific/Efate,FALSE,1548000483
Abounanbay,Abounanbay,,-15.6833,167.0833,Vanuatu,VU,VUT,Sanma,Sanma,VU-SAM,province,,55.8,,,4,Pacific/Efate,FALSE,1548824771
Lapkit,Lapkit,,-19.5109,169.2639,Vanuatu,VU,VUT,Tafea,Tafea,VU-TAE,province,,136.0,,,4,Pacific/Efate,FALSE,1548000510
Enarawia,Enarawia,,-19.4801,169.3807,Vanuatu,VU,VUT,Tafea,Tafea,VU-TAE,province,,145.0,,,4,Pacific/Efate,FALSE,1548000552
Tanmaéto,Tanmaeto,,-15.0833,168.0667,Vanuatu,VU,VUT,Penama,Penama,VU-PAM,province,,16.4,,,4,Pacific/Efate,FALSE,1548593822
"Malo Prospect","Malo Prospect",,-15.6885,167.2253,Vanuatu,VU,VUT,Sanma,Sanma,VU-SAM,province,,17.2,,,4,Pacific/Efate,FALSE,1548836795
Lenasiliang,Lenasiliang,,-19.5046,169.2831,Vanuatu,VU,VUT,Tafea,Tafea,VU-TAE,province,,228.4,,,3,Pacific/Efate,FALSE,1548000320
Lounuotuan,Lounuotuan,,-19.4796,169.3102,Vanuatu,VU,VUT,Tafea,Tafea,VU-TAE,province,,55.0,,,4,Pacific/Efate,FALSE,1548000341
Abanga,Abanga,,-15.3167,167.8833,Vanuatu,VU,VUT,Penama,Penama,VU-PAM,province,,14.0,,,4,Pacific/Efate,FALSE,1548658799
Loumanuma,Loumanuma,Looumwanoumwan,-19.5132,169.2739,Vanuatu,VU,VUT,Tafea,Tafea,VU-TAE,province,,105.4,,,4,Pacific/Efate,FALSE,1548431537
Napila,Napila,,-15.4500,167.8167,Vanuatu,VU,VUT,Penama,Penama,VU-PAM,province,,25.3,,,4,Pacific/Efate,FALSE,1548153681
Natchino,Natchino,,-15.6000,166.9833,Vanuatu,VU,VUT,Sanma,Sanma,VU-SAM,province,,706.2,,,3,Pacific/Efate,FALSE,1548799539
Botvornov,Botvornov,,-15.4167,166.8833,Vanuatu,VU,VUT,Sanma,Sanma,VU-SAM,province,,6.9,,,5,Pacific/Efate,FALSE,1548351100
Loukris,Loukris,Looukeureus,-19.4355,169.2840,Vanuatu,VU,VUT,Tafea,Tafea,VU-TAE,province,,50.4,,,4,Pacific/Efate,FALSE,1548270610
Ianalual,Ianalual,,-19.5506,169.3200,Vanuatu,VU,VUT,Tafea,Tafea,VU-TAE,province,,93.1,,,4,Pacific/Efate,FALSE,1548000579
Lenawowo,Lenawowo,,-19.5263,169.3117,Vanuatu,VU,VUT,Tafea,Tafea,VU-TAE,province,,115.9,,,4,Pacific/Efate,FALSE,1548000181
Lounapikruan,Lounapikruan,,-19.3290,169.2833,Vanuatu,VU,VUT,Tafea,Tafea,VU-TAE,province,,41.1,,,4,Pacific/Efate,FALSE,1548000582
"Irapapu Point","Irapapu Point",,-19.2729,169.6035,Vanuatu,VU,VUT,Tafea,Tafea,VU-TAE,province,,35.9,,,4,Pacific/Efate,FALSE,1548000391
Lewelvaru,Lewelvaru,,-15.0667,167.0500,Vanuatu,VU,VUT,Sanma,Sanma,VU-SAM,province,,1.7,,,5,Pacific/Efate,FALSE,1548521252
Loukasapen,Loukasapen,,-19.4496,169.3029,Vanuatu,VU,VUT,Tafea,Tafea,VU-TAE,province,,72.9,,,4,Pacific/Efate,FALSE,1548000423
Totoglag,Totoglag,,-13.7038,167.6241,Vanuatu,VU,VUT,Torba,Torba,VU-TOB,province,,921.9,,,3,Pacific/Efate,FALSE,1548000031
Malao,Malao,,-15.1667,166.8500,Vanuatu,VU,VUT,Sanma,Sanma,VU-SAM,province,,15.8,,,4,Pacific/Efate,FALSE,1548352251
Lolominiou,Lolominiou,,-14.9167,166.5667,Vanuatu,VU,VUT,Sanma,Sanma,VU-SAM,province,,3.4,,,5,Pacific/Efate,FALSE,1548405227
"Lounapik Tuan","Lounapik Tuan",,-19.4925,169.2787,Vanuatu,VU,VUT,Tafea,Tafea,VU-TAE,province,,167.3,,,4,Pacific/Efate,FALSE,1548999991
Lambangnao,Lambangnao,,-19.3781,169.2909,Vanuatu,VU,VUT,Tafea,Tafea,VU-TAE,province,,28.9,,,4,Pacific/Efate,FALSE,1548000340
Iapkapen,Iapkapen,,-19.5836,169.4631,Vanuatu,VU,VUT,Tafea,Tafea,VU-TAE,province,,53.7,,,4,Pacific/Efate,FALSE,1548000502
Iapkaveja,Iapkaveja,,-19.5409,169.3356,Vanuatu,VU,VUT,Tafea,Tafea,VU-TAE,province,,128.9,,,4,Pacific/Efate,FALSE,1548000531
Lamenul,Lamenul,,-19.4445,169.3009,Vanuatu,VU,VUT,Tafea,Tafea,VU-TAE,province,,72.9,,,4,Pacific/Efate,FALSE,1548000224
Wilmèt,Wilmet,,-16.0500,167.2000,Vanuatu,VU,VUT,Malampa,Malampa,VU-MAP,province,,13.3,,,4,Pacific/Efate,FALSE,1548223093
Worarana,Worarana,,-17.0669,168.3848,Vanuatu,VU,VUT,Malampa,Malampa,VU-MAP,province,,51.9,,,4,Pacific/Efate,FALSE,1548555242
Leniakapom,Leniakapom,,-19.4356,169.2273,Vanuatu,VU,VUT,Tafea,Tafea,VU-TAE,province,,9.6,,,5,Pacific/Efate,FALSE,1548000226
"Lounapkau Langis","Lounapkau Langis",Loounapkaülangeus,-19.4994,169.3140,Vanuatu,VU,VUT,Tafea,Tafea,VU-TAE,province,,85.3,,,4,Pacific/Efate,FALSE,1548509001
Ilanga,Ilanga,,-19.3538,169.3051,Vanuatu,VU,VUT,Tafea,Tafea,VU-TAE,province,,57.3,,,4,Pacific/Efate,FALSE,1548999994
Sukeia,Sukeia,,-13.8414,167.6824,Vanuatu,VU,VUT,Torba,Torba,VU-TOB,province,,23.2,,,4,Pacific/Efate,FALSE,1548000082
Lounapaiu,Lounapaiu,,-19.3653,169.2496,Vanuatu,VU,VUT,Tafea,Tafea,VU-TAE,province,,19.0,,,4,Pacific/Efate,FALSE,1548000417
Imakei,Imakei,,-19.4517,169.3493,Vanuatu,VU,VUT,Tafea,Tafea,VU-TAE,province,,69.9,,,4,Pacific/Efate,FALSE,1548000590
Kwakea,Kwakea,Kwakéa,-13.9055,167.4802,Vanuatu,VU,VUT,Torba,Torba,VU-TOB,province,,14.8,,,4,Pacific/Efate,FALSE,1548343943
Abatabanga,Abatabanga,,-15.5167,168.1667,Vanuatu,VU,VUT,Penama,Penama,VU-PAM,province,,101.9,,,4,Pacific/Efate,FALSE,1548555502
Aiwos,Aiwos,"Aiwos Mission Station|Aïoua",-16.9000,168.5333,Vanuatu,VU,VUT,Shefa,Shefa,VU-SEE,province,,167.5,,,4,Pacific/Efate,FALSE,1548989215
"Lounapik Tenangia","Lounapik Tenangia",,-19.4820,169.2514,Vanuatu,VU,VUT,Tafea,Tafea,VU-TAE,province,,9.6,,,5,Pacific/Efate,FALSE,1548000419
Lalaéré,Lalaere,,-15.4167,166.8000,Vanuatu,VU,VUT,Sanma,Sanma,VU-SAM,province,,0.8,,,5,Pacific/Efate,FALSE,1548521756
Rowo,Rowo,,-14.9500,167.0333,Vanuatu,VU,VUT,Sanma,Sanma,VU-SAM,province,,8.8,,,5,Pacific/Efate,FALSE,1548534188
Ranbili,Ranbili,,-16.2500,168.2167,Vanuatu,VU,VUT,Malampa,Malampa,VU-MAP,province,,0.8,,,5,Pacific/Efate,FALSE,1548978444
Worlissliss,Worlissliss,,-16.5167,167.4333,Vanuatu,VU,VUT,Malampa,Malampa,VU-MAP,province,,4.1,,,5,Pacific/Efate,FALSE,1548654853
Abowi,Abowi,,-15.4833,168.1500,Vanuatu,VU,VUT,Penama,Penama,VU-PAM,province,,194.2,,,4,Pacific/Efate,FALSE,1548821154
Louakal,Louakal,,-19.4336,169.3252,Vanuatu,VU,VUT,Tafea,Tafea,VU-TAE,province,,27.6,,,4,Pacific/Efate,FALSE,1548000493
Lapeiu,Lapeiu,,-19.4804,169.3848,Vanuatu,VU,VUT,Tafea,Tafea,VU-TAE,province,,98.5,,,4,Pacific/Efate,FALSE,1548000249
Moualakot,Moualakot,Malakot,-17.1333,168.4167,Vanuatu,VU,VUT,Shefa,Shefa,VU-SEE,province,,0,,,5,Pacific/Efate,FALSE,1548488804
Anecdae,Anecdae,,-20.2424,169.8464,Vanuatu,VU,VUT,Tafea,Tafea,VU-TAE,province,,4.6,,,5,Pacific/Efate,FALSE,1548000564
Limap,Limap,,-16.2333,167.5167,Vanuatu,VU,VUT,Malampa,Malampa,VU-MAP,province,,9.4,,,5,Pacific/Efate,FALSE,1548358059
Léboukouvini,Leboukouvini,,-15.7000,168.1333,Vanuatu,VU,VUT,Penama,Penama,VU-PAM,province,,68.4,,,4,Pacific/Efate,FALSE,1548751506
Renbura,Renbura,,-15.5888,168.1870,Vanuatu,VU,VUT,Penama,Penama,VU-PAM,province,,37.8,,,4,Pacific/Efate,FALSE,1548692145
Loliboulo,Loliboulo,,-16.2500,167.9500,Vanuatu,VU,VUT,Malampa,Malampa,VU-MAP,province,,2.5,,,5,Pacific/Efate,FALSE,1548056007
Lahwenata,Lahwenata,Lawénata,-19.4586,169.3531,Vanuatu,VU,VUT,Tafea,Tafea,VU-TAE,province,,60.1,,,4,Pacific/Efate,FALSE,1548259111
Alowarou,Alowarou,,-15.7333,167.1500,Vanuatu,VU,VUT,Sanma,Sanma,VU-SAM,province,,29.1,,,4,Pacific/Efate,FALSE,1548856301
Vatrof,Vatrof,,-15.3833,166.8833,Vanuatu,VU,VUT,Sanma,Sanma,VU-SAM,province,,2.4,,,5,Pacific/Efate,FALSE,1548130475
Animi,Animi,,-20.2404,169.8475,Vanuatu,VU,VUT,Tafea,Tafea,VU-TAE,province,,4.6,,,5,Pacific/Efate,FALSE,1548000392
Louri,Louri,,-15.0667,167.0500,Vanuatu,VU,VUT,Sanma,Sanma,VU-SAM,province,,1.7,,,5,Pacific/Efate,FALSE,1548280236
Louri,Louri,,-15.4167,166.8000,Vanuatu,VU,VUT,Sanma,Sanma,VU-SAM,province,,0.8,,,5,Pacific/Efate,TRUE,1548182802
Masevono,Masevono,,-14.2088,167.5246,Vanuatu,VU,VUT,Torba,Torba,VU-TOB,province,,7.2,,,5,Pacific/Efate,FALSE,1548983724
Laupukas,Laupukas,,-19.4299,169.2992,Vanuatu,VU,VUT,Tafea,Tafea,VU-TAE,province,,76.9,,,4,Pacific/Efate,FALSE,1548000190
Tukwetap,Tukwetap,,-13.8318,167.6973,Vanuatu,VU,VUT,Torba,Torba,VU-TOB,province,,140.8,,,4,Pacific/Efate,FALSE,1548000081
Lonakwarenga,Lonakwarenga,,-13.2436,166.6010,Vanuatu,VU,VUT,Torba,Torba,VU-TOB,province,,2.1,,,5,Pacific/Efate,FALSE,1548000012
Laketam,Laketam,Lakétam,-19.3667,169.3061,Vanuatu,VU,VUT,Tafea,Tafea,VU-TAE,province,,179.0,,,4,Pacific/Efate,FALSE,1548702765
Seremba,Seremba,,-13.8333,167.5370,Vanuatu,VU,VUT,Torba,Torba,VU-TOB,province,,14.8,,,4,Pacific/Efate,FALSE,1548000050
Loukulua,Loukulua,,-19.5197,169.2556,Vanuatu,VU,VUT,Tafea,Tafea,VU-TAE,province,,118.6,,,4,Pacific/Efate,FALSE,1548000553
Hangar,Hangar,,-16.1667,168.1000,Vanuatu,VU,VUT,Malampa,Malampa,VU-MAP,province,,2.3,,,5,Pacific/Efate,FALSE,1548764456
Lousiganu,Lousiganu,,-19.4987,169.3166,Vanuatu,VU,VUT,Tafea,Tafea,VU-TAE,province,,85.3,,,4,Pacific/Efate,FALSE,1548000574
"Yaka Sever","Yaka Sever",,-19.6388,169.4031,Vanuatu,VU,VUT,Tafea,Tafea,VU-TAE,province,,17.8,,,4,Pacific/Efate,FALSE,1548000387
Sankay,Sankay,,-16.4667,168.2333,Vanuatu,VU,VUT,Malampa,Malampa,VU-MAP,province,,60.9,,,4,Pacific/Efate,FALSE,1548835541
Keyembak,Keyembak,,-13.7710,167.5261,Vanuatu,VU,VUT,Torba,Torba,VU-TOB,province,,5.2,,,5,Pacific/Efate,FALSE,1548000044
Yalkis,Yalkis,,-19.5552,169.3330,Vanuatu,VU,VUT,Tafea,Tafea,VU-TAE,province,,139.1,,,4,Pacific/Efate,FALSE,1548000202
Vibir,Vibir,,-13.4353,166.7022,Vanuatu,VU,VUT,Torba,Torba,VU-TOB,province,,17.2,,,4,Pacific/Efate,FALSE,1548000009
Baalap,Baalap,Baulap,-16.2833,167.9500,Vanuatu,VU,VUT,Malampa,Malampa,VU-MAP,province,,31.5,,,4,Pacific/Efate,FALSE,1548937677
Lounapkamei,Lounapkamei,Loounapkamey,-19.5035,169.2692,Vanuatu,VU,VUT,Tafea,Tafea,VU-TAE,province,,217.8,,,3,Pacific/Efate,FALSE,1548994456
Lonwaditari,Lonwaditari,,-15.3500,167.7833,Vanuatu,VU,VUT,Penama,Penama,VU-PAM,province,,29.4,,,4,Pacific/Efate,FALSE,1548567634
Fousroumbous,Fousroumbous,,-15.4500,166.9167,Vanuatu,VU,VUT,Sanma,Sanma,VU-SAM,province,,4.8,,,5,Pacific/Efate,FALSE,1548000001
Falimapkon,Falimapkon,,-16.2667,167.9167,Vanuatu,VU,VUT,Malampa,Malampa,VU-MAP,province,,71.3,,,4,Pacific/Efate,FALSE,1548692992
Lasoulépona,Lasoulepona,,-15.4500,166.8167,Vanuatu,VU,VUT,Sanma,Sanma,VU-SAM,province,,1.0,,,5,Pacific/Efate,FALSE,1548542147
Iesmatanes,Iesmatanes,,-19.5828,169.4572,Vanuatu,VU,VUT,Tafea,Tafea,VU-TAE,province,,56.4,,,4,Pacific/Efate,FALSE,1548000220
Lounang,Lounang,Léhunang,-19.4802,169.3480,Vanuatu,VU,VUT,Tafea,Tafea,VU-TAE,province,,90.5,,,4,Pacific/Efate,FALSE,1548999085
Lonbarnié,Lonbarnie,,-16.1167,168.1500,Vanuatu,VU,VUT,Malampa,Malampa,VU-MAP,province,,39.0,,,4,Pacific/Efate,FALSE,1548673339
Eluei,Eluei,,-19.4958,169.4315,Vanuatu,VU,VUT,Tafea,Tafea,VU-TAE,province,,117.9,,,4,Pacific/Efate,FALSE,1548000403
Tanoutcho,Tanoutcho,,-15.0000,166.7833,Vanuatu,VU,VUT,Sanma,Sanma,VU-SAM,province,,5.7,,,5,Pacific/Efate,FALSE,1548084125
Yéléwar,Yelewar,,-16.2833,167.1500,Vanuatu,VU,VUT,Malampa,Malampa,VU-MAP,province,,0,,,5,Pacific/Efate,FALSE,1548820283
Imalayumwene,Imalayumwene,,-19.5654,169.4626,Vanuatu,VU,VUT,Tafea,Tafea,VU-TAE,province,,55.8,,,4,Pacific/Efate,FALSE,1548000487
Nandouha,Nandouha,,-15.0667,168.0667,Vanuatu,VU,VUT,Penama,Penama,VU-PAM,province,,16.1,,,4,Pacific/Efate,FALSE,1548319019
Lamankolau,Lamankolau,,-19.4927,169.2693,Vanuatu,VU,VUT,Tafea,Tafea,VU-TAE,province,,415.0,,,3,Pacific/Efate,FALSE,1548000495
Forari,Forari,Radier|Torari,-17.6842,168.5467,Vanuatu,VU,VUT,Shefa,Shefa,VU-SEE,province,,7.0,,,5,Pacific/Efate,FALSE,1548498071
Nokongiri,Nokongiri,,-15.6667,168.1833,Vanuatu,VU,VUT,Penama,Penama,VU-PAM,province,,150.9,,,4,Pacific/Efate,FALSE,1548958235
Imapouliaul,Imapouliaul,,-19.5604,169.3163,Vanuatu,VU,VUT,Tafea,Tafea,VU-TAE,province,,50.3,,,4,Pacific/Efate,FALSE,1548000339
Nareget,Nareget,,-15.0333,166.9833,Vanuatu,VU,VUT,Sanma,Sanma,VU-SAM,province,,1.7,,,5,Pacific/Efate,FALSE,1548069549
"White Sands","White Sands",,-19.5075,169.4497,Vanuatu,VU,VUT,Tafea,Tafea,VU-TAE,province,,176.9,,,4,Pacific/Efate,FALSE,1548803765
Lounalou,Lounalou,,-19.4522,169.3027,Vanuatu,VU,VUT,Tafea,Tafea,VU-TAE,province,,126.6,,,4,Pacific/Efate,FALSE,1548000311
Kengimanui,Kengimanui,,-19.6281,169.3576,Vanuatu,VU,VUT,Tafea,Tafea,VU-TAE,province,,11.8,,,4,Pacific/Efate,FALSE,1548000189
Qokemel,Qokemel,,-13.7751,167.5278,Vanuatu,VU,VUT,Torba,Torba,VU-TOB,province,,5.2,,,5,Pacific/Efate,FALSE,1548000045
Louiaru,Louiaru,,-19.4428,169.3009,Vanuatu,VU,VUT,Tafea,Tafea,VU-TAE,province,,72.9,,,4,Pacific/Efate,FALSE,1548000283
Tavalavala,Tavalavala,,-15.3000,167.9000,Vanuatu,VU,VUT,Penama,Penama,VU-PAM,province,,139.6,,,4,Pacific/Efate,FALSE,1548073309
Lampétiar,Lampetiar,,-15.8833,167.2333,Vanuatu,VU,VUT,Malampa,Malampa,VU-MAP,province,,12.9,,,4,Pacific/Efate,FALSE,1548525242
Imapia,Imapia,,-19.5422,169.3144,Vanuatu,VU,VUT,Tafea,Tafea,VU-TAE,province,,115.2,,,4,Pacific/Efate,FALSE,1548000581
Aviliana,Aviliana,,-15.4833,168.1333,Vanuatu,VU,VUT,Penama,Penama,VU-PAM,province,,186.8,,,4,Pacific/Efate,FALSE,1548204547
Olpoï,Olpoi,Olpoy,-14.8667,166.5500,Vanuatu,VU,VUT,Sanma,Sanma,VU-SAM,province,,3.4,,,5,Pacific/Efate,FALSE,1548702805
Ekar,Ekar,,-15.0000,167.0500,Vanuatu,VU,VUT,Sanma,Sanma,VU-SAM,province,,8.8,,,5,Pacific/Efate,FALSE,1548981911
Péniciès,Penicies,Saint-Paul,-16.4333,167.7833,Vanuatu,VU,VUT,Malampa,Malampa,VU-MAP,province,,16.1,,,4,Pacific/Efate,FALSE,1548573353
Nauklamine,Nauklamine,,-19.5600,169.2883,Vanuatu,VU,VUT,Tafea,Tafea,VU-TAE,province,,43.9,,,4,Pacific/Efate,FALSE,1548000286
Wawo,Wawo,,-15.7167,168.1167,Vanuatu,VU,VUT,Penama,Penama,VU-PAM,province,,67.8,,,4,Pacific/Efate,FALSE,1548595438
Vilakalaka,Vilakalaka,,-15.4167,167.6833,Vanuatu,VU,VUT,Penama,Penama,VU-PAM,province,,13.7,,,4,Pacific/Efate,FALSE,1548702198
Sola,Sola,,-13.8750,167.5500,Vanuatu,VU,VUT,Torba,Torba,VU-TOB,province,admin,14.8,,,2,Pacific/Efate,FALSE,1548600754
Tondila,Tondila,,-15.4000,166.8667,Vanuatu,VU,VUT,Sanma,Sanma,VU-SAM,province,,1.0,,,5,Pacific/Efate,FALSE,1548581499
Maloéta,Maloeta,,-15.1333,166.8000,Vanuatu,VU,VUT,Sanma,Sanma,VU-SAM,province,,6.8,,,5,Pacific/Efate,FALSE,1548846825
Ikiti,Ikiti,,-19.5864,169.3390,Vanuatu,VU,VUT,Tafea,Tafea,VU-TAE,province,,43.5,,,4,Pacific/Efate,FALSE,1548000369
Lenola,Lenola,,-19.4903,169.2571,Vanuatu,VU,VUT,Tafea,Tafea,VU-TAE,province,,64.2,,,4,Pacific/Efate,FALSE,1548000192
Loubali,Loubali,,-19.4931,169.4333,Vanuatu,VU,VUT,Tafea,Tafea,VU-TAE,province,,117.9,,,4,Pacific/Efate,FALSE,1548000446
Ikiakis,Ikiakis,,-19.5367,169.2717,Vanuatu,VU,VUT,Tafea,Tafea,VU-TAE,province,,605.6,,,3,Pacific/Efate,FALSE,1548000398
Rival,Rival,,-13.2105,166.6010,Vanuatu,VU,VUT,Torba,Torba,VU-TOB,province,,4.8,,,5,Pacific/Efate,FALSE,1548000035
Worafiou,Worafiou,,-16.9000,168.5500,Vanuatu,VU,VUT,Shefa,Shefa,VU-SEE,province,,143.7,,,4,Pacific/Efate,FALSE,1548467373
Elaiuk,Elaiuk,,-19.6313,169.3637,Vanuatu,VU,VUT,Tafea,Tafea,VU-TAE,province,,11.8,,,4,Pacific/Efate,FALSE,1548000171
Abatounbwabwa,Abatounbwabwa,,-15.5333,168.1500,Vanuatu,VU,VUT,Penama,Penama,VU-PAM,province,,117.7,,,4,Pacific/Efate,FALSE,1548067594
Néafou,Neafou,,-15.5833,167.0333,Vanuatu,VU,VUT,Sanma,Sanma,VU-SAM,province,,21.4,,,4,Pacific/Efate,FALSE,1548090207
Sanapapa,Sanapapa,,-15.6333,166.7667,Vanuatu,VU,VUT,Sanma,Sanma,VU-SAM,province,,15.7,,,4,Pacific/Efate,FALSE,1548255313
Iapangnava,Iapangnava,,-19.6038,169.3365,Vanuatu,VU,VUT,Tafea,Tafea,VU-TAE,province,,48.3,,,4,Pacific/Efate,FALSE,1548999983
Loaketapus,Loaketapus,,-19.4363,169.3307,Vanuatu,VU,VUT,Tafea,Tafea,VU-TAE,province,,27.6,,,4,Pacific/Efate,FALSE,1548000378
Nangouroua,Nangouroua,,-15.3667,168.1167,Vanuatu,VU,VUT,Penama,Penama,VU-PAM,province,,7.8,,,5,Pacific/Efate,FALSE,1548863185
"Imlau Beach Resort","Imlau Beach Resort",Imlao,-19.5751,169.2885,Vanuatu,VU,VUT,Tafea,Tafea,VU-TAE,province,,38.4,,,4,Pacific/Efate,FALSE,1548882034
Isaka,Isaka,,-19.4559,169.3376,Vanuatu,VU,VUT,Tafea,Tafea,VU-TAE,province,,64.7,,,4,Pacific/Efate,FALSE,1548000511
Isaka,Isaka,,-19.5321,169.4113,Vanuatu,VU,VUT,Tafea,Tafea,VU-TAE,province,,36.8,,,4,Pacific/Efate,TRUE,1548170966
Lolopwépwé,Lolopwepwe,Lolopuépé|Lolopuépué|Lolopuepue,-15.3000,167.8833,Vanuatu,VU,VUT,Penama,Penama,VU-PAM,province,,152.7,,,4,Pacific/Efate,FALSE,1548934630
Yaneumra,Yaneumra,,-19.5881,169.3502,Vanuatu,VU,VUT,Tafea,Tafea,VU-TAE,province,,53.2,,,4,Pacific/Efate,FALSE,1548000390
Vansémakoul,Vansemakoul,,-15.7667,168.1333,Vanuatu,VU,VUT,Penama,Penama,VU-PAM,province,,122.6,,,4,Pacific/Efate,FALSE,1548927031
Kalpokas,Kalpokas,,-13.7167,167.6278,Vanuatu,VU,VUT,Torba,Torba,VU-TOB,province,,363.4,,,3,Pacific/Efate,FALSE,1548000023
Fantiékon,Fantiekon,,-16.1333,168.1500,Vanuatu,VU,VUT,Malampa,Malampa,VU-MAP,province,,32.1,,,4,Pacific/Efate,FALSE,1548275030
Roupési,Roupesi,,-15.4833,166.8667,Vanuatu,VU,VUT,Sanma,Sanma,VU-SAM,province,,4.4,,,5,Pacific/Efate,FALSE,1548430949
Bwatnapné,Bwatnapne,Batnavni,-15.6667,168.1167,Vanuatu,VU,VUT,Penama,Penama,VU-PAM,province,,63.8,,,4,Pacific/Efate,FALSE,1548787846
Bitar,Bitar,,-16.0500,167.2167,Vanuatu,VU,VUT,Malampa,Malampa,VU-MAP,province,,18.9,,,4,Pacific/Efate,FALSE,1548109396
Unapek,Unapek,,-19.4473,169.3155,Vanuatu,VU,VUT,Tafea,Tafea,VU-TAE,province,,68.3,,,4,Pacific/Efate,FALSE,1548000322
Ikeupow,Ikeupow,Ikeupo,-19.4779,169.3339,Vanuatu,VU,VUT,Tafea,Tafea,VU-TAE,province,,41.7,,,4,Pacific/Efate,FALSE,1548699888
Loldomaé,Loldomae,,-15.4000,167.9167,Vanuatu,VU,VUT,Penama,Penama,VU-PAM,province,,11.4,,,4,Pacific/Efate,FALSE,1548276834
Lahonui,Lahonui,Lahoénuwi,-19.4677,169.3600,Vanuatu,VU,VUT,Tafea,Tafea,VU-TAE,province,,110.4,,,4,Pacific/Efate,FALSE,1548463267
Etap,Etap,Yétap,-19.5817,169.3357,Vanuatu,VU,VUT,Tafea,Tafea,VU-TAE,province,,37.9,,,4,Pacific/Efate,FALSE,1548266586
Saratamata,Saratamata,,-15.2875,167.9903,Vanuatu,VU,VUT,Penama,Penama,VU-PAM,province,admin,153.7,,,2,Pacific/Efate,FALSE,1548907051
Lekapo,Lekapo,,-19.5006,169.2460,Vanuatu,VU,VUT,Tafea,Tafea,VU-TAE,province,,355.2,,,3,Pacific/Efate,FALSE,1548000602
Lawisa,Lawisa,,-18.7833,169.2000,Vanuatu,VU,VUT,Tafea,Tafea,VU-TAE,province,,2.3,,,5,Pacific/Efate,FALSE,1548411108
Tafia,Tafia,,-17.0167,168.6167,Vanuatu,VU,VUT,Shefa,Shefa,VU-SEE,province,,87.4,,,4,Pacific/Efate,FALSE,1548419032
Lamalanga,Lamalanga,Raga,-15.4667,168.1333,Vanuatu,VU,VUT,Penama,Penama,VU-PAM,province,,186.8,,,4,Pacific/Efate,FALSE,1548572916
Bonkowia,Bonkowia,Bonkovia,-16.6667,168.1333,Vanuatu,VU,VUT,Shefa,Shefa,VU-SEE,province,,19.1,,,4,Pacific/Efate,FALSE,1548845233
Sounaï,Sounai,,-17.5333,168.2833,Vanuatu,VU,VUT,Shefa,Shefa,VU-SEE,province,,13.9,,,4,Pacific/Efate,FALSE,1548795462
Iakobone,Iakobone,,-15.0167,167.0500,Vanuatu,VU,VUT,Sanma,Sanma,VU-SAM,province,,8.8,,,5,Pacific/Efate,FALSE,1548579710
Ebao,Ebao,,-17.6167,168.5000,Vanuatu,VU,VUT,Shefa,Shefa,VU-SEE,province,,8.5,,,5,Pacific/Efate,FALSE,1548526373
Aop,Aop,,-16.0833,167.4000,Vanuatu,VU,VUT,Malampa,Malampa,VU-MAP,province,,251.9,,,3,Pacific/Efate,FALSE,1548575510
Maleliu,Maleliu,,-19.5044,169.4568,Vanuatu,VU,VUT,Tafea,Tafea,VU-TAE,province,,176.9,,,4,Pacific/Efate,FALSE,1548000404
Wéravénou,Weravenou,,-15.7333,168.1500,Vanuatu,VU,VUT,Penama,Penama,VU-PAM,province,,65.7,,,4,Pacific/Efate,FALSE,1548602864
Namassari,Namassari,,-14.2000,167.5667,Vanuatu,VU,VUT,Torba,Torba,VU-TOB,province,,7.2,,,5,Pacific/Efate,FALSE,1548743170
Lawaawa,Lawaawa,,-14.8667,166.7500,Vanuatu,VU,VUT,Sanma,Sanma,VU-SAM,province,,5.8,,,5,Pacific/Efate,FALSE,1548499456
Melto,Melto,,-16.1833,168.0833,Vanuatu,VU,VUT,Malampa,Malampa,VU-MAP,province,,2.3,,,5,Pacific/Efate,FALSE,1548345333
Tématou,Tematou,,-16.4833,168.3167,Vanuatu,VU,VUT,Malampa,Malampa,VU-MAP,province,,0,,,5,Pacific/Efate,FALSE,1548822466
Anabrou,Anabrou,,-17.7333,168.3011,Vanuatu,VU,VUT,Shefa,Shefa,VU-SEE,province,,2669.9,,,2,Pacific/Efate,FALSE,1548818905
Lanour,Lanour,,-16.5333,167.5667,Vanuatu,VU,VUT,Malampa,Malampa,VU-MAP,province,,5.4,,,5,Pacific/Efate,FALSE,1548277412
Pwélé,Pwele,,-15.1500,166.6333,Vanuatu,VU,VUT,Sanma,Sanma,VU-SAM,province,,2.4,,,5,Pacific/Efate,FALSE,1548022717
Yetukuri,Yetukuri,,-19.5249,169.5030,Vanuatu,VU,VUT,Tafea,Tafea,VU-TAE,province,,96.5,,,4,Pacific/Efate,FALSE,1548000466
Npénanavèt,Npenanavet,,-16.0167,167.1667,Vanuatu,VU,VUT,Malampa,Malampa,VU-MAP,province,,11.8,,,4,Pacific/Efate,FALSE,1548032472
Lenaokas,Lenaokas,Lenaükas,-19.4222,169.3183,Vanuatu,VU,VUT,Tafea,Tafea,VU-TAE,province,,18.1,,,4,Pacific/Efate,FALSE,1548504560
Yenaol,Yenaol,,-19.5039,169.4457,Vanuatu,VU,VUT,Tafea,Tafea,VU-TAE,province,,158.3,,,4,Pacific/Efate,FALSE,1548000310
Malaliu,Malaliu,Malaliou,-17.4690,168.3727,Vanuatu,VU,VUT,Shefa,Shefa,VU-SEE,province,,85.7,,,4,Pacific/Efate,FALSE,1548480240
Taboukavika,Taboukavika,,-15.5833,168.1167,Vanuatu,VU,VUT,Penama,Penama,VU-PAM,province,,111.8,,,4,Pacific/Efate,FALSE,1548378407
Lolsaliwann,Lolsaliwann,,-15.5333,168.1667,Vanuatu,VU,VUT,Penama,Penama,VU-PAM,province,,103.2,,,4,Pacific/Efate,FALSE,1548810528
Louealeuv,Louealeuv,,-19.4885,169.2556,Vanuatu,VU,VUT,Tafea,Tafea,VU-TAE,province,,64.2,,,4,Pacific/Efate,FALSE,1548000584
Mésabolo,Mesabolo,,-14.2167,167.4333,Vanuatu,VU,VUT,Torba,Torba,VU-TOB,province,,7.5,,,5,Pacific/Efate,FALSE,1548973037
Panbroun,Panbroun,"Saint Gabriel",-16.0000,168.2000,Vanuatu,VU,VUT,Penama,Penama,VU-PAM,province,,45.2,,,4,Pacific/Efate,FALSE,1548023539
Lounakiamapen,Lounakiamapen,,-19.4679,169.2875,Vanuatu,VU,VUT,Tafea,Tafea,VU-TAE,province,,75.3,,,4,Pacific/Efate,FALSE,1548000334
"Yaleuku Nuwi","Yaleuku Nuwi",,-19.5380,169.4105,Vanuatu,VU,VUT,Tafea,Tafea,VU-TAE,province,,37.8,,,4,Pacific/Efate,FALSE,1548000536
Païa,Paia,,-16.5833,168.2000,Vanuatu,VU,VUT,Shefa,Shefa,VU-SEE,province,,44.1,,,4,Pacific/Efate,FALSE,1548097779
Lepersivir,Lepersivir,,-16.3667,167.7667,Vanuatu,VU,VUT,Malampa,Malampa,VU-MAP,province,,15.3,,,4,Pacific/Efate,FALSE,1548050851
Létévenrar,Letevenrar,,-14.9833,167.0167,Vanuatu,VU,VUT,Sanma,Sanma,VU-SAM,province,,8.8,,,5,Pacific/Efate,FALSE,1548599908
"South River","South River",,-18.9500,169.1667,Vanuatu,VU,VUT,Tafea,Tafea,VU-TAE,province,,2.8,,,5,Pacific/Efate,FALSE,1548124325
Rovo,Rovo,,-16.3000,168.3000,Vanuatu,VU,VUT,Malampa,Malampa,VU-MAP,province,,13.4,,,4,Pacific/Efate,FALSE,1548959043
Lerasangoul,Lerasangoul,,-15.7000,168.1500,Vanuatu,VU,VUT,Penama,Penama,VU-PAM,province,,66.4,,,4,Pacific/Efate,FALSE,1548279603
Lonboué,Lonboue,,-15.9333,168.2500,Vanuatu,VU,VUT,Penama,Penama,VU-PAM,province,,40.7,,,4,Pacific/Efate,FALSE,1548735421
Yanfulia,Yanfulia,,-19.5452,169.3451,Vanuatu,VU,VUT,Tafea,Tafea,VU-TAE,province,,90.4,,,4,Pacific/Efate,FALSE,1548000496
Atangouroua,Atangouroua,,-15.5000,168.1500,Vanuatu,VU,VUT,Penama,Penama,VU-PAM,province,,66.7,,,4,Pacific/Efate,FALSE,1548089774
Mégam,Megam,Mogam|Magam|Megham,-16.1000,168.1333,Vanuatu,VU,VUT,Malampa,Malampa,VU-MAP,province,,149.5,,,4,Pacific/Efate,FALSE,1548760070
Imanariakene,Imanariakene,,-19.5167,169.2841,Vanuatu,VU,VUT,Tafea,Tafea,VU-TAE,province,,124.2,,,4,Pacific/Efate,FALSE,1548000381
Lenpupunamel,Lenpupunamel,,-19.4862,169.3044,Vanuatu,VU,VUT,Tafea,Tafea,VU-TAE,province,,51.8,,,4,Pacific/Efate,FALSE,1548000121
Avatouna,Avatouna,,-15.5167,168.1500,Vanuatu,VU,VUT,Penama,Penama,VU-PAM,province,,116.7,,,4,Pacific/Efate,FALSE,1548190244
Beer,Beer,,-15.6000,167.0333,Vanuatu,VU,VUT,Sanma,Sanma,VU-SAM,province,,7.6,,,5,Pacific/Efate,FALSE,1548058543
Yétakapé,Yetakape,Ytapoua,-19.6333,169.4500,Vanuatu,VU,VUT,Tafea,Tafea,VU-TAE,province,,103.7,,,4,Pacific/Efate,FALSE,1548513855
Drivaï,Drivai,Sainte-Anne,-16.4500,167.8167,Vanuatu,VU,VUT,Malampa,Malampa,VU-MAP,province,,16.2,,,4,Pacific/Efate,FALSE,1548073245
Konkon,Konkon,,-16.1500,168.1833,Vanuatu,VU,VUT,Malampa,Malampa,VU-MAP,province,,1.8,,,5,Pacific/Efate,FALSE,1548924674
Erévoulay,Erevoulay,,-15.6500,166.7667,Vanuatu,VU,VUT,Sanma,Sanma,VU-SAM,province,,15.7,,,4,Pacific/Efate,FALSE,1548848772
Ianakuli,Ianakuli,,-19.5071,169.4511,Vanuatu,VU,VUT,Tafea,Tafea,VU-TAE,province,,176.9,,,4,Pacific/Efate,FALSE,1548000500
"Krainuye Yeuken","Krainuye Yeuken",,-19.4785,169.3169,Vanuatu,VU,VUT,Tafea,Tafea,VU-TAE,province,,110.8,,,4,Pacific/Efate,FALSE,1548000363
Bigeïlan,Bigeilan,,-15.4333,166.8333,Vanuatu,VU,VUT,Sanma,Sanma,VU-SAM,province,,1.0,,,5,Pacific/Efate,FALSE,1548296534
Letawus,Letawus,,-19.5190,169.2677,Vanuatu,VU,VUT,Tafea,Tafea,VU-TAE,province,,160.7,,,4,Pacific/Efate,FALSE,1548000535
Saé,Sae,Saé-Béthel,-16.3667,168.2500,Vanuatu,VU,VUT,Malampa,Malampa,VU-MAP,province,,1.1,,,5,Pacific/Efate,FALSE,1548118376
Iakuankuma,Iakuankuma,,-19.6466,169.4156,Vanuatu,VU,VUT,Tafea,Tafea,VU-TAE,province,,17.8,,,4,Pacific/Efate,FALSE,1548000304
Lavavia,Lavavia,,-19.4778,169.3733,Vanuatu,VU,VUT,Tafea,Tafea,VU-TAE,province,,81.0,,,4,Pacific/Efate,FALSE,1548000600
Linarar,Linarar,,-16.1833,167.4667,Vanuatu,VU,VUT,Malampa,Malampa,VU-MAP,province,,9.8,,,5,Pacific/Efate,FALSE,1548278858
Yanareu,Yanareu,,-19.5776,169.3278,Vanuatu,VU,VUT,Tafea,Tafea,VU-TAE,province,,35.0,,,4,Pacific/Efate,FALSE,1548999996
Lamamas,Lamamas,,-13.8500,167.7000,Vanuatu,VU,VUT,Torba,Torba,VU-TOB,province,,74.9,,,4,Pacific/Efate,FALSE,1548812763
Lolovotali,Lolovotali,,-15.4500,167.8667,Vanuatu,VU,VUT,Penama,Penama,VU-PAM,province,,21.3,,,4,Pacific/Efate,FALSE,1548506551
Tataïkalo,Tataikalo,,-15.4667,166.9000,Vanuatu,VU,VUT,Sanma,Sanma,VU-SAM,province,,4.4,,,5,Pacific/Efate,FALSE,1548230109
Iwarau,Iwarau,,-19.4771,169.2636,Vanuatu,VU,VUT,Tafea,Tafea,VU-TAE,province,,10.1,,,4,Pacific/Efate,FALSE,1548000219
Narango,Narango,,-15.5500,166.9833,Vanuatu,VU,VUT,Sanma,Sanma,VU-SAM,province,,49.3,,,4,Pacific/Efate,FALSE,1548802028
Loloarou,Loloarou,,-15.3333,167.8000,Vanuatu,VU,VUT,Penama,Penama,VU-PAM,province,,21.9,,,4,Pacific/Efate,FALSE,1548853998
Natanopéta,Natanopeta,,-15.6333,166.9500,Vanuatu,VU,VUT,Sanma,Sanma,VU-SAM,province,,67.2,,,4,Pacific/Efate,FALSE,1548840448
Lounepina,Lounepina,Lownepina,-19.3430,169.3418,Vanuatu,VU,VUT,Tafea,Tafea,VU-TAE,province,,25.9,,,4,Pacific/Efate,FALSE,1548341204
Anémek,Anemek,,-20.2333,169.8000,Vanuatu,VU,VUT,Tafea,Tafea,VU-TAE,province,,8.1,,,5,Pacific/Efate,FALSE,1548344023
Batambou,Batambou,Natambu,-16.2167,167.5833,Vanuatu,VU,VUT,Malampa,Malampa,VU-MAP,province,,51.0,,,4,Pacific/Efate,FALSE,1548651360
Batountalbarav,Batountalbarav,,-15.4667,166.9333,Vanuatu,VU,VUT,Sanma,Sanma,VU-SAM,province,,4.4,,,5,Pacific/Efate,FALSE,1548109844
Fanpatey,Fanpatey,,-15.4000,168.1333,Vanuatu,VU,VUT,Penama,Penama,VU-PAM,province,,7.8,,,5,Pacific/Efate,FALSE,1548458633
"Rock Pools","Rock Pools",,-17.7050,168.2249,Vanuatu,VU,VUT,Shefa,Shefa,VU-SEE,province,,10.7,,,4,Pacific/Efate,FALSE,1548000092
Lasoulé,Lasoule,,-15.6000,166.9000,Vanuatu,VU,VUT,Sanma,Sanma,VU-SAM,province,,57.6,,,4,Pacific/Efate,FALSE,1548233309
Lasoulé,Lasoule,,-15.4000,166.8000,Vanuatu,VU,VUT,Sanma,Sanma,VU-SAM,province,,4.3,,,5,Pacific/Efate,TRUE,1548512718
Lenagiang,Lenagiang,,-19.5265,169.3224,Vanuatu,VU,VUT,Tafea,Tafea,VU-TAE,province,,173.1,,,4,Pacific/Efate,FALSE,1548000532
Ambao,Ambao,,-15.2833,167.9333,Vanuatu,VU,VUT,Penama,Penama,VU-PAM,province,,58.4,,,4,Pacific/Efate,FALSE,1548787833
Neheurana,Neheurana,,-19.5642,169.4273,Vanuatu,VU,VUT,Tafea,Tafea,VU-TAE,province,,29.4,,,4,Pacific/Efate,FALSE,1548000365
Enbaraben,Enbaraben,,-19.4634,169.3637,Vanuatu,VU,VUT,Tafea,Tafea,VU-TAE,province,,76.3,,,4,Pacific/Efate,FALSE,1548000123
Enpeklapen,Enpeklapen,,-19.4015,169.3342,Vanuatu,VU,VUT,Tafea,Tafea,VU-TAE,province,,21.9,,,4,Pacific/Efate,FALSE,1548596176
Wéilbéri,Weilberi,,-15.0833,167.0167,Vanuatu,VU,VUT,Sanma,Sanma,VU-SAM,province,,1.7,,,5,Pacific/Efate,FALSE,1548405443
"Lapang Nuying","Lapang Nuying",,-19.4591,169.3138,Vanuatu,VU,VUT,Tafea,Tafea,VU-TAE,province,,163.3,,,4,Pacific/Efate,FALSE,1548000471
Toou,Toou,Tow,-16.2333,167.9500,Vanuatu,VU,VUT,Malampa,Malampa,VU-MAP,province,,2.4,,,5,Pacific/Efate,FALSE,1548596123
Lolowarou,Lolowarou,,-15.0833,168.0667,Vanuatu,VU,VUT,Penama,Penama,VU-PAM,province,,16.4,,,4,Pacific/Efate,FALSE,1548405475
Barik,Barik,,-16.1667,167.4833,Vanuatu,VU,VUT,Malampa,Malampa,VU-MAP,province,,11.3,,,4,Pacific/Efate,FALSE,1548527868
Anoyac,Anoyac,Anaouya,-20.2418,169.8275,Vanuatu,VU,VUT,Tafea,Tafea,VU-TAE,province,,7.3,,,5,Pacific/Efate,FALSE,1548922044
Louniel,Louniel,Loouniel,-19.4803,169.4123,Vanuatu,VU,VUT,Tafea,Tafea,VU-TAE,province,,173.9,,,4,Pacific/Efate,FALSE,1548050785
Louniel,Louniel,,-19.4216,169.3466,Vanuatu,VU,VUT,Tafea,Tafea,VU-TAE,province,,18.1,,,4,Pacific/Efate,TRUE,1548000346
Taïwi,Taiwi,,-18.9167,169.0833,Vanuatu,VU,VUT,Tafea,Tafea,VU-TAE,province,,2.3,,,5,Pacific/Efate,FALSE,1548702954
Yatalotu,Yatalotu,,-20.2268,169.7917,Vanuatu,VU,VUT,Tafea,Tafea,VU-TAE,province,,8.1,,,5,Pacific/Efate,FALSE,1548000488
Wormet,Wormet,,-15.9635,167.3199,Vanuatu,VU,VUT,Malampa,Malampa,VU-MAP,province,,31.3,,,4,Pacific/Efate,FALSE,1548608181
Yakmanuia,Yakmanuia,,-19.6458,169.3972,Vanuatu,VU,VUT,Tafea,Tafea,VU-TAE,province,,17.8,,,4,Pacific/Efate,FALSE,1548999985
Rata,Rata,,-15.3500,166.8000,Vanuatu,VU,VUT,Sanma,Sanma,VU-SAM,province,,4.8,,,5,Pacific/Efate,FALSE,1548606449
Pounalvat,Pounalvat,,-18.6333,169.0833,Vanuatu,VU,VUT,Tafea,Tafea,VU-TAE,province,,2.3,,,5,Pacific/Efate,FALSE,1548545141
"Ndui Ndui","Ndui Ndui","Douin Doui|Dovin Doui|Duin Dui",-15.4000,167.7667,Vanuatu,VU,VUT,Penama,Penama,VU-PAM,province,,9.0,,,4,Pacific/Efate,FALSE,1548067237
Lenatam,Lenatam,,-19.5194,169.2838,Vanuatu,VU,VUT,Tafea,Tafea,VU-TAE,province,,124.2,,,4,Pacific/Efate,FALSE,1548000501
Atavoa,Atavoa,,-15.3000,167.9833,Vanuatu,VU,VUT,Penama,Penama,VU-PAM,province,,112.8,,,4,Pacific/Efate,FALSE,1548276738
Louanamageng,Louanamageng,,-19.4563,169.3083,Vanuatu,VU,VUT,Tafea,Tafea,VU-TAE,province,,50.7,,,4,Pacific/Efate,FALSE,1548000451
Amplithei,Amplithei,,-20.2361,169.8160,Vanuatu,VU,VUT,Tafea,Tafea,VU-TAE,province,,8.1,,,5,Pacific/Efate,FALSE,1548000179
Nonona,Nonona,,-15.3500,166.7833,Vanuatu,VU,VUT,Sanma,Sanma,VU-SAM,province,,2.3,,,5,Pacific/Efate,FALSE,1548853670
Loutal,Loutal,Looutel,-19.5031,169.2490,Vanuatu,VU,VUT,Tafea,Tafea,VU-TAE,province,,355.2,,,3,Pacific/Efate,FALSE,1548156672
Molorhaï,Molorhai,,-16.5500,167.8333,Vanuatu,VU,VUT,Malampa,Malampa,VU-MAP,province,,0,,,5,Pacific/Efate,FALSE,1548941244
Lolovangé,Lolovange,,-15.3167,167.8833,Vanuatu,VU,VUT,Penama,Penama,VU-PAM,province,,14.0,,,4,Pacific/Efate,FALSE,1548831936
Lolovélé,Lolovele,Lolovoli,-15.4667,167.8500,Vanuatu,VU,VUT,Penama,Penama,VU-PAM,province,,25.3,,,4,Pacific/Efate,FALSE,1548956247
Lamarakaï,Lamarakai,,-15.4833,166.8167,Vanuatu,VU,VUT,Sanma,Sanma,VU-SAM,province,,4.4,,,5,Pacific/Efate,FALSE,1548198488
Ehniu,Ehniu,Eniou,-19.3628,169.3014,Vanuatu,VU,VUT,Tafea,Tafea,VU-TAE,province,,183.5,,,4,Pacific/Efate,FALSE,1548462242
Matié,Matie,,-16.3000,168.2833,Vanuatu,VU,VUT,Malampa,Malampa,VU-MAP,province,,13.4,,,4,Pacific/Efate,FALSE,1548982015
Lenepin,Lenepin,Lénépin,-19.4458,169.2936,Vanuatu,VU,VUT,Tafea,Tafea,VU-TAE,province,,70.9,,,4,Pacific/Efate,FALSE,1548895686
P̄ang-P̄ang,Pang-Pang,,-17.6833,168.5333,Vanuatu,VU,VUT,Shefa,Shefa,VU-SEE,province,,7.0,,,5,Pacific/Efate,FALSE,1548428326
Iatapu,Iatapu,,-19.5509,169.4555,Vanuatu,VU,VUT,Tafea,Tafea,VU-TAE,province,,15.5,,,4,Pacific/Efate,FALSE,1548000130
Loméméti,Lomemeti,,-19.5000,169.4500,Vanuatu,VU,VUT,Tafea,Tafea,VU-TAE,province,,246.9,,,3,Pacific/Efate,FALSE,1548514819
Imnalkaip,Imnalkaip,Yimnakayip,-19.4006,169.3114,Vanuatu,VU,VUT,Tafea,Tafea,VU-TAE,province,,38.5,,,4,Pacific/Efate,FALSE,1548700426
Tangis,Tangis,,-15.5833,167.0167,Vanuatu,VU,VUT,Sanma,Sanma,VU-SAM,province,,34.8,,,4,Pacific/Efate,FALSE,1548017059
Pancros,Pancros,Pōinkros,-16.0167,168.2167,Vanuatu,VU,VUT,Penama,Penama,VU-PAM,province,,45.2,,,4,Pacific/Efate,FALSE,1548339633
Yalela,Yalela,,-20.1939,169.7472,Vanuatu,VU,VUT,Tafea,Tafea,VU-TAE,province,,8.1,,,5,Pacific/Efate,FALSE,1548000431
Imal,Imal,,-19.5489,169.2848,Vanuatu,VU,VUT,Tafea,Tafea,VU-TAE,province,,276.6,,,3,Pacific/Efate,FALSE,1548000395
Letobom,Letobom,,-19.5044,169.2729,Vanuatu,VU,VUT,Tafea,Tafea,VU-TAE,province,,217.8,,,3,Pacific/Efate,FALSE,1548000318
Alélé,Alele,,-15.5167,168.1667,Vanuatu,VU,VUT,Penama,Penama,VU-PAM,province,,101.9,,,4,Pacific/Efate,FALSE,1548190219
Nanguilé,Nanguile,,-17.7667,168.3000,Vanuatu,VU,VUT,Shefa,Shefa,VU-SEE,province,,1556.8,,,3,Pacific/Efate,FALSE,1548851711
Tano,Tano,,-13.5039,167.3169,Vanuatu,VU,VUT,Torba,Torba,VU-TOB,province,,12.4,,,4,Pacific/Efate,FALSE,1548000071
Lounamilo,Lounamilo,,-19.4454,169.2881,Vanuatu,VU,VUT,Tafea,Tafea,VU-TAE,province,,48.4,,,4,Pacific/Efate,FALSE,1548000603
Iamanse,Iamanse,,-19.5528,169.4554,Vanuatu,VU,VUT,Tafea,Tafea,VU-TAE,province,,15.5,,,4,Pacific/Efate,FALSE,1548000153
Natavoa,Natavoa,,-15.5167,166.8500,Vanuatu,VU,VUT,Sanma,Sanma,VU-SAM,province,,4.4,,,5,Pacific/Efate,FALSE,1548591176
Lounuala,Lounuala,Loounaoula,-19.4384,169.3031,Vanuatu,VU,VUT,Tafea,Tafea,VU-TAE,province,,81.8,,,4,Pacific/Efate,FALSE,1548472619
Koulouwan,Koulouwan,,-15.4667,166.8167,Vanuatu,VU,VUT,Sanma,Sanma,VU-SAM,province,,4.4,,,5,Pacific/Efate,FALSE,1548098893
Telaklak,Telaklak,,-13.3408,166.6394,Vanuatu,VU,VUT,Torba,Torba,VU-TOB,province,,18.6,,,4,Pacific/Efate,FALSE,1548000007
Natowoulata,Natowoulata,,-14.9500,168.0500,Vanuatu,VU,VUT,Penama,Penama,VU-PAM,province,,6.8,,,5,Pacific/Efate,FALSE,1548605832
Konaékeun,Konaekeun,,-19.4833,169.3000,Vanuatu,VU,VUT,Tafea,Tafea,VU-TAE,province,,38.9,,,4,Pacific/Efate,FALSE,1548956685
Utche,Utche,,-20.2231,169.7657,Vanuatu,VU,VUT,Tafea,Tafea,VU-TAE,province,,8.1,,,5,Pacific/Efate,FALSE,1548000514
Lonépéyéwié,Lonepeyewie,,-19.4500,169.2833,Vanuatu,VU,VUT,Tafea,Tafea,VU-TAE,province,,45.4,,,4,Pacific/Efate,FALSE,1548693753
Boworik,Boworik,,-13.7659,167.5261,Vanuatu,VU,VUT,Torba,Torba,VU-TOB,province,,5.2,,,5,Pacific/Efate,FALSE,1548000055
Imale,Imale,,-19.5098,169.4560,Vanuatu,VU,VUT,Tafea,Tafea,VU-TAE,province,,143.2,,,4,Pacific/Efate,FALSE,1548000573
Imale,Imale,Imalé,-19.2540,169.5958,Vanuatu,VU,VUT,Tafea,Tafea,VU-TAE,province,,35.9,,,4,Pacific/Efate,TRUE,1548130709
Panmouwouom,Panmouwouom,,-16.2500,168.3833,Vanuatu,VU,VUT,Malampa,Malampa,VU-MAP,province,,0,,,5,Pacific/Efate,FALSE,1548661832
Nokowoula,Nokowoula,,-15.3500,166.7333,Vanuatu,VU,VUT,Sanma,Sanma,VU-SAM,province,,3.5,,,5,Pacific/Efate,FALSE,1548109824
Loonékiyawileung,Loonekiyawileung,,-19.4833,169.2500,Vanuatu,VU,VUT,Tafea,Tafea,VU-TAE,province,,9.6,,,5,Pacific/Efate,FALSE,1548129242
Navonda,Navonda,,-15.3167,167.9667,Vanuatu,VU,VUT,Penama,Penama,VU-PAM,province,,27.7,,,4,Pacific/Efate,FALSE,1548239830
Rétour,Retour,,-16.3667,167.7667,Vanuatu,VU,VUT,Malampa,Malampa,VU-MAP,province,,15.3,,,4,Pacific/Efate,FALSE,1548275587
Ianamu,Ianamu,,-19.6161,169.4664,Vanuatu,VU,VUT,Tafea,Tafea,VU-TAE,province,,18.1,,,4,Pacific/Efate,FALSE,1548000155
Atsoma,Atsoma,,-15.4667,166.7500,Vanuatu,VU,VUT,Sanma,Sanma,VU-SAM,province,,5.5,,,5,Pacific/Efate,FALSE,1548708187
Loné,Lone,,-15.3667,167.7500,Vanuatu,VU,VUT,Penama,Penama,VU-PAM,province,,59.3,,,4,Pacific/Efate,FALSE,1548940303
Nevor,Nevor,,-15.8446,168.1743,Vanuatu,VU,VUT,Penama,Penama,VU-PAM,province,,10.9,,,4,Pacific/Efate,FALSE,1548501301
Iléreup,Ilereup,,-19.4333,169.2833,Vanuatu,VU,VUT,Tafea,Tafea,VU-TAE,province,,71.3,,,4,Pacific/Efate,FALSE,1548385210
Amok,Amok,,-16.0667,167.2167,Vanuatu,VU,VUT,Malampa,Malampa,VU-MAP,province,,7.5,,,5,Pacific/Efate,FALSE,1548086596
Anisinecen,Anisinecen,,-20.2421,169.7824,Vanuatu,VU,VUT,Tafea,Tafea,VU-TAE,province,,8.1,,,5,Pacific/Efate,FALSE,1548000538
Fisina,Fisina,,-16.6333,168.1500,Vanuatu,VU,VUT,Shefa,Shefa,VU-SEE,province,,29.9,,,4,Pacific/Efate,FALSE,1548861003
"Lamkail Ifa","Lamkail Ifa",,-19.4928,169.2447,Vanuatu,VU,VUT,Tafea,Tafea,VU-TAE,province,,95.0,,,4,Pacific/Efate,FALSE,1548000218
Iounambas,Iounambas,,-19.5458,169.3304,Vanuatu,VU,VUT,Tafea,Tafea,VU-TAE,province,,233.6,,,3,Pacific/Efate,FALSE,1548000157
Naano,Naano,,-15.1333,166.8000,Vanuatu,VU,VUT,Sanma,Sanma,VU-SAM,province,,6.8,,,5,Pacific/Efate,FALSE,1548688587
Labangtuai,Labangtuai,,-19.5302,169.3078,Vanuatu,VU,VUT,Tafea,Tafea,VU-TAE,province,,108.0,,,4,Pacific/Efate,FALSE,1548000111
Kariamaoura,Kariamaoura,,-15.7833,166.7167,Vanuatu,VU,VUT,Sanma,Sanma,VU-SAM,province,,0,,,5,Pacific/Efate,FALSE,1548637242
Launaleng,Launaleng,Laounalang,-19.3800,169.3098,Vanuatu,VU,VUT,Tafea,Tafea,VU-TAE,province,,173.3,,,4,Pacific/Efate,FALSE,1548606585
Yaotilie,Yaotilie,,-16.2875,167.9939,Vanuatu,VU,VUT,Malampa,Malampa,VU-MAP,province,,26.4,,,4,Pacific/Efate,FALSE,1548881740
Vovo,Vovo,,-16.8167,168.1833,Vanuatu,VU,VUT,Shefa,Shefa,VU-SEE,province,,6.1,,,5,Pacific/Efate,FALSE,1548469061
Batouitano,Batouitano,,-15.4167,166.8500,Vanuatu,VU,VUT,Sanma,Sanma,VU-SAM,province,,1.0,,,5,Pacific/Efate,FALSE,1548375167
Founpat,Founpat,,-15.4500,166.8667,Vanuatu,VU,VUT,Sanma,Sanma,VU-SAM,province,,1.0,,,5,Pacific/Efate,FALSE,1548317649
Oulé,Oule,,-16.3333,168.2833,Vanuatu,VU,VUT,Malampa,Malampa,VU-MAP,province,,24.6,,,4,Pacific/Efate,FALSE,1548827718
Lamitatal,Lamitatal,,-19.4952,169.2995,Vanuatu,VU,VUT,Tafea,Tafea,VU-TAE,province,,74.6,,,4,Pacific/Efate,FALSE,1548000101
Suiua,Suiua,,-17.0615,168.3640,Vanuatu,VU,VUT,Malampa,Malampa,VU-MAP,province,,6.5,,,5,Pacific/Efate,FALSE,1548685433
Namalao,Namalao,,-15.4333,166.8167,Vanuatu,VU,VUT,Sanma,Sanma,VU-SAM,province,,1.0,,,5,Pacific/Efate,FALSE,1548085939
Douane,Douane,,-15.5333,167.1500,Vanuatu,VU,VUT,Sanma,Sanma,VU-SAM,province,,162.7,,,4,Pacific/Efate,FALSE,1548193995
Matanpousa,Matanpousa,,-15.3833,167.2167,Vanuatu,VU,VUT,Sanma,Sanma,VU-SAM,province,,51.7,,,4,Pacific/Efate,FALSE,1548393394
Lenok,Lenok,,-15.7333,168.1500,Vanuatu,VU,VUT,Penama,Penama,VU-PAM,province,,65.7,,,4,Pacific/Efate,FALSE,1548982134
"Lownien Apihil","Lownien Apihil",,-19.4688,169.3704,Vanuatu,VU,VUT,Tafea,Tafea,VU-TAE,province,,69.0,,,4,Pacific/Efate,FALSE,1548000263
Yokwana,Yokwana,,-13.1489,166.5820,Vanuatu,VU,VUT,Torba,Torba,VU-TOB,province,,6.8,,,5,Pacific/Efate,FALSE,1548196771
Latouptoup,Latouptoup,,-15.4000,166.7667,Vanuatu,VU,VUT,Sanma,Sanma,VU-SAM,province,,4.8,,,5,Pacific/Efate,FALSE,1548848217
Looulooupou,Looulooupou,,-19.5000,169.4333,Vanuatu,VU,VUT,Tafea,Tafea,VU-TAE,province,,117.9,,,4,Pacific/Efate,FALSE,1548442238
Poporonous,Poporonous,,-15.5000,166.7667,Vanuatu,VU,VUT,Sanma,Sanma,VU-SAM,province,,5.5,,,5,Pacific/Efate,FALSE,1548055300
Namal,Namal,,-13.8881,167.5444,Vanuatu,VU,VUT,Torba,Torba,VU-TOB,province,,14.8,,,4,Pacific/Efate,FALSE,1548000063
Loulumus,Loulumus,,-19.5105,169.2791,Vanuatu,VU,VUT,Tafea,Tafea,VU-TAE,province,,64.9,,,4,Pacific/Efate,FALSE,1548000490
Pouillet,Pouillet,,-19.5333,169.2500,Vanuatu,VU,VUT,Tafea,Tafea,VU-TAE,province,,118.6,,,4,Pacific/Efate,FALSE,1548325415
Samo,Samo,,-19.5333,169.4833,Vanuatu,VU,VUT,Tafea,Tafea,VU-TAE,province,,13.3,,,4,Pacific/Efate,FALSE,1548107667
Lanpupunipen,Lanpupunipen,,-19.4736,169.3028,Vanuatu,VU,VUT,Tafea,Tafea,VU-TAE,province,,47.5,,,4,Pacific/Efate,FALSE,1548000231
Ringdove,Ringdove,,-16.6333,168.1500,Vanuatu,VU,VUT,Shefa,Shefa,VU-SEE,province,,29.9,,,4,Pacific/Efate,FALSE,1548662771
Tikilasoa,Tikilasoa,,-17.4832,168.3848,Vanuatu,VU,VUT,Shefa,Shefa,VU-SEE,province,,392.0,,,3,Pacific/Efate,FALSE,1548260965
Sésivi,Sesivi,Batin|Bat|Sessivi,-16.3167,167.9833,Vanuatu,VU,VUT,Malampa,Malampa,VU-MAP,province,,26.4,,,4,Pacific/Efate,FALSE,1548958661
Lounapik,Lounapik,,-19.4779,169.3473,Vanuatu,VU,VUT,Tafea,Tafea,VU-TAE,province,,90.5,,,4,Pacific/Efate,FALSE,1548000372
Nabènbèné,Nabenbene,,-15.1333,168.0833,Vanuatu,VU,VUT,Penama,Penama,VU-PAM,province,,14.1,,,4,Pacific/Efate,FALSE,1548984967
Ransaré,Ransare,,-16.2167,167.5667,Vanuatu,VU,VUT,Malampa,Malampa,VU-MAP,province,,25.6,,,4,Pacific/Efate,FALSE,1548363755
Lounaparu,Lounaparu,,-19.4724,169.2645,Vanuatu,VU,VUT,Tafea,Tafea,VU-TAE,province,,9.6,,,5,Pacific/Efate,FALSE,1548000237
Wadounbaba,Wadounbaba,,-15.7000,168.1167,Vanuatu,VU,VUT,Penama,Penama,VU-PAM,province,,68.4,,,4,Pacific/Efate,FALSE,1548079271
Lewiar,Lewiar,,-19.3423,169.2623,Vanuatu,VU,VUT,Tafea,Tafea,VU-TAE,province,,35.3,,,4,Pacific/Efate,FALSE,1548000276
Louital,Louital,Lowiteul,-19.3312,169.2750,Vanuatu,VU,VUT,Tafea,Tafea,VU-TAE,province,,41.1,,,4,Pacific/Efate,FALSE,1548887048
Anitchawo,Anitchawo,,-20.1333,169.8167,Vanuatu,VU,VUT,Tafea,Tafea,VU-TAE,province,,4.6,,,5,Pacific/Efate,FALSE,1548190093
Imaelone,Imaelone,,-19.4819,169.2373,Vanuatu,VU,VUT,Tafea,Tafea,VU-TAE,province,,9.6,,,5,Pacific/Efate,FALSE,1548000326
Lowliuliu,Lowliuliu,,-19.5192,169.2762,Vanuatu,VU,VUT,Tafea,Tafea,VU-TAE,province,,158.4,,,4,Pacific/Efate,FALSE,1548000595
Naïngama,Naingama,,-15.3500,167.9167,Vanuatu,VU,VUT,Penama,Penama,VU-PAM,province,,37.4,,,4,Pacific/Efate,FALSE,1548931335
Melsisi,Melsisi,,-15.7380,168.1350,Vanuatu,VU,VUT,Penama,Penama,VU-PAM,province,,236.9,,,3,Pacific/Efate,FALSE,1548345112
Lararomboha,Lararomboha,,-15.5333,168.1333,Vanuatu,VU,VUT,Penama,Penama,VU-PAM,province,,119.8,,,4,Pacific/Efate,FALSE,1548004813
Ambousi,Ambousi,,-15.3000,167.8667,Vanuatu,VU,VUT,Penama,Penama,VU-PAM,province,,110.1,,,4,Pacific/Efate,FALSE,1548555449
Yatalao,Yatalao,,-20.2254,169.7930,Vanuatu,VU,VUT,Tafea,Tafea,VU-TAE,province,,8.1,,,5,Pacific/Efate,FALSE,1548000295
Koraioken,Koraioken,,-19.5833,169.3311,Vanuatu,VU,VUT,Tafea,Tafea,VU-TAE,province,,34.9,,,4,Pacific/Efate,FALSE,1548000302
Périmengdé,Perimengde,,-13.7000,167.6167,Vanuatu,VU,VUT,Torba,Torba,VU-TOB,province,,921.9,,,3,Pacific/Efate,FALSE,1548622874
Naréa,Narea,,-15.0500,168.0667,Vanuatu,VU,VUT,Penama,Penama,VU-PAM,province,,16.1,,,4,Pacific/Efate,FALSE,1548002604
Katbol,Katbol,,-16.1833,167.4667,Vanuatu,VU,VUT,Malampa,Malampa,VU-MAP,province,,9.8,,,5,Pacific/Efate,FALSE,1548147702
Sénal,Senal,,-16.1000,167.4167,Vanuatu,VU,VUT,Malampa,Malampa,VU-MAP,province,,36.8,,,4,Pacific/Efate,FALSE,1548981405
Bénéhour,Benehour,,-16.5000,167.4167,Vanuatu,VU,VUT,Malampa,Malampa,VU-MAP,province,,44.3,,,4,Pacific/Efate,FALSE,1548104192
Bumboko,Bumboko,,-16.8167,168.2667,Vanuatu,VU,VUT,Shefa,Shefa,VU-SEE,province,,6.1,,,5,Pacific/Efate,FALSE,1548773259
"Kamel Léwawa","Kamel Lewawa",,-15.6500,168.1167,Vanuatu,VU,VUT,Penama,Penama,VU-PAM,province,,60.9,,,4,Pacific/Efate,FALSE,1548949342
Lewatak,Lewatak,,-13.7547,167.5193,Vanuatu,VU,VUT,Torba,Torba,VU-TOB,province,,5.2,,,5,Pacific/Efate,FALSE,1548000051
Vatiinopo,Vatiinopo,,-15.4333,166.8167,Vanuatu,VU,VUT,Sanma,Sanma,VU-SAM,province,,1.0,,,5,Pacific/Efate,FALSE,1548493197
"Taal Nétan","Taal Netan",,-16.5000,168.2000,Vanuatu,VU,VUT,Malampa,Malampa,VU-MAP,province,,59.9,,,4,Pacific/Efate,FALSE,1548970903
Safiou,Safiou,,-16.9167,168.5333,Vanuatu,VU,VUT,Shefa,Shefa,VU-SEE,province,,58.3,,,4,Pacific/Efate,FALSE,1548256372
Boton,Boton,,-16.2333,167.5667,Vanuatu,VU,VUT,Malampa,Malampa,VU-MAP,province,,21.2,,,4,Pacific/Efate,FALSE,1548930723
Namsafoura,Namsafoura,,-19.2500,169.5833,Vanuatu,VU,VUT,Tafea,Tafea,VU-TAE,province,,35.9,,,4,Pacific/Efate,FALSE,1548780533
Kérembéi,Kerembei,Kerembai,-15.1167,168.0667,Vanuatu,VU,VUT,Penama,Penama,VU-PAM,province,,43.5,,,4,Pacific/Efate,FALSE,1548753361
Lonbouréoul,Lonboureoul,,-16.0000,168.2000,Vanuatu,VU,VUT,Penama,Penama,VU-PAM,province,,45.2,,,4,Pacific/Efate,FALSE,1548691009
Loutapunga,Loutapunga,Looutopounga,-19.4864,169.3917,Vanuatu,VU,VUT,Tafea,Tafea,VU-TAE,province,,93.1,,,4,Pacific/Efate,FALSE,1548976345
Limalgan,Limalgan,,-15.6667,168.1167,Vanuatu,VU,VUT,Penama,Penama,VU-PAM,province,,63.8,,,4,Pacific/Efate,FALSE,1548973184
Iakel,Iakel,,-19.5443,169.3365,Vanuatu,VU,VUT,Tafea,Tafea,VU-TAE,province,,228.9,,,3,Pacific/Efate,FALSE,1548000541
Napor,Napor,,-13.8333,167.6833,Vanuatu,VU,VUT,Torba,Torba,VU-TOB,province,,140.8,,,4,Pacific/Efate,FALSE,1548774066
Isis,Isis,,-19.4449,169.2718,Vanuatu,VU,VUT,Tafea,Tafea,VU-TAE,province,,46.6,,,4,Pacific/Efate,FALSE,1548000172
Ivei,Ivei,Iwey,-19.5390,169.3371,Vanuatu,VU,VUT,Tafea,Tafea,VU-TAE,province,,128.9,,,4,Pacific/Efate,FALSE,1548202905
Ikurakus,Ikurakus,,-19.5361,169.3048,Vanuatu,VU,VUT,Tafea,Tafea,VU-TAE,province,,124.9,,,4,Pacific/Efate,FALSE,1548000409
Maé,Mae,,-16.0667,167.3667,Vanuatu,VU,VUT,Malampa,Malampa,VU-MAP,province,,34.7,,,4,Pacific/Efate,FALSE,1548302145
Lémettou,Lemettou,,-16.0833,167.1500,Vanuatu,VU,VUT,Malampa,Malampa,VU-MAP,province,,11.4,,,4,Pacific/Efate,FALSE,1548521429
Tasmate,Tasmate,,-13.8539,167.6841,Vanuatu,VU,VUT,Torba,Torba,VU-TOB,province,,56.0,,,4,Pacific/Efate,FALSE,1548000075
Kaïntsouro,Kaintsouro,,-15.4667,166.8833,Vanuatu,VU,VUT,Sanma,Sanma,VU-SAM,province,,4.4,,,5,Pacific/Efate,FALSE,1548776701
Ngalavasorou,Ngalavasorou,,-16.6000,168.1167,Vanuatu,VU,VUT,Shefa,Shefa,VU-SEE,province,,532.4,,,3,Pacific/Efate,FALSE,1548030364
Pohourour,Pohourour,,-15.9667,168.2667,Vanuatu,VU,VUT,Penama,Penama,VU-PAM,province,,44.1,,,4,Pacific/Efate,FALSE,1548691647
Yakasap,Yakasap,,-19.5752,169.3354,Vanuatu,VU,VUT,Tafea,Tafea,VU-TAE,province,,37.9,,,4,Pacific/Efate,FALSE,1548000321
Imerang,Imerang,Nazareth|Imreang,-19.5236,169.4064,Vanuatu,VU,VUT,Tafea,Tafea,VU-TAE,province,,18.5,,,4,Pacific/Efate,FALSE,1548735143
Koalimiken,Koalimiken,,-19.4783,169.3010,Vanuatu,VU,VUT,Tafea,Tafea,VU-TAE,province,,38.9,,,4,Pacific/Efate,FALSE,1548000147
"Les Lagunes","Les Lagunes",,-17.7333,168.3333,Vanuatu,VU,VUT,Shefa,Shefa,VU-SEE,province,,1039.2,,,3,Pacific/Efate,FALSE,1548002872
Akam,Akam,,-16.5167,167.6500,Vanuatu,VU,VUT,Malampa,Malampa,VU-MAP,province,,1158.2,,,3,Pacific/Efate,FALSE,1548845916
Kaïpiloa,Kaipiloa,,-15.4000,166.8000,Vanuatu,VU,VUT,Sanma,Sanma,VU-SAM,province,,4.3,,,5,Pacific/Efate,FALSE,1548782601
Lélvah,Lelvah,,-15.7000,168.1167,Vanuatu,VU,VUT,Penama,Penama,VU-PAM,province,,68.4,,,4,Pacific/Efate,FALSE,1548521202
Naroutoli,Naroutoli,,-15.4833,166.9000,Vanuatu,VU,VUT,Sanma,Sanma,VU-SAM,province,,4.4,,,5,Pacific/Efate,FALSE,1548195952
Yapkwelin,Yapkwelin,,-19.5397,169.3559,Vanuatu,VU,VUT,Tafea,Tafea,VU-TAE,province,,43.9,,,4,Pacific/Efate,FALSE,1548000465
Lowitava,Lowitava,,-15.3000,167.9000,Vanuatu,VU,VUT,Penama,Penama,VU-PAM,province,,139.6,,,4,Pacific/Efate,FALSE,1548748577
Nakouita,Nakouita,,-15.6000,168.1167,Vanuatu,VU,VUT,Penama,Penama,VU-PAM,province,,30.0,,,4,Pacific/Efate,FALSE,1548048521
Ietelket,Ietelket,,-19.5482,169.3256,Vanuatu,VU,VUT,Tafea,Tafea,VU-TAE,province,,233.6,,,3,Pacific/Efate,FALSE,1548000215
Yatakwaskamil,Yatakwaskamil,,-19.5442,169.3125,Vanuatu,VU,VUT,Tafea,Tafea,VU-TAE,province,,115.2,,,4,Pacific/Efate,FALSE,1548000272
Rambak,Rambak,,-16.0500,167.1500,Vanuatu,VU,VUT,Malampa,Malampa,VU-MAP,province,,12.2,,,4,Pacific/Efate,FALSE,1548149457
Itaing,Itaing,,-19.3776,169.2960,Vanuatu,VU,VUT,Tafea,Tafea,VU-TAE,province,,168.9,,,4,Pacific/Efate,FALSE,1548000498
Louelapoma,Louelapoma,Loélafomwa,-19.3687,169.3204,Vanuatu,VU,VUT,Tafea,Tafea,VU-TAE,province,,116.3,,,4,Pacific/Efate,FALSE,1548960537
Tentaréssak,Tentaressak,,-15.9333,167.1667,Vanuatu,VU,VUT,Malampa,Malampa,VU-MAP,province,,9.2,,,5,Pacific/Efate,FALSE,1548397744
Valesdir,Valesdir,,-16.7833,168.1667,Vanuatu,VU,VUT,Shefa,Shefa,VU-SEE,province,,6.1,,,5,Pacific/Efate,FALSE,1548782493
Lounapkiko,Lounapkiko,Loounapkiko,-19.5034,169.2879,Vanuatu,VU,VUT,Tafea,Tafea,VU-TAE,province,,330.5,,,3,Pacific/Efate,FALSE,1548846023
Lounapkiko,Lounapkiko,,-19.4612,169.2432,Vanuatu,VU,VUT,Tafea,Tafea,VU-TAE,province,,9.6,,,5,Pacific/Efate,TRUE,1548000151
Lamalamita,Lamalamita,,-19.4597,169.3301,Vanuatu,VU,VUT,Tafea,Tafea,VU-TAE,province,,93.7,,,4,Pacific/Efate,FALSE,1548000185
Liékar,Liekar,Lavatavo,-15.0333,167.0000,Vanuatu,VU,VUT,Sanma,Sanma,VU-SAM,province,,1.7,,,5,Pacific/Efate,FALSE,1548322196
Rampounisia,Rampounisia,,-18.9667,169.2000,Vanuatu,VU,VUT,Tafea,Tafea,VU-TAE,province,,2.3,,,5,Pacific/Efate,FALSE,1548592026
Métadounkoul,Metadounkoul,,-15.7500,168.1500,Vanuatu,VU,VUT,Penama,Penama,VU-PAM,province,,17.1,,,4,Pacific/Efate,FALSE,1548487109
Ikaoras,Ikaoras,,-19.5066,169.2551,Vanuatu,VU,VUT,Tafea,Tafea,VU-TAE,province,,252.3,,,3,Pacific/Efate,FALSE,1548000594
"Yankwa Nenepum","Yankwa Nenepum",,-19.6042,169.3538,Vanuatu,VU,VUT,Tafea,Tafea,VU-TAE,province,,12.2,,,4,Pacific/Efate,FALSE,1548000234
Gébénour,Gebenour,,-16.2500,167.6167,Vanuatu,VU,VUT,Malampa,Malampa,VU-MAP,province,,8.8,,,5,Pacific/Efate,FALSE,1548365062
Yélowouwou,Yelowouwou,,-16.2833,167.9667,Vanuatu,VU,VUT,Malampa,Malampa,VU-MAP,province,,27.7,,,4,Pacific/Efate,FALSE,1548320770
Ranmouhou,Ranmouhou,,-16.1000,168.1333,Vanuatu,VU,VUT,Malampa,Malampa,VU-MAP,province,,149.5,,,4,Pacific/Efate,FALSE,1548584789
"Iakuanmeip Point","Iakuanmeip Point",,-19.5534,169.4844,Vanuatu,VU,VUT,Tafea,Tafea,VU-TAE,province,,96.5,,,4,Pacific/Efate,FALSE,1548000470
Ilmanga,Ilmanga,,-19.4572,169.3005,Vanuatu,VU,VUT,Tafea,Tafea,VU-TAE,province,,126.6,,,4,Pacific/Efate,FALSE,1548000260
Laukau,Laukau,,-19.5522,169.3151,Vanuatu,VU,VUT,Tafea,Tafea,VU-TAE,province,,49.8,,,4,Pacific/Efate,FALSE,1548000287
Lorédiakarkar,Lorediakarkar,,-15.2333,167.1167,Vanuatu,VU,VUT,Sanma,Sanma,VU-SAM,province,,4.2,,,5,Pacific/Efate,FALSE,1548635606
Woulior,Woulior,,-15.0167,167.0500,Vanuatu,VU,VUT,Sanma,Sanma,VU-SAM,province,,8.8,,,5,Pacific/Efate,FALSE,1548074346
Lourou,Lourou,,-15.2167,167.1667,Vanuatu,VU,VUT,Sanma,Sanma,VU-SAM,province,,73.0,,,4,Pacific/Efate,FALSE,1548193537
Léppa,Leppa,,-16.6833,168.2833,Vanuatu,VU,VUT,Shefa,Shefa,VU-SEE,province,,18.8,,,4,Pacific/Efate,FALSE,1548332947
Lowkaleuv,Lowkaleuv,,-19.4423,169.3276,Vanuatu,VU,VUT,Tafea,Tafea,VU-TAE,province,,27.6,,,4,Pacific/Efate,FALSE,1548000119
Souloua,Souloua,Boloa,-17.0667,168.3667,Vanuatu,VU,VUT,Shefa,Shefa,VU-SEE,province,,25.0,,,4,Pacific/Efate,FALSE,1548841189
Panap,Panap,"Saint Michel",-15.9333,168.2667,Vanuatu,VU,VUT,Penama,Penama,VU-PAM,province,,26.1,,,4,Pacific/Efate,FALSE,1548991107
Eton,Eton,,-17.7500,168.5500,Vanuatu,VU,VUT,Shefa,Shefa,VU-SEE,province,,11.5,,,4,Pacific/Efate,FALSE,1548474845
Wuro,Wuro,Ouro,-16.2667,167.9167,Vanuatu,VU,VUT,Malampa,Malampa,VU-MAP,province,,71.3,,,4,Pacific/Efate,FALSE,1548255684
Moriou,Moriou,,-16.6000,168.2000,Vanuatu,VU,VUT,Shefa,Shefa,VU-SEE,province,,43.7,,,4,Pacific/Efate,FALSE,1548246727
Ahajom,Ahajom,,-20.2453,169.8617,Vanuatu,VU,VUT,Tafea,Tafea,VU-TAE,province,,4.6,,,5,Pacific/Efate,FALSE,1548000103
Kalili,Kalili,,-19.5352,169.4174,Vanuatu,VU,VUT,Tafea,Tafea,VU-TAE,province,,38.2,,,4,Pacific/Efate,FALSE,1548000152
Hawor,Hawor,,-16.1500,168.1333,Vanuatu,VU,VUT,Malampa,Malampa,VU-MAP,province,,28.0,,,4,Pacific/Efate,FALSE,1548299444
Finongi,Finongi,,-17.0667,168.4000,Vanuatu,VU,VUT,Shefa,Shefa,VU-SEE,province,,79.1,,,4,Pacific/Efate,FALSE,1548415059
Matangui-Salembanga,Matangui-Salembanga,Selembenga|Selembanga|Matangi,-16.8833,168.5833,Vanuatu,VU,VUT,Shefa,Shefa,VU-SEE,province,,73.3,,,4,Pacific/Efate,FALSE,1548229774
Baga,Baga,,-15.7167,168.1333,Vanuatu,VU,VUT,Penama,Penama,VU-PAM,province,,47.1,,,4,Pacific/Efate,FALSE,1548804693
Sanasoup,Sanasoup,,-16.3333,168.0000,Vanuatu,VU,VUT,Malampa,Malampa,VU-MAP,province,,10.3,,,4,Pacific/Efate,FALSE,1548436788
Lanamir,Lanamir,,-19.5128,169.2571,Vanuatu,VU,VUT,Tafea,Tafea,VU-TAE,province,,168.9,,,4,Pacific/Efate,FALSE,1548000400
Wounaouss,Wounaouss,,-15.5833,167.0000,Vanuatu,VU,VUT,Sanma,Sanma,VU-SAM,province,,34.8,,,4,Pacific/Efate,FALSE,1548747957
Loupilpil,Loupilpil,,-19.3849,169.3377,Vanuatu,VU,VUT,Tafea,Tafea,VU-TAE,province,,56.2,,,4,Pacific/Efate,FALSE,1548000139
Siviri,Siviri,,-17.5333,168.3167,Vanuatu,VU,VUT,Shefa,Shefa,VU-SEE,province,,4.7,,,5,Pacific/Efate,FALSE,1548935888
Pélol,Pelol,,-14.7833,166.7000,Vanuatu,VU,VUT,Sanma,Sanma,VU-SAM,province,,2.8,,,5,Pacific/Efate,FALSE,1548180592
Leboung,Leboung,,-15.6833,168.1333,Vanuatu,VU,VUT,Penama,Penama,VU-PAM,province,,61.5,,,4,Pacific/Efate,FALSE,1548179541
Ropoutsoum,Ropoutsoum,,-15.4167,166.9667,Vanuatu,VU,VUT,Sanma,Sanma,VU-SAM,province,,1.0,,,5,Pacific/Efate,FALSE,1548319929
Tavio,Tavio,,-16.6667,168.2167,Vanuatu,VU,VUT,Shefa,Shefa,VU-SEE,province,,21.6,,,4,Pacific/Efate,FALSE,1548200515
Tavendroua,Tavendroua,"Sainte Thérèse",-16.3500,167.3667,Vanuatu,VU,VUT,Malampa,Malampa,VU-MAP,province,,4.7,,,5,Pacific/Efate,FALSE,1548924666
Loua,Loua,,-15.9333,167.3167,Vanuatu,VU,VUT,Malampa,Malampa,VU-MAP,province,,25.1,,,4,Pacific/Efate,FALSE,1548662930
Vousin,Vousin,,-15.4667,166.8833,Vanuatu,VU,VUT,Sanma,Sanma,VU-SAM,province,,4.4,,,5,Pacific/Efate,FALSE,1548955084
Wusi,Wusi,Wus|Wousi|Poussy,-15.3667,166.6500,Vanuatu,VU,VUT,Sanma,Sanma,VU-SAM,province,,3.9,,,4,Pacific/Efate,FALSE,1548142427
Etelekei,Etelekei,Télékey,-19.4993,169.4539,Vanuatu,VU,VUT,Tafea,Tafea,VU-TAE,province,,246.9,,,3,Pacific/Efate,FALSE,1548034524
Latapu,Latapu,,-19.4777,169.3857,Vanuatu,VU,VUT,Tafea,Tafea,VU-TAE,province,,98.5,,,4,Pacific/Efate,FALSE,1548000546
Irukuan,Irukuan,,-19.5786,169.3495,Vanuatu,VU,VUT,Tafea,Tafea,VU-TAE,province,,54.6,,,4,Pacific/Efate,FALSE,1548000273
"Dip Point","Dip Point",,-19.4937,169.4028,Vanuatu,VU,VUT,Tafea,Tafea,VU-TAE,province,,46.5,,,4,Pacific/Efate,FALSE,1548000563
Metoma,Metoma,,-13.2035,166.6041,Vanuatu,VU,VUT,Torba,Torba,VU-TOB,province,,4.8,,,5,Pacific/Efate,FALSE,1548000079
Telmtig,Telmtig,,-13.6761,167.7124,Vanuatu,VU,VUT,Torba,Torba,VU-TOB,province,,7.2,,,5,Pacific/Efate,FALSE,1548000019
Lalbétaès,Lalbetaes,,-15.7667,168.1333,Vanuatu,VU,VUT,Penama,Penama,VU-PAM,province,,122.6,,,4,Pacific/Efate,FALSE,1548230904
Lolsanga,Lolsanga,,-15.3833,167.9333,Vanuatu,VU,VUT,Penama,Penama,VU-PAM,province,,11.4,,,4,Pacific/Efate,FALSE,1548853611
Ilpweutou,Ilpweutou,,-19.4500,169.3167,Vanuatu,VU,VUT,Tafea,Tafea,VU-TAE,province,,29.9,,,4,Pacific/Efate,FALSE,1548812248
Imasa,Imasa,,-19.2572,169.5999,Vanuatu,VU,VUT,Tafea,Tafea,VU-TAE,province,,35.9,,,4,Pacific/Efate,FALSE,1548000473
Lével,Level,,-15.6833,168.1667,Vanuatu,VU,VUT,Penama,Penama,VU-PAM,province,,104.4,,,4,Pacific/Efate,FALSE,1548556369
Likalia,Likalia,,-17.0167,168.6167,Vanuatu,VU,VUT,Shefa,Shefa,VU-SEE,province,,87.4,,,4,Pacific/Efate,FALSE,1548291991
Iilé,Iile,,-13.7000,167.6500,Vanuatu,VU,VUT,Torba,Torba,VU-TOB,province,,107.7,,,4,Pacific/Efate,FALSE,1548489199
"Le Lagon","Le Lagon",,-17.7667,168.3500,Vanuatu,VU,VUT,Shefa,Shefa,VU-SEE,province,,79.0,,,4,Pacific/Efate,FALSE,1548174761
Lonwel,Lonwel,,-16.1667,168.1000,Vanuatu,VU,VUT,Malampa,Malampa,VU-MAP,province,,2.3,,,5,Pacific/Efate,FALSE,1548843452
Bogor,Bogor,,-16.1167,168.1500,Vanuatu,VU,VUT,Malampa,Malampa,VU-MAP,province,,39.0,,,4,Pacific/Efate,FALSE,1548578860
Ipikel,Ipikel,Ipeukeul|Ipeukel,-19.5131,169.4600,Vanuatu,VU,VUT,Tafea,Tafea,VU-TAE,province,,93.3,,,4,Pacific/Efate,FALSE,1548756184
Ianasure,Ianasure,,-19.5620,169.4502,Vanuatu,VU,VUT,Tafea,Tafea,VU-TAE,province,,47.9,,,4,Pacific/Efate,FALSE,1548000475
Malfakal,Malfakal,Malboral,-16.5500,167.5667,Vanuatu,VU,VUT,Malampa,Malampa,VU-MAP,province,,69.5,,,4,Pacific/Efate,FALSE,1548577425
Namaram,Namaram,,-15.6333,168.1167,Vanuatu,VU,VUT,Penama,Penama,VU-PAM,province,,30.9,,,4,Pacific/Efate,FALSE,1548354974
Iunapek,Iunapek,,-19.4679,169.3208,Vanuatu,VU,VUT,Tafea,Tafea,VU-TAE,province,,156.3,,,4,Pacific/Efate,FALSE,1548000284
Imttania,Imttania,,-20.1902,169.9015,Vanuatu,VU,VUT,Tafea,Tafea,VU-TAE,province,,4.6,,,5,Pacific/Efate,FALSE,1548000205
Loukawia,Loukawia,,-19.4855,169.3264,Vanuatu,VU,VUT,Tafea,Tafea,VU-TAE,province,,38.2,,,4,Pacific/Efate,FALSE,1548000243
Tatafo,Tatafo,,-15.3833,166.9833,Vanuatu,VU,VUT,Sanma,Sanma,VU-SAM,province,,6.5,,,5,Pacific/Efate,FALSE,1548084252
Lolotingé,Lolotinge,,-15.3667,167.7667,Vanuatu,VU,VUT,Penama,Penama,VU-PAM,province,,23.3,,,4,Pacific/Efate,FALSE,1548310426
Imata,Imata,,-19.5787,169.4635,Vanuatu,VU,VUT,Tafea,Tafea,VU-TAE,province,,60.7,,,4,Pacific/Efate,FALSE,1548000244
Winbou,Winbou,,-15.4167,166.9500,Vanuatu,VU,VUT,Sanma,Sanma,VU-SAM,province,,0.8,,,5,Pacific/Efate,FALSE,1548187904
Lownapik,Lownapik,,-19.4994,169.3056,Vanuatu,VU,VUT,Tafea,Tafea,VU-TAE,province,,75.2,,,4,Pacific/Efate,FALSE,1548000467
Lowosi,Lowosi,,-15.3833,167.9167,Vanuatu,VU,VUT,Penama,Penama,VU-PAM,province,,11.4,,,4,Pacific/Efate,FALSE,1548576449
Lokarua,Lokarua,,-19.3433,169.3100,Vanuatu,VU,VUT,Tafea,Tafea,VU-TAE,province,,46.1,,,4,Pacific/Efate,FALSE,1548000405
Sonrha,Sonrha,,-15.9167,167.1667,Vanuatu,VU,VUT,Malampa,Malampa,VU-MAP,province,,9.2,,,5,Pacific/Efate,FALSE,1548055988
Ounwarou,Ounwarou,"Saint Henri et Saint-Paul",-16.0000,168.2000,Vanuatu,VU,VUT,Penama,Penama,VU-PAM,province,,45.2,,,4,Pacific/Efate,FALSE,1548003484
Yakunawis,Yakunawis,,-19.6000,169.4622,Vanuatu,VU,VUT,Tafea,Tafea,VU-TAE,province,,53.7,,,4,Pacific/Efate,FALSE,1548000542
Yavenkula,Yavenkula,,-19.5466,169.3115,Vanuatu,VU,VUT,Tafea,Tafea,VU-TAE,province,,115.2,,,4,Pacific/Efate,FALSE,1548000357
"Tafanua Palo","Tafanua Palo",,-19.2689,169.5933,Vanuatu,VU,VUT,Tafea,Tafea,VU-TAE,province,,35.9,,,4,Pacific/Efate,FALSE,1548000555
Yenemava,Yenemava,,-19.5636,169.3572,Vanuatu,VU,VUT,Tafea,Tafea,VU-TAE,province,,19.4,,,4,Pacific/Efate,FALSE,1548000525
Lakaio,Lakaio,,-19.3707,169.3007,Vanuatu,VU,VUT,Tafea,Tafea,VU-TAE,province,,179.0,,,4,Pacific/Efate,FALSE,1548000393
Idec,Idec,,-20.2182,169.8889,Vanuatu,VU,VUT,Tafea,Tafea,VU-TAE,province,,4.6,,,5,Pacific/Efate,FALSE,1548000486
Yaohnamen,Yaohnamen,,-19.5500,169.3333,Vanuatu,VU,VUT,Tafea,Tafea,VU-TAE,province,,106.4,,,4,Pacific/Efate,FALSE,1548000280
Loumia,Loumia,,-19.4517,169.2792,Vanuatu,VU,VUT,Tafea,Tafea,VU-TAE,province,,65.5,,,4,Pacific/Efate,FALSE,1548000428
Lombaha,Lombaha,Lonbaha,-15.3000,167.8667,Vanuatu,VU,VUT,Penama,Penama,VU-PAM,province,,110.1,,,4,Pacific/Efate,FALSE,1548509941
Pivosava,Pivosava,,-13.1833,166.5667,Vanuatu,VU,VUT,Torba,Torba,VU-TOB,province,,6.8,,,5,Pacific/Efate,FALSE,1548555114
"Louteklepe Tuan","Louteklepe Tuan",,-19.4543,169.2959,Vanuatu,VU,VUT,Tafea,Tafea,VU-TAE,province,,129.4,,,4,Pacific/Efate,FALSE,1548000257
Ontar,Ontar,Onétar,-14.3000,167.4167,Vanuatu,VU,VUT,Torba,Torba,VU-TOB,province,,7.5,,,5,Pacific/Efate,FALSE,1548622326
Yakunaveuka,Yakunaveuka,,-19.5354,169.3297,Vanuatu,VU,VUT,Tafea,Tafea,VU-TAE,province,,106.4,,,4,Pacific/Efate,FALSE,1548000410
Lamanapiepi,Lamanapiepi,,-19.4949,169.4144,Vanuatu,VU,VUT,Tafea,Tafea,VU-TAE,province,,68.5,,,4,Pacific/Efate,FALSE,1548000418
Hokoua,Hokoua,Hokia,-14.6667,166.6167,Vanuatu,VU,VUT,Sanma,Sanma,VU-SAM,province,,11.8,,,4,Pacific/Efate,FALSE,1548492414
Emua,Emua,Emoa|Émua,-17.5500,168.3667,Vanuatu,VU,VUT,Shefa,Shefa,VU-SEE,province,,67.1,,,4,Pacific/Efate,FALSE,1548343763
Mangarongo,Mangarongo,,-17.4765,168.4789,Vanuatu,VU,VUT,Shefa,Shefa,VU-SEE,province,,186.4,,,4,Pacific/Efate,FALSE,1548000085
Ipal,Ipal,,-19.5049,169.2600,Vanuatu,VU,VUT,Tafea,Tafea,VU-TAE,province,,406.0,,,3,Pacific/Efate,FALSE,1548000177
Pourtihé,Pourtihe,,-14.9667,166.6167,Vanuatu,VU,VUT,Sanma,Sanma,VU-SAM,province,,3.4,,,5,Pacific/Efate,FALSE,1548347051
Tasmaloum,Tasmaloum,"Tasmalune Trader|Tasmaloun|Tasmalune",-15.6167,166.9000,Vanuatu,VU,VUT,Sanma,Sanma,VU-SAM,province,,58.2,,,4,Pacific/Efate,FALSE,1548010259
Ifo,Ifo,,-18.9167,169.3333,Vanuatu,VU,VUT,Tafea,Tafea,VU-TAE,province,,0.3,,,5,Pacific/Efate,FALSE,1548558560
Yankuanapkapa,Yankuanapkapa,,-19.6484,169.4146,Vanuatu,VU,VUT,Tafea,Tafea,VU-TAE,province,,17.8,,,4,Pacific/Efate,FALSE,1548000253
Avounbaka,Avounbaka,,-15.6333,167.1000,Vanuatu,VU,VUT,Sanma,Sanma,VU-SAM,province,,78.7,,,4,Pacific/Efate,FALSE,1548275702
Lahambek,Lahambek,Laanbek,-13.6655,167.6574,Vanuatu,VU,VUT,Torba,Torba,VU-TOB,province,,7.2,,,5,Pacific/Efate,FALSE,1548360825
Ianarou,Ianarou,,-19.6100,169.4660,Vanuatu,VU,VUT,Tafea,Tafea,VU-TAE,province,,18.1,,,4,Pacific/Efate,FALSE,1548000266
Bongabonga,Bongabonga,,-16.9333,168.5333,Vanuatu,VU,VUT,Shefa,Shefa,VU-SEE,province,,58.3,,,4,Pacific/Efate,FALSE,1548326269
Tétavalé,Tetavale,,-16.3667,168.2333,Vanuatu,VU,VUT,Malampa,Malampa,VU-MAP,province,,18.1,,,4,Pacific/Efate,FALSE,1548407924
Eren,Eren,Lebutt,-14.9500,167.0167,Vanuatu,VU,VUT,Sanma,Sanma,VU-SAM,province,,7.1,,,5,Pacific/Efate,FALSE,1548387014
"Port Patteson","Port Patteson",,-13.8500,167.5500,Vanuatu,VU,VUT,Torba,Torba,VU-TOB,province,,14.8,,,4,Pacific/Efate,FALSE,1548000067
Ikaseukwi,Ikaseukwi,,-19.5333,169.2833,Vanuatu,VU,VUT,Tafea,Tafea,VU-TAE,province,,72.7,,,4,Pacific/Efate,FALSE,1548953664
Ivanelhat,Ivanelhat,,-20.2331,169.7726,Vanuatu,VU,VUT,Tafea,Tafea,VU-TAE,province,,8.1,,,5,Pacific/Efate,FALSE,1548000154
Hebron,Hebron,,-19.3363,169.2690,Vanuatu,VU,VUT,Tafea,Tafea,VU-TAE,province,,41.1,,,4,Pacific/Efate,FALSE,1548000223
Woundrpoutsour,Woundrpoutsour,,-15.4167,166.9833,Vanuatu,VU,VUT,Sanma,Sanma,VU-SAM,province,,1.4,,,5,Pacific/Efate,FALSE,1548786519
Lowkanel,Lowkanel,,-19.4837,169.3582,Vanuatu,VU,VUT,Tafea,Tafea,VU-TAE,province,,100.8,,,4,Pacific/Efate,FALSE,1548999995
Nambaramout,Nambaramout,,-15.5833,168.1167,Vanuatu,VU,VUT,Penama,Penama,VU-PAM,province,,111.8,,,4,Pacific/Efate,FALSE,1548743330
Bilbilou,Bilbilou,,-15.5000,166.8833,Vanuatu,VU,VUT,Sanma,Sanma,VU-SAM,province,,4.4,,,5,Pacific/Efate,FALSE,1548332265
Lonsal,Lonsal,,-16.1667,168.1167,Vanuatu,VU,VUT,Malampa,Malampa,VU-MAP,province,,2.3,,,5,Pacific/Efate,FALSE,1548092792
Mataméa,Matamea,,-15.4500,166.7500,Vanuatu,VU,VUT,Sanma,Sanma,VU-SAM,province,,6.8,,,5,Pacific/Efate,FALSE,1548155457
Yakuriruang,Yakuriruang,Yaoukouriruang,-19.5634,169.3615,Vanuatu,VU,VUT,Tafea,Tafea,VU-TAE,province,,14.1,,,4,Pacific/Efate,FALSE,1548823331
Nokonsédé,Nokonsede,,-15.7333,168.1667,Vanuatu,VU,VUT,Penama,Penama,VU-PAM,province,,21.6,,,4,Pacific/Efate,FALSE,1548637857
Lenmawut,Lenmawut,Lenmowet,-19.5239,169.2775,Vanuatu,VU,VUT,Tafea,Tafea,VU-TAE,province,,158.4,,,4,Pacific/Efate,FALSE,1548954754
Nogougou,Nogougou,Nogugu,-14.9333,166.5833,Vanuatu,VU,VUT,Sanma,Sanma,VU-SAM,province,,3.4,,,5,Pacific/Efate,FALSE,1548308242
"Kawiameta Point","Kawiameta Point",,-19.6428,169.4515,Vanuatu,VU,VUT,Tafea,Tafea,VU-TAE,province,,49.1,,,4,Pacific/Efate,FALSE,1548000271
Falan,Falan,,-15.3833,167.0333,Vanuatu,VU,VUT,Sanma,Sanma,VU-SAM,province,,6.4,,,5,Pacific/Efate,FALSE,1548741203
Lolomatwi,Lolomatwi,,-15.3333,167.8000,Vanuatu,VU,VUT,Penama,Penama,VU-PAM,province,,21.9,,,4,Pacific/Efate,FALSE,1548763736
Lolonwélé,Lolonwele,,-15.3167,167.8500,Vanuatu,VU,VUT,Penama,Penama,VU-PAM,province,,8.2,,,5,Pacific/Efate,FALSE,1548533288
Yankonau,Yankonau,,-19.5829,169.3410,Vanuatu,VU,VUT,Tafea,Tafea,VU-TAE,province,,37.9,,,4,Pacific/Efate,FALSE,1548000421
Udapua,Udapua,,-17.4819,168.3703,Vanuatu,VU,VUT,Shefa,Shefa,VU-SEE,province,,43.6,,,4,Pacific/Efate,FALSE,1548000087
Waylapa,Waylapa,Wailapa,-15.5833,166.9333,Vanuatu,VU,VUT,Sanma,Sanma,VU-SAM,province,,59.0,,,4,Pacific/Efate,FALSE,1548187416
Iuiak,Iuiak,,-19.4351,169.2294,Vanuatu,VU,VUT,Tafea,Tafea,VU-TAE,province,,9.6,,,5,Pacific/Efate,FALSE,1548000265
Tivel,Tivel,,-16.0500,167.4000,Vanuatu,VU,VUT,Malampa,Malampa,VU-MAP,province,,94.3,,,4,Pacific/Efate,FALSE,1548584259
Rampounrougou,Rampounrougou,,-18.9167,169.0833,Vanuatu,VU,VUT,Tafea,Tafea,VU-TAE,province,,2.3,,,5,Pacific/Efate,FALSE,1548177056
Dineumevuneu,Dineumevuneu,,-13.1283,166.5872,Vanuatu,VU,VUT,Torba,Torba,VU-TOB,province,,6.8,,,5,Pacific/Efate,FALSE,1548000011
Tsaraépéla,Tsaraepela,,-15.4667,166.8667,Vanuatu,VU,VUT,Sanma,Sanma,VU-SAM,province,,4.4,,,5,Pacific/Efate,FALSE,1548062012
